{
"type": "FeatureCollection",
"name": "Amenities-Transit",
"features": [
{ "type": "Feature", "properties": { "osm_id": "273592755", "code": 5621, "fclass": "bus_stop", "name": null }, "geometry": { "type": "Point", "coordinates": [ -84.4800557, 38.0915756 ] } },
{ "type": "Feature", "properties": { "osm_id": "273592814", "code": 5621, "fclass": "bus_stop", "name": null }, "geometry": { "type": "Point", "coordinates": [ -84.4686699, 38.0863062 ] } },
{ "type": "Feature", "properties": { "osm_id": "273593059", "code": 5621, "fclass": "bus_stop", "name": null }, "geometry": { "type": "Point", "coordinates": [ -84.4822615, 38.077652 ] } },
{ "type": "Feature", "properties": { "osm_id": "273593130", "code": 5621, "fclass": "bus_stop", "name": null }, "geometry": { "type": "Point", "coordinates": [ -84.4842356, 38.0599549 ] } },
{ "type": "Feature", "properties": { "osm_id": "273593217", "code": 5621, "fclass": "bus_stop", "name": null }, "geometry": { "type": "Point", "coordinates": [ -84.4840811, 38.0599009 ] } },
{ "type": "Feature", "properties": { "osm_id": "273593405", "code": 5621, "fclass": "bus_stop", "name": null }, "geometry": { "type": "Point", "coordinates": [ -84.4998311, 38.0490399 ] } },
{ "type": "Feature", "properties": { "osm_id": "274131318", "code": 5621, "fclass": "bus_stop", "name": null }, "geometry": { "type": "Point", "coordinates": [ -84.4967079, 38.0716115 ] } },
{ "type": "Feature", "properties": { "osm_id": "274131340", "code": 5621, "fclass": "bus_stop", "name": null }, "geometry": { "type": "Point", "coordinates": [ -84.4844598, 38.1027408 ] } },
{ "type": "Feature", "properties": { "osm_id": "666594724", "code": 5621, "fclass": "bus_stop", "name": null }, "geometry": { "type": "Point", "coordinates": [ -84.4055775, 38.0241944 ] } },
{ "type": "Feature", "properties": { "osm_id": "2685224615", "code": 5621, "fclass": "bus_stop", "name": "Bluegrass Art Shelter" }, "geometry": { "type": "Point", "coordinates": [ -84.4996344, 38.0644651 ] } },
{ "type": "Feature", "properties": { "osm_id": "2896415401", "code": 5621, "fclass": "bus_stop", "name": "1356 North Broadway @ 3rd Outbound" }, "geometry": { "type": "Point", "coordinates": [ -84.495614, 38.051842 ] } },
{ "type": "Feature", "properties": { "osm_id": "2896460836", "code": 5621, "fclass": "bus_stop", "name": null }, "geometry": { "type": "Point", "coordinates": [ -84.4891951, 38.0466774 ] } },
{ "type": "Feature", "properties": { "osm_id": "3158130390", "code": 5621, "fclass": "bus_stop", "name": "Blue Route Bus Stop" }, "geometry": { "type": "Point", "coordinates": [ -84.5037542, 38.0259991 ] } },
{ "type": "Feature", "properties": { "osm_id": "3164006932", "code": 5621, "fclass": "bus_stop", "name": "804 South Upper @ The Steps Outbound" }, "geometry": { "type": "Point", "coordinates": [ -84.5066944, 38.0398721 ] } },
{ "type": "Feature", "properties": { "osm_id": "3176052766", "code": 5621, "fclass": "bus_stop", "name": "1052 Rose @ Lyndhurst Outbound" }, "geometry": { "type": "Point", "coordinates": [ -84.4953913, 38.0408836 ] } },
{ "type": "Feature", "properties": { "osm_id": "3176052767", "code": 5621, "fclass": "bus_stop", "name": "1092 Rose @ 224 Inbound" }, "geometry": { "type": "Point", "coordinates": [ -84.495308, 38.0409443 ] } },
{ "type": "Feature", "properties": { "osm_id": "3176052768", "code": 5621, "fclass": "bus_stop", "name": "331 Rose @ Maxwell Outbound" }, "geometry": { "type": "Point", "coordinates": [ -84.496914, 38.0398253 ] } },
{ "type": "Feature", "properties": { "osm_id": "3176052769", "code": 5621, "fclass": "bus_stop", "name": "1091 Rose @ Maxwell Inbound" }, "geometry": { "type": "Point", "coordinates": [ -84.4973085, 38.0395539 ] } },
{ "type": "Feature", "properties": { "osm_id": "3176052770", "code": 5621, "fclass": "bus_stop", "name": "1144 Euclid @ Rose Inbound" }, "geometry": { "type": "Point", "coordinates": [ -84.4996871, 38.0377421 ] } },
{ "type": "Feature", "properties": { "osm_id": "3176052771", "code": 5621, "fclass": "bus_stop", "name": "1242 - Euclid @ Rose\/Linden Walk Outbound" }, "geometry": { "type": "Point", "coordinates": [ -84.4991047, 38.037229 ] } },
{ "type": "Feature", "properties": { "osm_id": "3176052772", "code": 5621, "fclass": "bus_stop", "name": "1054 Euclid @ Woodland Outbound" }, "geometry": { "type": "Point", "coordinates": [ -84.4962091, 38.0346442 ] } },
{ "type": "Feature", "properties": { "osm_id": "3176052773", "code": 5621, "fclass": "bus_stop", "name": "1090 Euclid @ Woodland Inbound" }, "geometry": { "type": "Point", "coordinates": [ -84.4959433, 38.0344056 ] } },
{ "type": "Feature", "properties": { "osm_id": "3176052774", "code": 5621, "fclass": "bus_stop", "name": "1055 - Euclid @ Oldham Outbound" }, "geometry": { "type": "Point", "coordinates": [ -84.4947021, 38.0333066 ] } },
{ "type": "Feature", "properties": { "osm_id": "3176052775", "code": 5621, "fclass": "bus_stop", "name": "1089 - Euclid @ Park Inbound" }, "geometry": { "type": "Point", "coordinates": [ -84.4941096, 38.0327791 ] } },
{ "type": "Feature", "properties": { "osm_id": "3176052776", "code": 5621, "fclass": "bus_stop", "name": "1239 Euclid @ Chase Bank Inbound" }, "geometry": { "type": "Point", "coordinates": [ -84.4915741, 38.0305228 ] } },
{ "type": "Feature", "properties": { "osm_id": "3176052777", "code": 5621, "fclass": "bus_stop", "name": "5013 - Euclid @ Ashland Outbound" }, "geometry": { "type": "Point", "coordinates": [ -84.4914688, 38.0304299 ] } },
{ "type": "Feature", "properties": { "osm_id": "3176052778", "code": 5621, "fclass": "bus_stop", "name": "1087 - Fontaine @ High Inbound" }, "geometry": { "type": "Point", "coordinates": [ -84.489675, 38.0293419 ] } },
{ "type": "Feature", "properties": { "osm_id": "3176052779", "code": 5621, "fclass": "bus_stop", "name": "1057 - Fontaine @ 1014 Outbound" }, "geometry": { "type": "Point", "coordinates": [ -84.488816, 38.029183 ] } },
{ "type": "Feature", "properties": { "osm_id": "3176052780", "code": 5621, "fclass": "bus_stop", "name": "1086 - Fontaine @ McDowell Inbound" }, "geometry": { "type": "Point", "coordinates": [ -84.4857927, 38.0274852 ] } },
{ "type": "Feature", "properties": { "osm_id": "3176052781", "code": 5621, "fclass": "bus_stop", "name": "1058 - Fontaine @ 1204 Outbound" }, "geometry": { "type": "Point", "coordinates": [ -84.4857028, 38.027447 ] } },
{ "type": "Feature", "properties": { "osm_id": "3176052782", "code": 5621, "fclass": "bus_stop", "name": "1085 Fontaine @ Woodspoint Inbound" }, "geometry": { "type": "Point", "coordinates": [ -84.4824411, 38.0256288 ] } },
{ "type": "Feature", "properties": { "osm_id": "3176052783", "code": 5621, "fclass": "bus_stop", "name": "1059 Fontaine @ 1370 Outbound" }, "geometry": { "type": "Point", "coordinates": [ -84.4825671, 38.025701 ] } },
{ "type": "Feature", "properties": { "osm_id": "3176052784", "code": 5621, "fclass": "bus_stop", "name": "1060 Fontaine @ Chinoe Outbound" }, "geometry": { "type": "Point", "coordinates": [ -84.479428, 38.0236785 ] } },
{ "type": "Feature", "properties": { "osm_id": "3176052785", "code": 5621, "fclass": "bus_stop", "name": "1083 Fontaine @ Chinoe Inbound" }, "geometry": { "type": "Point", "coordinates": [ -84.4790432, 38.0234058 ] } },
{ "type": "Feature", "properties": { "osm_id": "3176052786", "code": 5621, "fclass": "bus_stop", "name": "1061 Fontaine @ Clinton Outbound" }, "geometry": { "type": "Point", "coordinates": [ -84.4770066, 38.0220498 ] } },
{ "type": "Feature", "properties": { "osm_id": "3176052787", "code": 5621, "fclass": "bus_stop", "name": "1084 Fontaine @ 1909 Inbound" }, "geometry": { "type": "Point", "coordinates": [ -84.4754813, 38.0211227 ] } },
{ "type": "Feature", "properties": { "osm_id": "3176052788", "code": 5621, "fclass": "bus_stop", "name": "1062 Fontaine @ 1954 Outbound" }, "geometry": { "type": "Point", "coordinates": [ -84.473401, 38.01963 ] } },
{ "type": "Feature", "properties": { "osm_id": "3176052789", "code": 5621, "fclass": "bus_stop", "name": "1082 Fontaine @ 2005 Inbound" }, "geometry": { "type": "Point", "coordinates": [ -84.4729835, 38.0193351 ] } },
{ "type": "Feature", "properties": { "osm_id": "3176052790", "code": 5621, "fclass": "bus_stop", "name": "5012 Fontaine @ Lakeshore Outbound" }, "geometry": { "type": "Point", "coordinates": [ -84.4708867, 38.0178823 ] } },
{ "type": "Feature", "properties": { "osm_id": "3176052791", "code": 5621, "fclass": "bus_stop", "name": "1081 Fontaine @ Lakeshore Inbound" }, "geometry": { "type": "Point", "coordinates": [ -84.4697151, 38.0175282 ] } },
{ "type": "Feature", "properties": { "osm_id": "3176052792", "code": 5621, "fclass": "bus_stop", "name": "332 -Fontaine @ Dinsmore Outbound" }, "geometry": { "type": "Point", "coordinates": [ -84.4675932, 38.0175497 ] } },
{ "type": "Feature", "properties": { "osm_id": "3176052793", "code": 5621, "fclass": "bus_stop", "name": "333 Fontaine @ Richmond Inbound" }, "geometry": { "type": "Point", "coordinates": [ -84.467276, 38.0177572 ] } },
{ "type": "Feature", "properties": { "osm_id": "3176052794", "code": 5621, "fclass": "bus_stop", "name": "5014 Fontaine @ Richmond Outbound" }, "geometry": { "type": "Point", "coordinates": [ -84.4651222, 38.0180744 ] } },
{ "type": "Feature", "properties": { "osm_id": "3176052795", "code": 5621, "fclass": "bus_stop", "name": "Richmond @ 2234 Outbound - Stop 891" }, "geometry": { "type": "Point", "coordinates": [ -84.463465, 38.0169782 ] } },
{ "type": "Feature", "properties": { "osm_id": "3176052796", "code": 5621, "fclass": "bus_stop", "name": "Richmond @ Lake Park - Stop 903" }, "geometry": { "type": "Point", "coordinates": [ -84.460357, 38.014418 ] } },
{ "type": "Feature", "properties": { "osm_id": "3176052797", "code": 5621, "fclass": "bus_stop", "name": "Woodhill @ Codell Outbound - Stop 106 (PM Only)" }, "geometry": { "type": "Point", "coordinates": [ -84.4536193, 38.017098 ] } },
{ "type": "Feature", "properties": { "osm_id": "3176052798", "code": 5621, "fclass": "bus_stop", "name": "Codell @ Woodhill Inbound - Stop 1674 (PM Only)" }, "geometry": { "type": "Point", "coordinates": [ -84.4533762, 38.017334 ] } },
{ "type": "Feature", "properties": { "osm_id": "3176052799", "code": 5621, "fclass": "bus_stop", "name": "Codell @ Woodhill Inbound - Stop 1674 (AM Only)" }, "geometry": { "type": "Point", "coordinates": [ -84.4531629, 38.0169898 ] } },
{ "type": "Feature", "properties": { "osm_id": "3176052800", "code": 5621, "fclass": "bus_stop", "name": "Woodhill @ Osage Outbound - Stop 1067 (PM Only)" }, "geometry": { "type": "Point", "coordinates": [ -84.4499886, 38.0160123 ] } },
{ "type": "Feature", "properties": { "osm_id": "3176052801", "code": 5621, "fclass": "bus_stop", "name": "Woodhill @ 2449 Inbound - Stop 1634 (AM Only)" }, "geometry": { "type": "Point", "coordinates": [ -84.4498171, 38.0159057 ] } },
{ "type": "Feature", "properties": { "osm_id": "3176052802", "code": 5621, "fclass": "bus_stop", "name": "Woodhill @ Hedgewood Outbound - Stop 1068 (PM Only)" }, "geometry": { "type": "Point", "coordinates": [ -84.4473135, 38.014313 ] } },
{ "type": "Feature", "properties": { "osm_id": "3176052803", "code": 5621, "fclass": "bus_stop", "name": "Woodhill @ Hedgewood - Stop 1633 (AM Only)" }, "geometry": { "type": "Point", "coordinates": [ -84.4473648, 38.0143464 ] } },
{ "type": "Feature", "properties": { "osm_id": "3176052804", "code": 5621, "fclass": "bus_stop", "name": "Woodhill @ Larkwood - Stop 1632 (PM Only)" }, "geometry": { "type": "Point", "coordinates": [ -84.4441168, 38.0121665 ] } },
{ "type": "Feature", "properties": { "osm_id": "3176052805", "code": 5621, "fclass": "bus_stop", "name": "Woodhill @ Shadowood Outbound - Stop 1070 (PM Only)" }, "geometry": { "type": "Point", "coordinates": [ -84.443187, 38.011227 ] } },
{ "type": "Feature", "properties": { "osm_id": "3176052806", "code": 5621, "fclass": "bus_stop", "name": "Toods @ Pinewood Outbound - Stop 1071 (PM Only)" }, "geometry": { "type": "Point", "coordinates": [ -84.4420157, 38.0097273 ] } },
{ "type": "Feature", "properties": { "osm_id": "3176052807", "code": 5621, "fclass": "bus_stop", "name": "Todds @ Chelsa Wood Inbound - Stop 1631 (AM Only)" }, "geometry": { "type": "Point", "coordinates": [ -84.440581, 38.0096261 ] } },
{ "type": "Feature", "properties": { "osm_id": "3176052808", "code": 5621, "fclass": "bus_stop", "name": "Todds @ Palumbo (Galls) Inbound - Stop 1630 (AM Only)" }, "geometry": { "type": "Point", "coordinates": [ -84.4371556, 38.0094201 ] } },
{ "type": "Feature", "properties": { "osm_id": "3176052809", "code": 5621, "fclass": "bus_stop", "name": "Todds @ Palumbo Outbound - Stop 1072 (PM Only)" }, "geometry": { "type": "Point", "coordinates": [ -84.4369223, 38.0094079 ] } },
{ "type": "Feature", "properties": { "osm_id": "3176052810", "code": 5621, "fclass": "bus_stop", "name": "Palumbo @ Blake James Outbound - Stop 334" }, "geometry": { "type": "Point", "coordinates": [ -84.436245, 38.0077273 ] } },
{ "type": "Feature", "properties": { "osm_id": "3176052811", "code": 5621, "fclass": "bus_stop", "name": "Palumbo @ Blake James Inbound - Stop 335" }, "geometry": { "type": "Point", "coordinates": [ -84.4362589, 38.0078088 ] } },
{ "type": "Feature", "properties": { "osm_id": "3176052812", "code": 5621, "fclass": "bus_stop", "name": "Man O' War @ pole #63 - Stop 245" }, "geometry": { "type": "Point", "coordinates": [ -84.4388472, 38.0059267 ] } },
{ "type": "Feature", "properties": { "osm_id": "3176052813", "code": 5621, "fclass": "bus_stop", "name": "Blazer @ 3250 - Stop 863" }, "geometry": { "type": "Point", "coordinates": [ -84.439031, 38.003319 ] } },
{ "type": "Feature", "properties": { "osm_id": "3176052814", "code": 5621, "fclass": "bus_stop", "name": "Eagle Creek @ St Joseph Hospital East - Stop 22" }, "geometry": { "type": "Point", "coordinates": [ -84.4416119, 37.999246 ] } },
{ "type": "Feature", "properties": { "osm_id": "3176052815", "code": 5621, "fclass": "bus_stop", "name": "Palumbo @ 2875 Inbound - Stop 1074" }, "geometry": { "type": "Point", "coordinates": [ -84.435709, 38.005407 ] } },
{ "type": "Feature", "properties": { "osm_id": "3176052816", "code": 5621, "fclass": "bus_stop", "name": "Lindenhurst @ 304 - Stop 1545" }, "geometry": { "type": "Point", "coordinates": [ -84.429651, 38.003023 ] } },
{ "type": "Feature", "properties": { "osm_id": "3176052817", "code": 5621, "fclass": "bus_stop", "name": "Bainbridge @ Bainbridge Court - Stop 1544" }, "geometry": { "type": "Point", "coordinates": [ -84.4293564, 38.004778 ] } },
{ "type": "Feature", "properties": { "osm_id": "3176052818", "code": 5621, "fclass": "bus_stop", "name": "Bainbridge @ 309 - Stop 1543" }, "geometry": { "type": "Point", "coordinates": [ -84.4312927, 38.0036595 ] } },
{ "type": "Feature", "properties": { "osm_id": "3176052819", "code": 5621, "fclass": "bus_stop", "name": "Darby Creek @ Palumbo - Stop 1073" }, "geometry": { "type": "Point", "coordinates": [ -84.4332603, 38.0039392 ] } },
{ "type": "Feature", "properties": { "osm_id": "3176052820", "code": 5621, "fclass": "bus_stop", "name": "Man O' War @ Darby Creek - Stop 56" }, "geometry": { "type": "Point", "coordinates": [ -84.4319095, 38.0070562 ] } },
{ "type": "Feature", "properties": { "osm_id": "3176052821", "code": 5621, "fclass": "bus_stop", "name": "Palumbo @ Link Belt Outbound - Stop 218 (AM Only)" }, "geometry": { "type": "Point", "coordinates": [ -84.4370917, 38.0107793 ] } },
{ "type": "Feature", "properties": { "osm_id": "3176052822", "code": 5621, "fclass": "bus_stop", "name": "Palumbo @ Link Belt Inbound - Stop 1635 (PM Only)" }, "geometry": { "type": "Point", "coordinates": [ -84.437044, 38.010662 ] } },
{ "type": "Feature", "properties": { "osm_id": "3176052823", "code": 5621, "fclass": "bus_stop", "name": "Palumbo @ KI Lumber Inbound - Stop 210 (PM Only)" }, "geometry": { "type": "Point", "coordinates": [ -84.440661, 38.0143811 ] } },
{ "type": "Feature", "properties": { "osm_id": "3176052824", "code": 5621, "fclass": "bus_stop", "name": "Palumbo @ 2439 Inbound - Stop 211 (PM Only)" }, "geometry": { "type": "Point", "coordinates": [ -84.4423586, 38.0156085 ] } },
{ "type": "Feature", "properties": { "osm_id": "3176052825", "code": 5621, "fclass": "bus_stop", "name": "Palumbo @ 2544 Outbound - Stop 216 (AM Only)" }, "geometry": { "type": "Point", "coordinates": [ -84.4430526, 38.0161123 ] } },
{ "type": "Feature", "properties": { "osm_id": "3176052826", "code": 5621, "fclass": "bus_stop", "name": "Palumbo @ 2401 Inbound - Stop 1636 (PM Only)" }, "geometry": { "type": "Point", "coordinates": [ -84.4439808, 38.0167862 ] } },
{ "type": "Feature", "properties": { "osm_id": "3176052827", "code": 5621, "fclass": "bus_stop", "name": "Palumbo @ 2430 Outbound - Stop 217 (AM Only)" }, "geometry": { "type": "Point", "coordinates": [ -84.4475499, 38.0193648 ] } },
{ "type": "Feature", "properties": { "osm_id": "3176052828", "code": 5621, "fclass": "bus_stop", "name": "Codell @ Palumbo Outbound - Stop 215 (AM Only)" }, "geometry": { "type": "Point", "coordinates": [ -84.451721, 38.021842 ] } },
{ "type": "Feature", "properties": { "osm_id": "3176052829", "code": 5621, "fclass": "bus_stop", "name": "Codell @ Mirahill Inbound - Stop 212 (PM Only)" }, "geometry": { "type": "Point", "coordinates": [ -84.4522398, 38.0204133 ] } },
{ "type": "Feature", "properties": { "osm_id": "3176052830", "code": 5621, "fclass": "bus_stop", "name": "Codell @ 340 Outbound - Stop 214 (AM Only)" }, "geometry": { "type": "Point", "coordinates": [ -84.453112, 38.0180462 ] } },
{ "type": "Feature", "properties": { "osm_id": "3179661142", "code": 5621, "fclass": "bus_stop", "name": "East Main @ Deweese - Stop 1093" }, "geometry": { "type": "Point", "coordinates": [ -84.4934286, 38.0431741 ] } },
{ "type": "Feature", "properties": { "osm_id": "3179661143", "code": 5621, "fclass": "bus_stop", "name": "1094 East Main @ Esplanade" }, "geometry": { "type": "Point", "coordinates": [ -84.4946102, 38.0442123 ] } },
{ "type": "Feature", "properties": { "osm_id": "3179661144", "code": 5621, "fclass": "bus_stop", "name": "West Main @ 141 (Downtown Arts Center) - Stop 1318" }, "geometry": { "type": "Point", "coordinates": [ -84.4961483, 38.0455708 ] } },
{ "type": "Feature", "properties": { "osm_id": "3179661145", "code": 5621, "fclass": "bus_stop", "name": "1096 West Main @ 215 (Cheapside)" }, "geometry": { "type": "Point", "coordinates": [ -84.498261, 38.0474913 ] } },
{ "type": "Feature", "properties": { "osm_id": "3179661147", "code": 5621, "fclass": "bus_stop", "name": "5015 Main @ Jefferson" }, "geometry": { "type": "Point", "coordinates": [ -84.5029412, 38.0516571 ] } },
{ "type": "Feature", "properties": { "osm_id": "3179661148", "code": 5621, "fclass": "bus_stop", "name": "38 Jefferson @ 176 (Still Alley)" }, "geometry": { "type": "Point", "coordinates": [ -84.5009156, 38.0533455 ] } },
{ "type": "Feature", "properties": { "osm_id": "3179661149", "code": 5621, "fclass": "bus_stop", "name": "3rd @ Jefferson - Stop 330" }, "geometry": { "type": "Point", "coordinates": [ -84.4988, 38.0551307 ] } },
{ "type": "Feature", "properties": { "osm_id": "3235567247", "code": 5621, "fclass": "bus_stop", "name": "South Limestone at Prall Inbound" }, "geometry": { "type": "Point", "coordinates": [ -84.5072365, 38.0376992 ] } },
{ "type": "Feature", "properties": { "osm_id": "3235570597", "code": 5621, "fclass": "bus_stop", "name": "South Limestone at Law Building Inbound" }, "geometry": { "type": "Point", "coordinates": [ -84.5075748, 38.0367635 ] } },
{ "type": "Feature", "properties": { "osm_id": "4037025827", "code": 5621, "fclass": "bus_stop", "name": null }, "geometry": { "type": "Point", "coordinates": [ -84.4706677, 38.0795872 ] } },
{ "type": "Feature", "properties": { "osm_id": "4692852982", "code": 5621, "fclass": "bus_stop", "name": "New K-Lot bus stop" }, "geometry": { "type": "Point", "coordinates": [ -84.5085649, 38.0232676 ] } },
{ "type": "Feature", "properties": { "osm_id": "5116263044", "code": 5621, "fclass": "bus_stop", "name": "226 - Southland @ 450 Inbound" }, "geometry": { "type": "Point", "coordinates": [ -84.5278069, 38.0193326 ] } },
{ "type": "Feature", "properties": { "osm_id": "5116330674", "code": 5621, "fclass": "bus_stop", "name": "228 - Southland @ Eastway Inbound" }, "geometry": { "type": "Point", "coordinates": [ -84.5243409, 38.0161911 ] } },
{ "type": "Feature", "properties": { "osm_id": "5116330675", "code": 5621, "fclass": "bus_stop", "name": "235 - Southland @ 125 Outbound (closer to 201) {sign says 226 but that num is at 450}" }, "geometry": { "type": "Point", "coordinates": [ -84.5192521, 38.0123961 ] } },
{ "type": "Feature", "properties": { "osm_id": "5116330676", "code": 5621, "fclass": "bus_stop", "name": "236 - Southland @ 353 Outbound" }, "geometry": { "type": "Point", "coordinates": [ -84.524495, 38.0165258 ] } },
{ "type": "Feature", "properties": { "osm_id": "5116330677", "code": 5621, "fclass": "bus_stop", "name": "5025 - Southland @ Rainbow Inbound" }, "geometry": { "type": "Point", "coordinates": [ -84.519326, 38.012303 ] } },
{ "type": "Feature", "properties": { "osm_id": "5116403134", "code": 5621, "fclass": "bus_stop", "name": "1366 - Nicholasville @ Forest Park Outbound" }, "geometry": { "type": "Point", "coordinates": [ -84.5110429, 38.027466 ] } },
{ "type": "Feature", "properties": { "osm_id": "5116403135", "code": 5621, "fclass": "bus_stop", "name": "1367 - Nicholasville @ Dantzler Outbound" }, "geometry": { "type": "Point", "coordinates": [ -84.5124322, 38.0233799 ] } },
{ "type": "Feature", "properties": { "osm_id": "5116403136", "code": 5621, "fclass": "bus_stop", "name": "1368 - Nicholasville @ Arcadia Outbound" }, "geometry": { "type": "Point", "coordinates": [ -84.5134111, 38.020634 ] } },
{ "type": "Feature", "properties": { "osm_id": "5116403137", "code": 5621, "fclass": "bus_stop", "name": "1369 - Nicholasville @ 1721 (Central Baptist) Outbound" }, "geometry": { "type": "Point", "coordinates": [ -84.51406, 38.018798 ] } },
{ "type": "Feature", "properties": { "osm_id": "5116403138", "code": 5621, "fclass": "bus_stop", "name": "1370 - Nicholasville @ Wabash Outbound" }, "geometry": { "type": "Point", "coordinates": [ -84.515378, 38.01501 ] } },
{ "type": "Feature", "properties": { "osm_id": "5116403139", "code": 5621, "fclass": "bus_stop", "name": "1371 - Nicholasville @ Goodrich Outbound" }, "geometry": { "type": "Point", "coordinates": [ -84.516109, 38.013137 ] } },
{ "type": "Feature", "properties": { "osm_id": "5116403140", "code": 5621, "fclass": "bus_stop", "name": "1385 - Nicholasville @ Tahoma Inbound" }, "geometry": { "type": "Point", "coordinates": [ -84.5156347, 38.013879 ] } },
{ "type": "Feature", "properties": { "osm_id": "5116403141", "code": 5621, "fclass": "bus_stop", "name": "1387 - Nicholasville @ 1636 Inbound" }, "geometry": { "type": "Point", "coordinates": [ -84.5130816, 38.0211472 ] } },
{ "type": "Feature", "properties": { "osm_id": "5116403142", "code": 5621, "fclass": "bus_stop", "name": "1388 Nicholasville @ Alumni Inbound" }, "geometry": { "type": "Point", "coordinates": [ -84.5123103, 38.0233233 ] } },
{ "type": "Feature", "properties": { "osm_id": "5116403143", "code": 5621, "fclass": "bus_stop", "name": "1624 Cooper @ Science Building Inbound" }, "geometry": { "type": "Point", "coordinates": [ -84.5099901, 38.027941 ] } },
{ "type": "Feature", "properties": { "osm_id": "5116403144", "code": 5621, "fclass": "bus_stop", "name": "197 University @ Complex Inbound" }, "geometry": { "type": "Point", "coordinates": [ -84.5050911, 38.0292308 ] } },
{ "type": "Feature", "properties": { "osm_id": "5116403145", "code": 5621, "fclass": "bus_stop", "name": "198 University @ Huguelet Inbound" }, "geometry": { "type": "Point", "coordinates": [ -84.5034363, 38.0315125 ] } },
{ "type": "Feature", "properties": { "osm_id": "5116600789", "code": 5621, "fclass": "bus_stop", "name": "242 - High @ Grand Inbound" }, "geometry": { "type": "Point", "coordinates": [ -84.4940739, 38.0400715 ] } },
{ "type": "Feature", "properties": { "osm_id": "5116600790", "code": 5621, "fclass": "bus_stop", "name": "1359 South Upper @ 200  Outbound" }, "geometry": { "type": "Point", "coordinates": [ -84.5001633, 38.0456958 ] } },
{ "type": "Feature", "properties": { "osm_id": "5116600791", "code": 5621, "fclass": "bus_stop", "name": "unknown - South Upper near Pine Outbound" }, "geometry": { "type": "Point", "coordinates": [ -84.5031369, 38.0436218 ] } },
{ "type": "Feature", "properties": { "osm_id": "5116600792", "code": 5621, "fclass": "bus_stop", "name": "1686 - Transit Center High Street" }, "geometry": { "type": "Point", "coordinates": [ -84.4970701, 38.0437276 ] } },
{ "type": "Feature", "properties": { "osm_id": "5116600793", "code": 5621, "fclass": "bus_stop", "name": "202 Woodland @ Maxwell Inbound" }, "geometry": { "type": "Point", "coordinates": [ -84.493571, 38.036252 ] } },
{ "type": "Feature", "properties": { "osm_id": "5116600794", "code": 5621, "fclass": "bus_stop", "name": "unknown - Woodland @ Columbia Outbound (interpolated)" }, "geometry": { "type": "Point", "coordinates": [ -84.4988439, 38.0326111 ] } },
{ "type": "Feature", "properties": { "osm_id": "5116600795", "code": 5621, "fclass": "bus_stop", "name": "1628 University @ Cooper Outbound (interpolated)" }, "geometry": { "type": "Point", "coordinates": [ -84.5059697, 38.0271717 ] } },
{ "type": "Feature", "properties": { "osm_id": "5116600796", "code": 5621, "fclass": "bus_stop", "name": "1629 - Hilltop @ Woodland Outbound (in front of library)" }, "geometry": { "type": "Point", "coordinates": [ -84.5018321, 38.0316111 ] } },
{ "type": "Feature", "properties": { "osm_id": "5116600797", "code": 5621, "fclass": "bus_stop", "name": "199 - Hilltop @ Woodland Inbound (Taco Bell etc.)" }, "geometry": { "type": "Point", "coordinates": [ -84.5018, 38.031496 ] } },
{ "type": "Feature", "properties": { "osm_id": "5116600798", "code": 5621, "fclass": "bus_stop", "name": "200 - Woodland @ Columbia Inbound" }, "geometry": { "type": "Point", "coordinates": [ -84.4991205, 38.0322055 ] } },
{ "type": "Feature", "properties": { "osm_id": "5116600799", "code": 5621, "fclass": "bus_stop", "name": "201 Woodland @ Euclid Inbound" }, "geometry": { "type": "Point", "coordinates": [ -84.4962347, 38.0343213 ] } },
{ "type": "Feature", "properties": { "osm_id": "5117581654", "code": 5621, "fclass": "bus_stop", "name": "1389 Nicholasville @ Farm Inbound" }, "geometry": { "type": "Point", "coordinates": [ -84.5114611, 38.0257214 ] } },
{ "type": "Feature", "properties": { "osm_id": "5121062633", "code": 5621, "fclass": "bus_stop", "name": "241 Nicholasville @ Central Baptist Inbound" }, "geometry": { "type": "Point", "coordinates": [ -84.5143526, 38.0175788 ] } },
{ "type": "Feature", "properties": { "osm_id": "5121062634", "code": 5621, "fclass": "bus_stop", "name": "unknown Nicholasville @ Cooper Inbound" }, "geometry": { "type": "Point", "coordinates": [ -84.5104217, 38.0286959 ] } },
{ "type": "Feature", "properties": { "osm_id": "5121062635", "code": 5621, "fclass": "bus_stop", "name": "1364 South Limestone @ Virginia Outbound" }, "geometry": { "type": "Point", "coordinates": [ -84.5082373, 38.0353695 ] } },
{ "type": "Feature", "properties": { "osm_id": "5121062636", "code": 5621, "fclass": "bus_stop", "name": "1365 South Limestone @ 1037 Outbound" }, "geometry": { "type": "Point", "coordinates": [ -84.5099164, 38.0305547 ] } },
{ "type": "Feature", "properties": { "osm_id": "5121062637", "code": 5621, "fclass": "bus_stop", "name": "145 - Main @ 1300 (Clyde St) Inbound" }, "geometry": { "type": "Point", "coordinates": [ -84.5191182, 38.0625869 ] } },
{ "type": "Feature", "properties": { "osm_id": "5121062638", "code": 5621, "fclass": "bus_stop", "name": "1476? South Broadway @ Maxwell Inbound" }, "geometry": { "type": "Point", "coordinates": [ -84.5034832, 38.0462715 ] } },
{ "type": "Feature", "properties": { "osm_id": "5121062639", "code": 5621, "fclass": "bus_stop", "name": "1672 South Limestone @1000 Inbound" }, "geometry": { "type": "Point", "coordinates": [ -84.5095903, 38.030931 ] } },
{ "type": "Feature", "properties": { "osm_id": "5121062640", "code": 5621, "fclass": "bus_stop", "name": "48 Kentucky Clinic Outbound" }, "geometry": { "type": "Point", "coordinates": [ -84.5091474, 38.0329485 ] } },
{ "type": "Feature", "properties": { "osm_id": "5121062641", "code": 5621, "fclass": "bus_stop", "name": "65 - Nicholasville @ Southland Outbound" }, "geometry": { "type": "Point", "coordinates": [ -84.5171671, 38.0103885 ] } },
{ "type": "Feature", "properties": { "osm_id": "5121062642", "code": 5621, "fclass": "bus_stop", "name": "66 - Nicholasville @ Southland Inbound" }, "geometry": { "type": "Point", "coordinates": [ -84.5170064, 38.0099088 ] } },
{ "type": "Feature", "properties": { "osm_id": "5121062643", "code": 5621, "fclass": "bus_stop", "name": "840 South Limestone @ Warren Inbound" }, "geometry": { "type": "Point", "coordinates": [ -84.5006525, 38.04381 ] } },
{ "type": "Feature", "properties": { "osm_id": "5121062644", "code": 5621, "fclass": "bus_stop", "name": "987 South Limestone @ UK Steps Inbound" }, "geometry": { "type": "Point", "coordinates": [ -84.5058495, 38.0399684 ] } },
{ "type": "Feature", "properties": { "osm_id": "5125580218", "code": 5621, "fclass": "bus_stop", "name": "1091 Rose @ Maxwell Inbound" }, "geometry": { "type": "Point", "coordinates": [ -84.4970837, 38.0397495 ] } },
{ "type": "Feature", "properties": { "osm_id": "5125580219", "code": 5621, "fclass": "bus_stop", "name": "608 Maxwell @ Rose Outbound" }, "geometry": { "type": "Point", "coordinates": [ -84.4974792, 38.0399414 ] } },
{ "type": "Feature", "properties": { "osm_id": "5125580220", "code": 5621, "fclass": "bus_stop", "name": "610 Maxwell @ 460 (Woodland) Outbound" }, "geometry": { "type": "Point", "coordinates": [ -84.4940654, 38.0369458 ] } },
{ "type": "Feature", "properties": { "osm_id": "5127588049", "code": 5621, "fclass": "bus_stop", "name": "604 Maxwell @ South Limestone" }, "geometry": { "type": "Point", "coordinates": [ -84.5008141, 38.0429102 ] } },
{ "type": "Feature", "properties": { "osm_id": "5136660354", "code": 5621, "fclass": "bus_stop", "name": "830 Leestown @ 1490 Inbound" }, "geometry": { "type": "Point", "coordinates": [ -84.5226173, 38.0649266 ] } },
{ "type": "Feature", "properties": { "osm_id": "5136706648", "code": 5621, "fclass": "bus_stop", "name": "102 West Main @ Clyde Outbound" }, "geometry": { "type": "Point", "coordinates": [ -84.5189174, 38.0626187 ] } },
{ "type": "Feature", "properties": { "osm_id": "5136706649", "code": 5621, "fclass": "bus_stop", "name": "149 Main @ 736 (Salvation Army) Inbound" }, "geometry": { "type": "Point", "coordinates": [ -84.5047708, 38.0531921 ] } },
{ "type": "Feature", "properties": { "osm_id": "5140429934", "code": 5621, "fclass": "bus_stop", "name": "5031 Southland @ 457 Outbound" }, "geometry": { "type": "Point", "coordinates": [ -84.5279784, 38.0198972 ] } },
{ "type": "Feature", "properties": { "osm_id": "5150875667", "code": 5621, "fclass": "bus_stop", "name": "1140 West Vine @ South Mill Inbound" }, "geometry": { "type": "Point", "coordinates": [ -84.4995725, 38.0472104 ] } },
{ "type": "Feature", "properties": { "osm_id": "5154563550", "code": 5621, "fclass": "bus_stop", "name": "1455 Larkspur Drive @ Garden Springs Dr" }, "geometry": { "type": "Point", "coordinates": [ -84.5441835, 38.0259996 ] } },
{ "type": "Feature", "properties": { "osm_id": "5154563552", "code": 5621, "fclass": "bus_stop", "name": "97 Harrodsburg Road @ Turfland Mall Outbound" }, "geometry": { "type": "Point", "coordinates": [ -84.5371431, 38.0255558 ] } },
{ "type": "Feature", "properties": { "osm_id": "5154563555", "code": 5621, "fclass": "bus_stop", "name": "1456 Garden Springs @ Emerson Center" }, "geometry": { "type": "Point", "coordinates": [ -84.5429698, 38.0274218 ] } },
{ "type": "Feature", "properties": { "osm_id": "5154563556", "code": 5621, "fclass": "bus_stop", "name": "357 Harrodsburg @ UK Healthcare at Turfland Outbound" }, "geometry": { "type": "Point", "coordinates": [ -84.5403518, 38.0251811 ] } },
{ "type": "Feature", "properties": { "osm_id": "5154633586", "code": 5621, "fclass": "bus_stop", "name": "1453 Lane Allen @ Harrodsburg Inbound" }, "geometry": { "type": "Point", "coordinates": [ -84.5354196, 38.0269106 ] } },
{ "type": "Feature", "properties": { "osm_id": "5154633587", "code": 5621, "fclass": "bus_stop", "name": "1457 Garden Springs @ Lane Allen Inbound" }, "geometry": { "type": "Point", "coordinates": [ -84.541766, 38.0294993 ] } },
{ "type": "Feature", "properties": { "osm_id": "5154633588", "code": 5621, "fclass": "bus_stop", "name": "227? Southland @ Save-A-Lot Inbound" }, "geometry": { "type": "Point", "coordinates": [ -84.5263687, 38.017947 ] } },
{ "type": "Feature", "properties": { "osm_id": "5154633589", "code": 5621, "fclass": "bus_stop", "name": "353 Lane Allen @ Garden Springs Plaza Inbound" }, "geometry": { "type": "Point", "coordinates": [ -84.5403156, 38.0296145 ] } },
{ "type": "Feature", "properties": { "osm_id": "5158041445", "code": 5621, "fclass": "bus_stop", "name": "1138 3td @ 478 Inbound" }, "geometry": { "type": "Point", "coordinates": [ -84.4983792, 38.0547053 ] } },
{ "type": "Feature", "properties": { "osm_id": "5158202063", "code": 5621, "fclass": "bus_stop", "name": "?? Gilmore @ Sandersville" }, "geometry": { "type": "Point", "coordinates": [ -84.5359183, 38.1081619 ] } },
{ "type": "Feature", "properties": { "osm_id": "5158202064", "code": 5621, "fclass": "bus_stop", "name": "?? Leestown @ 1705 (nr Taylor Drive) Outbound" }, "geometry": { "type": "Point", "coordinates": [ -84.5288452, 38.0694221 ] } },
{ "type": "Feature", "properties": { "osm_id": "5158202065", "code": 5621, "fclass": "bus_stop", "name": "?? Leestown @ 2107 Outbound" }, "geometry": { "type": "Point", "coordinates": [ -84.5348013, 38.073351 ] } },
{ "type": "Feature", "properties": { "osm_id": "5158202066", "code": 5621, "fclass": "bus_stop", "name": "?? Leestown @ 2201 Outbound" }, "geometry": { "type": "Point", "coordinates": [ -84.5364499, 38.074381 ] } },
{ "type": "Feature", "properties": { "osm_id": "5158202067", "code": 5621, "fclass": "bus_stop", "name": "?? Leestown @ Boiling Springs Outbound" }, "geometry": { "type": "Point", "coordinates": [ -84.5253455, 38.0670864 ] } },
{ "type": "Feature", "properties": { "osm_id": "5158202068", "code": 5621, "fclass": "bus_stop", "name": "?? Magnolia Springs @ Cielo Vista Outbound" }, "geometry": { "type": "Point", "coordinates": [ -84.5349433, 38.0944751 ] } },
{ "type": "Feature", "properties": { "osm_id": "5158202069", "code": 5621, "fclass": "bus_stop", "name": "?? Sandersville @ 2881 Outbound" }, "geometry": { "type": "Point", "coordinates": [ -84.5400353, 38.0973735 ] } },
{ "type": "Feature", "properties": { "osm_id": "5158202070", "code": 5621, "fclass": "bus_stop", "name": "?? Sandersville @ Mastyerson Station Outbound" }, "geometry": { "type": "Point", "coordinates": [ -84.5398694, 38.0944854 ] } },
{ "type": "Feature", "properties": { "osm_id": "5158202071", "code": 5621, "fclass": "bus_stop", "name": "?? Sandersville @ Sandersville Elementary School Outbound" }, "geometry": { "type": "Point", "coordinates": [ -84.5381695, 38.1035742 ] } },
{ "type": "Feature", "properties": { "osm_id": "5158202072", "code": 5621, "fclass": "bus_stop", "name": "?? Sandersville @ Wigginton Point Outbound" }, "geometry": { "type": "Point", "coordinates": [ -84.5391756, 38.1015037 ] } },
{ "type": "Feature", "properties": { "osm_id": "5158202075", "code": 5621, "fclass": "bus_stop", "name": "108 Leestown @ 2239 (Westhampton) Outbound" }, "geometry": { "type": "Point", "coordinates": [ -84.541139, 38.0774669 ] } },
{ "type": "Feature", "properties": { "osm_id": "5158202076", "code": 5621, "fclass": "bus_stop", "name": "109 Leestown @ 2451 Outbound" }, "geometry": { "type": "Point", "coordinates": [ -84.5443337, 38.0796647 ] } },
{ "type": "Feature", "properties": { "osm_id": "5158202077", "code": 5621, "fclass": "bus_stop", "name": "110 Citation @ Mercer Outbound" }, "geometry": { "type": "Point", "coordinates": [ -84.5424761, 38.0839142 ] } },
{ "type": "Feature", "properties": { "osm_id": "5158202078", "code": 5621, "fclass": "bus_stop", "name": "111 Citation @ Buck Outbound" }, "geometry": { "type": "Point", "coordinates": [ -84.5407249, 38.0865304 ] } },
{ "type": "Feature", "properties": { "osm_id": "5158202079", "code": 5621, "fclass": "bus_stop", "name": "127 Lucille @ 553 Outbound" }, "geometry": { "type": "Point", "coordinates": [ -84.5373868, 38.0938957 ] } },
{ "type": "Feature", "properties": { "osm_id": "5158202080", "code": 5621, "fclass": "bus_stop", "name": "255 Prichard @ Gilmore Outbound" }, "geometry": { "type": "Point", "coordinates": [ -84.5349195, 38.1060658 ] } },
{ "type": "Feature", "properties": { "osm_id": "5158202081", "code": 5621, "fclass": "bus_stop", "name": "514 Sandersville @ Prichard Outbound" }, "geometry": { "type": "Point", "coordinates": [ -84.53678, 38.1063966 ] } },
{ "type": "Feature", "properties": { "osm_id": "5158202082", "code": 5621, "fclass": "bus_stop", "name": "814 Leestown @ Forbes Outbound" }, "geometry": { "type": "Point", "coordinates": [ -84.5209456, 38.0640679 ] } },
{ "type": "Feature", "properties": { "osm_id": "5158208375", "code": 5621, "fclass": "bus_stop", "name": "552 Sandersville @ 3088 Inbound" }, "geometry": { "type": "Point", "coordinates": [ -84.5372841, 38.1056178 ] } },
{ "type": "Feature", "properties": { "osm_id": "5159598174", "code": 5621, "fclass": "bus_stop", "name": "?? Mastersons Station @ Leestown Inbound" }, "geometry": { "type": "Point", "coordinates": [ -84.5550151, 38.088007 ] } },
{ "type": "Feature", "properties": { "osm_id": "5159598175", "code": 5621, "fclass": "bus_stop", "name": "?? Trailwood @ Old Woolen Mill Inbound" }, "geometry": { "type": "Point", "coordinates": [ -84.5570806, 38.0834245 ] } },
{ "type": "Feature", "properties": { "osm_id": "5159598178", "code": 5621, "fclass": "bus_stop", "name": "553 Sandersville @ 2992 Inbound" }, "geometry": { "type": "Point", "coordinates": [ -84.5389987, 38.102086 ] } },
{ "type": "Feature", "properties": { "osm_id": "5159598179", "code": 5621, "fclass": "bus_stop", "name": "554 Sandersville @ Skyview Inbound" }, "geometry": { "type": "Point", "coordinates": [ -84.5401367, 38.0977947 ] } },
{ "type": "Feature", "properties": { "osm_id": "5159598180", "code": 5621, "fclass": "bus_stop", "name": "556 Masterson Station @ 333 Inbound" }, "geometry": { "type": "Point", "coordinates": [ -84.5443055, 38.093713 ] } },
{ "type": "Feature", "properties": { "osm_id": "5159598181", "code": 5621, "fclass": "bus_stop", "name": "557 Masterson Station @ Master View Inbound" }, "geometry": { "type": "Point", "coordinates": [ -84.5497241, 38.0924979 ] } },
{ "type": "Feature", "properties": { "osm_id": "5159598182", "code": 5621, "fclass": "bus_stop", "name": "562 McConnells Trace @ Trailwood Inbound" }, "geometry": { "type": "Point", "coordinates": [ -84.5616673, 38.0855072 ] } },
{ "type": "Feature", "properties": { "osm_id": "5159598183", "code": 5621, "fclass": "bus_stop", "name": "563 Trailwood @ Blackwater Inbound" }, "geometry": { "type": "Point", "coordinates": [ -84.5577777, 38.0838603 ] } },
{ "type": "Feature", "properties": { "osm_id": "5159598184", "code": 5621, "fclass": "bus_stop", "name": "564 Trailwood @ Chestnut Ridge Inbound" }, "geometry": { "type": "Point", "coordinates": [ -84.554634, 38.0823076 ] } },
{ "type": "Feature", "properties": { "osm_id": "5159819360", "code": 5621, "fclass": "bus_stop", "name": "?? Chestnut Ridge @ Whiteberry Inbound" }, "geometry": { "type": "Point", "coordinates": [ -84.5522763, 38.0845466 ] } },
{ "type": "Feature", "properties": { "osm_id": "5159819361", "code": 5621, "fclass": "bus_stop", "name": "?? Leestown @ 1580 Inbound" }, "geometry": { "type": "Point", "coordinates": [ -84.5252252, 38.0668336 ] } },
{ "type": "Feature", "properties": { "osm_id": "5159819362", "code": 5621, "fclass": "bus_stop", "name": "?? Leestown @ Vo Tech Inbound" }, "geometry": { "type": "Point", "coordinates": [ -84.5349434, 38.0731593 ] } },
{ "type": "Feature", "properties": { "osm_id": "5159819363", "code": 5621, "fclass": "bus_stop", "name": "?? Leestown after Westhampton Inbound" }, "geometry": { "type": "Point", "coordinates": [ -84.541001, 38.077127 ] } },
{ "type": "Feature", "properties": { "osm_id": "5159819364", "code": 5621, "fclass": "bus_stop", "name": "?? Leestown before Westhampton Inbound" }, "geometry": { "type": "Point", "coordinates": [ -84.5434001, 38.0786977 ] } },
{ "type": "Feature", "properties": { "osm_id": "5159819370", "code": 5621, "fclass": "bus_stop", "name": "42 Leestown @ VA Medical Center Inbound" }, "geometry": { "type": "Point", "coordinates": [ -84.538338, 38.0741281 ] } },
{ "type": "Feature", "properties": { "osm_id": "5159819371", "code": 5621, "fclass": "bus_stop", "name": "574 Main @ Tucker Inbound" }, "geometry": { "type": "Point", "coordinates": [ -84.5027949, 38.0514436 ] } },
{ "type": "Feature", "properties": { "osm_id": "5159819372", "code": 5621, "fclass": "bus_stop", "name": "827 Leestown @ Towne Center Inbound" }, "geometry": { "type": "Point", "coordinates": [ -84.527995, 38.0684823 ] } },
{ "type": "Feature", "properties": { "osm_id": "5160783436", "code": 5621, "fclass": "bus_stop", "name": "1454 Larkspur @ 2265 Outbound" }, "geometry": { "type": "Point", "coordinates": [ -84.5418862, 38.0233303 ] } },
{ "type": "Feature", "properties": { "osm_id": "5162298266", "code": 5621, "fclass": "bus_stop", "name": "619 Life Lane @ Southland Christian Outbound" }, "geometry": { "type": "Point", "coordinates": [ -84.4592661, 38.0182187 ] } },
{ "type": "Feature", "properties": { "osm_id": "5162298267", "code": 5621, "fclass": "bus_stop", "name": "80 St Ann @ Richmond (Walgreen's) Outbound" }, "geometry": { "type": "Point", "coordinates": [ -84.4641786, 38.0186768 ] } },
{ "type": "Feature", "properties": { "osm_id": "5164318430", "code": 5621, "fclass": "bus_stop", "name": "?? Richmond Rd @ 1311 Inbound" }, "geometry": { "type": "Point", "coordinates": [ -84.4791381, 38.0307408 ] } },
{ "type": "Feature", "properties": { "osm_id": "5164318440", "code": 5621, "fclass": "bus_stop", "name": "343 St Margaret @ Richmond Inbound" }, "geometry": { "type": "Point", "coordinates": [ -84.4670042, 38.021087 ] } },
{ "type": "Feature", "properties": { "osm_id": "5164318441", "code": 5621, "fclass": "bus_stop", "name": "805 South Limestone @ Maxwelton Outbound" }, "geometry": { "type": "Point", "coordinates": [ -84.507558, 38.0372815 ] } },
{ "type": "Feature", "properties": { "osm_id": "5164318442", "code": 5621, "fclass": "bus_stop", "name": "853 St Michael @ 2132 Outbound" }, "geometry": { "type": "Point", "coordinates": [ -84.4573808, 38.0238251 ] } },
{ "type": "Feature", "properties": { "osm_id": "5164318443", "code": 5621, "fclass": "bus_stop", "name": "854 St Michael @ 2140 Outbound" }, "geometry": { "type": "Point", "coordinates": [ -84.4570688, 38.0231004 ] } },
{ "type": "Feature", "properties": { "osm_id": "5164318444", "code": 5621, "fclass": "bus_stop", "name": "871 Richmond @ Shriners Inbound" }, "geometry": { "type": "Point", "coordinates": [ -84.4703156, 38.0230684 ] } },
{ "type": "Feature", "properties": { "osm_id": "5164318445", "code": 5621, "fclass": "bus_stop", "name": "872 Richmond @ 1805 Inbound" }, "geometry": { "type": "Point", "coordinates": [ -84.4740711, 38.0263353 ] } },
{ "type": "Feature", "properties": { "osm_id": "5164318446", "code": 5621, "fclass": "bus_stop", "name": "874 Rechmond Rd @ Hanover Inbound" }, "geometry": { "type": "Point", "coordinates": [ -84.4830033, 38.0340268 ] } },
{ "type": "Feature", "properties": { "osm_id": "5164318447", "code": 5621, "fclass": "bus_stop", "name": "875 Richmond @ 1107 Inbound" }, "geometry": { "type": "Point", "coordinates": [ -84.4812788, 38.0326166 ] } },
{ "type": "Feature", "properties": { "osm_id": "5164318448", "code": 5621, "fclass": "bus_stop", "name": "876 Richmond @ 701 Inbound" }, "geometry": { "type": "Point", "coordinates": [ -84.4856216, 38.0363094 ] } },
{ "type": "Feature", "properties": { "osm_id": "5164318449", "code": 5621, "fclass": "bus_stop", "name": "905 St Ann @ St Phillip Inbound" }, "geometry": { "type": "Point", "coordinates": [ -84.4607505, 38.021138 ] } },
{ "type": "Feature", "properties": { "osm_id": "5164318450", "code": 5621, "fclass": "bus_stop", "name": "906 St Michael @ 2109 Inbound" }, "geometry": { "type": "Point", "coordinates": [ -84.4573259, 38.0240136 ] } },
{ "type": "Feature", "properties": { "osm_id": "5164318451", "code": 5621, "fclass": "bus_stop", "name": "907 St Michael @ St George Inbound" }, "geometry": { "type": "Point", "coordinates": [ -84.4576571, 38.0252484 ] } },
{ "type": "Feature", "properties": { "osm_id": "5164318452", "code": 5621, "fclass": "bus_stop", "name": "908 St Margaret @ 249 Inbound" }, "geometry": { "type": "Point", "coordinates": [ -84.4609167, 38.025525 ] } },
{ "type": "Feature", "properties": { "osm_id": "5164318453", "code": 5621, "fclass": "bus_stop", "name": "909 St Margaret @ 177 Inbound" }, "geometry": { "type": "Point", "coordinates": [ -84.4634984, 38.0235824 ] } },
{ "type": "Feature", "properties": { "osm_id": "5164318454", "code": 5621, "fclass": "bus_stop", "name": "913 Richmonds @ 1601 Inbound" }, "geometry": { "type": "Point", "coordinates": [ -84.4770798, 38.0289344 ] } },
{ "type": "Feature", "properties": { "osm_id": "5164318455", "code": 5621, "fclass": "bus_stop", "name": "916 Main @ Bell Court Inbound" }, "geometry": { "type": "Point", "coordinates": [ -84.4877578, 38.0382358 ] } },
{ "type": "Feature", "properties": { "osm_id": "5164318456", "code": 5621, "fclass": "bus_stop", "name": "917 Main @ 463 Inbound" }, "geometry": { "type": "Point", "coordinates": [ -84.4899918, 38.0402295 ] } },
{ "type": "Feature", "properties": { "osm_id": "5172269260", "code": 5621, "fclass": "bus_stop", "name": "923 Winchester @ 800 (Speedway) Outbound" }, "geometry": { "type": "Point", "coordinates": [ -84.4708337, 38.0416166 ] } },
{ "type": "Feature", "properties": { "osm_id": "5172269261", "code": 5621, "fclass": "bus_stop", "name": "925 Liberty @ 1136 Outbound" }, "geometry": { "type": "Point", "coordinates": [ -84.4653705, 38.0383877 ] } },
{ "type": "Feature", "properties": { "osm_id": "5172269262", "code": 5621, "fclass": "bus_stop", "name": "954 Liberty @ 1601 Inbound" }, "geometry": { "type": "Point", "coordinates": [ -84.4648616, 38.0381618 ] } },
{ "type": "Feature", "properties": { "osm_id": "5176501926", "code": 5621, "fclass": "bus_stop", "name": "35 Harrodsburg @ McDonalds Inbound" }, "geometry": { "type": "Point", "coordinates": [ -84.5360194, 38.0258848 ] } },
{ "type": "Feature", "properties": { "osm_id": "5177334062", "code": 5621, "fclass": "bus_stop", "name": "1533 Harrodsburg @ Burbank Inbound" }, "geometry": { "type": "Point", "coordinates": [ -84.5451325, 38.0196454 ] } },
{ "type": "Feature", "properties": { "osm_id": "5179297272", "code": 5621, "fclass": "bus_stop", "name": "881 Main @ Kentucky Outbound" }, "geometry": { "type": "Point", "coordinates": [ -84.4884106, 38.0386092 ] } },
{ "type": "Feature", "properties": { "osm_id": "5182670301", "code": 5621, "fclass": "bus_stop", "name": "274 Liberty @ Christian Inbound" }, "geometry": { "type": "Point", "coordinates": [ -84.4507129, 38.0289182 ] } },
{ "type": "Feature", "properties": { "osm_id": "5184745454", "code": 5621, "fclass": "bus_stop", "name": "850 St Margaret @ 158 Outbound" }, "geometry": { "type": "Point", "coordinates": [ -84.4645388, 38.0226589 ] } },
{ "type": "Feature", "properties": { "osm_id": "5184745455", "code": 5621, "fclass": "bus_stop", "name": "843 Main @ Ashland Outbound" }, "geometry": { "type": "Point", "coordinates": [ -84.4842812, 38.0348618 ] } },
{ "type": "Feature", "properties": { "osm_id": "5185073388", "code": 5621, "fclass": "bus_stop", "name": "100 W Main @ 707 Outbound" }, "geometry": { "type": "Point", "coordinates": [ -84.505526, 38.0540003 ] } },
{ "type": "Feature", "properties": { "osm_id": "5185766224", "code": 5621, "fclass": "bus_stop", "name": "852 Saint Margaret @ Saint Michael Outbound" }, "geometry": { "type": "Point", "coordinates": [ -84.4597543, 38.0264511 ] } },
{ "type": "Feature", "properties": { "osm_id": "5185766243", "code": 5621, "fclass": "bus_stop", "name": "617 Life Lane @ Coburn Outbound" }, "geometry": { "type": "Point", "coordinates": [ -84.4616523, 38.0185322 ] } },
{ "type": "Feature", "properties": { "osm_id": "5185766248", "code": 5621, "fclass": "bus_stop", "name": "855 Saint Ann @ Saint Mathilda Outbound" }, "geometry": { "type": "Point", "coordinates": [ -84.4602887, 38.0214764 ] } },
{ "type": "Feature", "properties": { "osm_id": "5195384684", "code": 5621, "fclass": "bus_stop", "name": "147 West Main @ 830 Inbound" }, "geometry": { "type": "Point", "coordinates": [ -84.508177, 38.0556229 ] } },
{ "type": "Feature", "properties": { "osm_id": "5195384686", "code": 5621, "fclass": "bus_stop", "name": "101 West Main @ 833 Outbound" }, "geometry": { "type": "Point", "coordinates": [ -84.5085442, 38.0561047 ] } },
{ "type": "Feature", "properties": { "osm_id": "5205350182", "code": 5621, "fclass": "bus_stop", "name": "1433 High @Jefferson Outbound" }, "geometry": { "type": "Point", "coordinates": [ -84.5051461, 38.0501531 ] } }
]
}
