{
"type": "FeatureCollection",
"name": "Amenities-Education",
"crs": { "type": "name", "properties": { "name": "urn:ogc:def:crs:OGC:1.3:CRS84" } },
"features": [
{ "type": "Feature", "properties": { "osm_id": "358582551", "code": 2082, "fclass": "school", "name": "Booker T Washington Montessori Magnet School" }, "geometry": { "type": "Point", "coordinates": [ -84.5015602, 38.0624998 ] } },
{ "type": "Feature", "properties": { "osm_id": "358582792", "code": 2082, "fclass": "school", "name": "Briar Hill School" }, "geometry": { "type": "Point", "coordinates": [ -84.3560452, 38.0667442 ] } },
{ "type": "Feature", "properties": { "osm_id": "358584577", "code": 2082, "fclass": "school", "name": "Central Kentucky Area Vocational School" }, "geometry": { "type": "Point", "coordinates": [ -84.5360513, 38.0681324 ] } },
{ "type": "Feature", "properties": { "osm_id": "358584955", "code": 2082, "fclass": "school", "name": "Christ the King School" }, "geometry": { "type": "Point", "coordinates": [ -84.4871603, 38.0222998 ] } },
{ "type": "Feature", "properties": { "osm_id": "358586200", "code": 2082, "fclass": "school", "name": "Crawford Middle School" }, "geometry": { "type": "Point", "coordinates": [ -84.4313416, 38.0516609 ] } },
{ "type": "Feature", "properties": { "osm_id": "358595639", "code": 2082, "fclass": "school", "name": "Leestown Middle School" }, "geometry": { "type": "Point", "coordinates": [ -84.5341069, 38.0720211 ] } },
{ "type": "Feature", "properties": { "osm_id": "358595813", "code": 2081, "fclass": "university", "name": "Lexington Theological Seminary" }, "geometry": { "type": "Point", "coordinates": [ -84.5087797, 38.0372094 ] } },
{ "type": "Feature", "properties": { "osm_id": "358597352", "code": 2082, "fclass": "school", "name": "Margaret Hall" }, "geometry": { "type": "Point", "coordinates": [ -84.7313354, 38.0572981 ] } },
{ "type": "Feature", "properties": { "osm_id": "358599632", "code": 2082, "fclass": "school", "name": "Mount Pleasant School" }, "geometry": { "type": "Point", "coordinates": [ -84.6297932, 37.9473274 ] } },
{ "type": "Feature", "properties": { "osm_id": "358601784", "code": 2082, "fclass": "school", "name": "Midway University" }, "geometry": { "type": "Point", "coordinates": [ -84.6791121, 38.1450746 ] } },
{ "type": "Feature", "properties": { "osm_id": "358603170", "code": 2082, "fclass": "school", "name": "Pisgah School" }, "geometry": { "type": "Point", "coordinates": [ -84.653555, 38.0489653 ] } },
{ "type": "Feature", "properties": { "osm_id": "358605745", "code": 2082, "fclass": "school", "name": "Russell Cave Elementary School" }, "geometry": { "type": "Point", "coordinates": [ -84.4463379, 38.1206809 ] } },
{ "type": "Feature", "properties": { "osm_id": "358608860", "code": 2082, "fclass": "school", "name": "Mary Todd Elementary School" }, "geometry": { "type": "Point", "coordinates": [ -84.4533634, 38.083145 ] } },
{ "type": "Feature", "properties": { "osm_id": "358609151", "code": 2082, "fclass": "school", "name": "University of Kentucky Agricultural Experimental Station" }, "geometry": { "type": "Point", "coordinates": [ -84.4916057, 38.0934099 ] } },
{ "type": "Feature", "properties": { "osm_id": "358609152", "code": 2082, "fclass": "school", "name": "University of Kentucky Agricultural Experimental Station" }, "geometry": { "type": "Point", "coordinates": [ -84.4846611, 38.1081321 ] } },
{ "type": "Feature", "properties": { "osm_id": "358609154", "code": 2082, "fclass": "school", "name": "University of Kentucky Agricultural Experimental Station" }, "geometry": { "type": "Point", "coordinates": [ -84.5049397, 38.1222984 ] } },
{ "type": "Feature", "properties": { "osm_id": "358609163", "code": 2082, "fclass": "school", "name": "University of Kentucky Agricultural Experimental Station" }, "geometry": { "type": "Point", "coordinates": [ -84.5050846, 38.1315957 ] } },
{ "type": "Feature", "properties": { "osm_id": "358614974", "code": 2082, "fclass": "school", "name": "Athens Elementary School" }, "geometry": { "type": "Point", "coordinates": [ -84.3677117, 37.949523 ] } },
{ "type": "Feature", "properties": { "osm_id": "358615001", "code": 2082, "fclass": "school", "name": "Trinity Christian Academy" }, "geometry": { "type": "Point", "coordinates": [ -84.4816043, 37.9642449 ] } },
{ "type": "Feature", "properties": { "osm_id": "358615008", "code": 2082, "fclass": "school", "name": "Squires Elementary School" }, "geometry": { "type": "Point", "coordinates": [ -84.4591036, 37.970356 ] } },
{ "type": "Feature", "properties": { "osm_id": "358615016", "code": 2082, "fclass": "school", "name": "The Academy at Lexington" }, "geometry": { "type": "Point", "coordinates": [ -84.5037231, 38.070343 ] } },
{ "type": "Feature", "properties": { "osm_id": "358615020", "code": 2082, "fclass": "school", "name": "Edythe J Hayes Middle School" }, "geometry": { "type": "Point", "coordinates": [ -84.4109768, 37.9799162 ] } },
{ "type": "Feature", "properties": { "osm_id": "666598974", "code": 2082, "fclass": "school", "name": "Edythe J. Hayes Middle School" }, "geometry": { "type": "Point", "coordinates": [ -84.4010955, 37.9923339 ] } },
{ "type": "Feature", "properties": { "osm_id": "1582023888", "code": 2082, "fclass": "school", "name": "Sayre School" }, "geometry": { "type": "Point", "coordinates": [ -84.4939304, 38.0478038 ] } },
{ "type": "Feature", "properties": { "osm_id": "1583409383", "code": 2082, "fclass": "school", "name": "Sandersville Elementary School" }, "geometry": { "type": "Point", "coordinates": [ -84.5372304, 38.1031006 ] } },
{ "type": "Feature", "properties": { "osm_id": "1630860621", "code": 2082, "fclass": "school", "name": "Lexington Montessori School" }, "geometry": { "type": "Point", "coordinates": [ -84.5123065, 38.0378354 ] } },
{ "type": "Feature", "properties": { "osm_id": "2496184183", "code": 2082, "fclass": "school", "name": "Larry Ward High Performance Golf Academy" }, "geometry": { "type": "Point", "coordinates": [ -84.6070804, 37.9599537 ] } },
{ "type": "Feature", "properties": { "osm_id": "2512319934", "code": 2081, "fclass": "university", "name": "CATS Center" }, "geometry": { "type": "Point", "coordinates": [ -84.5002891, 38.0389027 ] } },
{ "type": "Feature", "properties": { "osm_id": "2685496526", "code": 2081, "fclass": "university", "name": "Gaines Center for the Humanities" }, "geometry": { "type": "Point", "coordinates": [ -84.4987618, 38.0406118 ] } },
{ "type": "Feature", "properties": { "osm_id": "2687868864", "code": 2082, "fclass": "school", "name": "Northside Elementary School" }, "geometry": { "type": "Point", "coordinates": [ -84.6772816, 38.1502257 ] } },
{ "type": "Feature", "properties": { "osm_id": "2687881843", "code": 2007, "fclass": "library", "name": "Midway Public Library" }, "geometry": { "type": "Point", "coordinates": [ -84.678814, 38.1512489 ] } },
{ "type": "Feature", "properties": { "osm_id": "2767117698", "code": 2007, "fclass": "library", "name": "Woodford County Library" }, "geometry": { "type": "Point", "coordinates": [ -84.7305364, 38.0534215 ] } },
{ "type": "Feature", "properties": { "osm_id": "2896410701", "code": 2007, "fclass": "library", "name": "J. Douglas Gay Jr. Library" }, "geometry": { "type": "Point", "coordinates": [ -84.494573, 38.052045 ] } },
{ "type": "Feature", "properties": { "osm_id": "3160526865", "code": 2081, "fclass": "university", "name": "Main Entrance at the University of Kentucky" }, "geometry": { "type": "Point", "coordinates": [ -84.5064246, 38.0390011 ] } },
{ "type": "Feature", "properties": { "osm_id": "3197254823", "code": 2082, "fclass": "school", "name": "Bartending School" }, "geometry": { "type": "Point", "coordinates": [ -84.5139773, 38.0380463 ] } },
{ "type": "Feature", "properties": { "osm_id": "3202620005", "code": 2007, "fclass": "library", "name": "The Study" }, "geometry": { "type": "Point", "coordinates": [ -84.5023321, 38.0287958 ] } },
{ "type": "Feature", "properties": { "osm_id": "3786835421", "code": 2007, "fclass": "library", "name": "Village Branch Library" }, "geometry": { "type": "Point", "coordinates": [ -84.5486146, 38.0479949 ] } }
]
}
