{
"type": "FeatureCollection",
"name": "Amenities-4111-Ames-Street",
"crs": { "type": "name", "properties": { "name": "urn:ogc:def:crs:OGC:1.3:CRS84" } },
"features": [
{ "type": "Feature", "properties": { "_uid_": 1402, "osm_id": 358961690, "name": "CHOICE Academy", "longitude": -76.978819871836805, "latitude": 38.936859017649397, "type": "education" }, "geometry": { "type": "Point", "coordinates": [ -76.978819871836777, 38.936859017649404 ] } },
{ "type": "Feature", "properties": { "_uid_": 1403, "osm_id": 358961693, "name": "CHOICE Academy Middle School", "longitude": -76.978599874423693, "latitude": 38.936799973699998, "type": "education" }, "geometry": { "type": "Point", "coordinates": [ -76.978599874423693, 38.936799973699955 ] } },
{ "type": "Feature", "properties": { "_uid_": 1404, "osm_id": 358955015, "name": "Taft Junior High School", "longitude": -76.978608408418907, "latitude": 38.936914078708298, "type": "education" }, "geometry": { "type": "Point", "coordinates": [ -76.978608408418907, 38.936914078708256 ] } },
{ "type": "Feature", "properties": { "_uid_": 1405, "osm_id": 5143342822, "name": null, "longitude": -76.978323103484698, "latitude": 38.937370007787699, "type": "education" }, "geometry": { "type": "Point", "coordinates": [ -76.978323103484669, 38.937370007787656 ] } },
{ "type": "Feature", "properties": { "_uid_": 1406, "osm_id": 358961388, "name": "Jewels of Ann School", "longitude": -76.975699933023506, "latitude": 38.940100000874999, "type": "education" }, "geometry": { "type": "Point", "coordinates": [ -76.97569993302352, 38.940100000874978 ] } },
{ "type": "Feature", "properties": { "_uid_": 1407, "osm_id": 358961822, "name": "Our Redeemer Preshool and Infant Center", "longitude": -76.979099876710805, "latitude": 38.943800007502702, "type": "education" }, "geometry": { "type": "Point", "coordinates": [ -76.979099876710833, 38.943800007502723 ] } },
{ "type": "Feature", "properties": { "_uid_": 1408, "osm_id": 358960610, "name": "Rhema Christian Center School", "longitude": -76.978169940728705, "latitude": 38.944660002914098, "type": "education" }, "geometry": { "type": "Point", "coordinates": [ -76.978169940728719, 38.944660002914063 ] } },
{ "type": "Feature", "properties": { "_uid_": 1409, "osm_id": 358954978, "name": "Saint Gertrudes School", "longitude": -76.987197919502606, "latitude": 38.948444166186, "type": "education" }, "geometry": { "type": "Point", "coordinates": [ -76.987197919502606, 38.948444166185965 ] } },
{ "type": "Feature", "properties": { "_uid_": 1410, "osm_id": 358245123, "name": "De Sales Hall", "longitude": -76.984849633518394, "latitude": 38.953131402716203, "type": "education" }, "geometry": { "type": "Point", "coordinates": [ -76.98484963351838, 38.953131402716195 ] } },
{ "type": "Feature", "properties": { "_uid_": 1411, "osm_id": 358254649, "name": "Saint Anns High School", "longitude": -76.978248094158502, "latitude": 38.946827097573603, "type": "education" }, "geometry": { "type": "Point", "coordinates": [ -76.978248094158459, 38.946827097573639 ] } },
{ "type": "Feature", "properties": { "_uid_": 1412, "osm_id": 358245120, "name": "De La Salle College", "longitude": -76.979419946446598, "latitude": 38.949833099886099, "type": "education" }, "geometry": { "type": "Point", "coordinates": [ -76.979419946446569, 38.949833099886057 ] } },
{ "type": "Feature", "properties": { "_uid_": 1413, "osm_id": 358245089, "name": "Chillum Elementary School", "longitude": -76.983864630809293, "latitude": 38.957610793297498, "type": "education" }, "geometry": { "type": "Point", "coordinates": [ -76.983864630809336, 38.957610793297476 ] } },
{ "type": "Feature", "properties": { "_uid_": 1414, "osm_id": 3985692268, "name": "Grand China", "longitude": -76.971593644028303, "latitude": 38.945330371498798, "type": "restaurant" }, "geometry": { "type": "Point", "coordinates": [ -76.97159364402826, 38.945330371498841 ] } },
{ "type": "Feature", "properties": { "_uid_": 1415, "osm_id": 4436597696, "name": "Mailbox", "longitude": -76.979770738564994, "latitude": 38.944290965621498, "type": "retail" }, "geometry": { "type": "Point", "coordinates": [ -76.979770738565023, 38.944290965621505 ] } },
{ "type": "Feature", "properties": { "_uid_": 1416, "osm_id": 2798930387, "name": "7 Eleven", "longitude": -76.972553943066998, "latitude": 38.944766060606803, "type": "retail" }, "geometry": { "type": "Point", "coordinates": [ -76.972553943066998, 38.944766060606796 ] } },
{ "type": "Feature", "properties": { "_uid_": 1417, "osm_id": 2268491358, "name": "SHOPPERS Food", "longitude": -76.968956729343304, "latitude": 38.951201257854301, "type": "retail" }, "geometry": { "type": "Point", "coordinates": [ -76.968956729343262, 38.951201257854294 ] } },
{ "type": "Feature", "properties": { "_uid_": 1418, "osm_id": 2467275677, "name": "Advanced Auto Parts", "longitude": -76.966545471457593, "latitude": 38.9508987619664, "type": "retail" }, "geometry": { "type": "Point", "coordinates": [ -76.966545471457636, 38.950898761966407 ] } },
{ "type": "Feature", "properties": { "_uid_": 1419, "osm_id": 2467275679, "name": "CVS Pharmacy", "longitude": -76.967865096609998, "latitude": 38.951291098185699, "type": "retail" }, "geometry": { "type": "Point", "coordinates": [ -76.967865096610012, 38.951291098185749 ] } },
{ "type": "Feature", "properties": { "_uid_": 1420, "osm_id": 2798930387, "name": "7 Eleven", "longitude": -76.972553943066998, "latitude": 38.944766060606803, "type": "retail" }, "geometry": { "type": "Point", "coordinates": [ -76.972553943066998, 38.944766060606796 ] } },
{ "type": "Feature", "properties": { "_uid_": 1421, "osm_id": 4436597696, "name": "Mailbox", "longitude": -76.979770738564994, "latitude": 38.944290965621498, "type": "retail" }, "geometry": { "type": "Point", "coordinates": [ -76.979770738565023, 38.944290965621505 ] } },
{ "type": "Feature", "properties": { "_uid_": 1615, "osm_id": 358955310, "name": "Catholic Sisters College", "longitude": -76.9949758925586, "latitude": 38.943166584761798, "type": "education" }, "geometry": { "type": "Point", "coordinates": [ -76.994975892558614, 38.943166584761819 ] } },
{ "type": "Feature", "properties": { "_uid_": 1616, "osm_id": 358955539, "name": "Lieutenant Joseph P Kennedy Junior Institute", "longitude": -76.995739909707794, "latitude": 38.945260016281701, "type": "education" }, "geometry": { "type": "Point", "coordinates": [ -76.995739909707765, 38.945260016281736 ] } },
{ "type": "Feature", "properties": { "_uid_": 1617, "osm_id": 358954953, "name": "Sacred Heart Seminary", "longitude": -76.993185190871202, "latitude": 38.948457300438299, "type": "education" }, "geometry": { "type": "Point", "coordinates": [ -76.993185190871245, 38.948457300438257 ] } },
{ "type": "Feature", "properties": { "_uid_": 1618, "osm_id": 358960436, "name": "Luke Moore Academy", "longitude": -76.995245566806901, "latitude": 38.9546828716203, "type": "education" }, "geometry": { "type": "Point", "coordinates": [ -76.995245566806901, 38.954682871620257 ] } },
{ "type": "Feature", "properties": { "_uid_": 1619, "osm_id": 358954959, "name": "Saint Anthonys High School", "longitude": -76.9951630116323, "latitude": 38.9546828716203, "type": "education" }, "geometry": { "type": "Point", "coordinates": [ -76.9951630116323, 38.954682871620257 ] } },
{ "type": "Feature", "properties": { "_uid_": 1620, "osm_id": 358960445, "name": "Columbus School of Law", "longitude": -76.999157011216994, "latitude": 38.957788292127702, "type": "education" }, "geometry": { "type": "Point", "coordinates": [ -76.999157011217022, 38.95778829212766 ] } },
{ "type": "Feature", "properties": { "_uid_": 1621, "osm_id": 737145415, "name": "San Antonio Bar & Grill III", "longitude": -76.990758212468194, "latitude": 38.937571593886702, "type": "nighlife" }, "geometry": { "type": "Point", "coordinates": [ -76.990758212468151, 38.937571593886652 ] } },
{ "type": "Feature", "properties": { "_uid_": 1622, "osm_id": 735126560, "name": "Yes! Organic", "longitude": -76.990395113430296, "latitude": 38.936816464086, "type": "retail" }, "geometry": { "type": "Point", "coordinates": [ -76.990395113430296, 38.93681646408605 ] } },
{ "type": "Feature", "properties": { "_uid_": 2483, "osm_id": 358961398, "name": "Washington Yu Ying", "longitude": -77.003699881440298, "latitude": 38.9411999758048, "type": "education" }, "geometry": { "type": "Point", "coordinates": [ -77.00369988144034, 38.941199975804757 ] } },
{ "type": "Feature", "properties": { "_uid_": 2484, "osm_id": 358955565, "name": "Mamie D Lee Special Education School", "longitude": -77.008728201243201, "latitude": 38.9525760958756, "type": "education" }, "geometry": { "type": "Point", "coordinates": [ -77.008728201243201, 38.952576095875607 ] } },
{ "type": "Feature", "properties": { "_uid_": 2485, "osm_id": 358960664, "name": "Ideal Academy Public Charter School", "longitude": -77.008750928619904, "latitude": 38.955181368715003, "type": "education" }, "geometry": { "type": "Point", "coordinates": [ -77.008750928619889, 38.955181368715039 ] } },
{ "type": "Feature", "properties": { "_uid_": 2486, "osm_id": 358961877, "name": "Roots Primary Charter School", "longitude": -77.010299893664296, "latitude": 38.956899955273997, "type": "education" }, "geometry": { "type": "Point", "coordinates": [ -77.010299893664296, 38.956899955274039 ] } },
{ "type": "Feature", "properties": { "_uid_": 2487, "osm_id": 358960601, "name": "Roots Public Charter School", "longitude": -77.010059863820402, "latitude": 38.956869987594601, "type": "education" }, "geometry": { "type": "Point", "coordinates": [ -77.010059863820373, 38.956869987594594 ] } },
{ "type": "Feature", "properties": { "_uid_": 2488, "osm_id": 358961376, "name": "Ideal Alternative School", "longitude": -77.008599921820604, "latitude": 38.9552999847999, "type": "education" }, "geometry": { "type": "Point", "coordinates": [ -77.008599921820633, 38.955299984799893 ] } },
{ "type": "Feature", "properties": { "_uid_": 2489, "osm_id": 358961721, "name": "Community Academy Primary Charter School-Rand Campus", "longitude": -77.006599912672101, "latitude": 38.9548999865371, "type": "education" }, "geometry": { "type": "Point", "coordinates": [ -77.006599912672073, 38.954899986537065 ] } },
{ "type": "Feature", "properties": { "_uid_": 2490, "osm_id": 358958711, "name": "Keene Elementary School", "longitude": -77.0063650930568, "latitude": 38.954832993942198, "type": "education" }, "geometry": { "type": "Point", "coordinates": [ -77.006365093056786, 38.954832993942247 ] } },
{ "type": "Feature", "properties": { "_uid_": 2491, "osm_id": 739653667, "name": "Mixers Lounge", "longitude": -77.012091942824597, "latitude": 38.956392668511597, "type": "nighlife" }, "geometry": { "type": "Point", "coordinates": [ -77.012091942824583, 38.95639266851164 ] } },
{ "type": "Feature", "properties": { "_uid_": 2492, "osm_id": 737145399, "name": "Hitching Post Restaurant", "longitude": -77.013772870384201, "latitude": 38.9420449808445, "type": "restaurant" }, "geometry": { "type": "Point", "coordinates": [ -77.013772870384244, 38.942044980844486 ] } },
{ "type": "Feature", "properties": { "_uid_": 2493, "osm_id": 737145418, "name": "Slash Run", "longitude": -77.013866474836803, "latitude": 38.942408580046298, "type": "restaurant" }, "geometry": { "type": "Point", "coordinates": [ -77.013866474836846, 38.942408580046347 ] } },
{ "type": "Feature", "properties": { "_uid_": 2494, "osm_id": 358957203, "name": "Soldiers Home Cemetery", "longitude": -77.008587435238198, "latitude": 38.944555412267199, "type": "retail" }, "geometry": { "type": "Point", "coordinates": [ -77.008587435238184, 38.944555412267214 ] } },
{ "type": "Feature", "properties": { "_uid_": 2495, "osm_id": 358955242, "name": "Rock Creek Cemetery", "longitude": -77.011087446673898, "latitude": 38.947610904684602, "type": "retail" }, "geometry": { "type": "Point", "coordinates": [ -77.011087446673869, 38.947610904684574 ] } },
{ "type": "Feature", "properties": { "_uid_": 2496, "osm_id": 358960010, "name": "Rock Creek Post Office (historical)", "longitude": -77.008309586320806, "latitude": 38.953721913570298, "type": "retail" }, "geometry": { "type": "Point", "coordinates": [ -77.008309586320806, 38.953721913570284 ] } },
{ "type": "Feature", "properties": { "_uid_": 2497, "osm_id": 737145401, "name": "Avenue Supermarket", "longitude": -77.012364401850306, "latitude": 38.951394700852703, "type": "retail" }, "geometry": { "type": "Point", "coordinates": [ -77.012364401850263, 38.95139470085271 ] } },
{ "type": "Feature", "properties": { "_uid_": 2498, "osm_id": 3014213932, "name": "Price's Grocery", "longitude": -77.008299345526595, "latitude": 38.951573682311697, "type": "retail" }, "geometry": { "type": "Point", "coordinates": [ -77.008299345526567, 38.951573682311682 ] } },
{ "type": "Feature", "properties": { "_uid_": 2499, "osm_id": 739653638, "name": "Brightwood Supermarket", "longitude": -77.011845445110595, "latitude": 38.956393157498098, "type": "retail" }, "geometry": { "type": "Point", "coordinates": [ -77.011845445110623, 38.956393157498148 ] } },
{ "type": "Feature", "properties": { "_uid_": 2500, "osm_id": 737145424, "name": "Fair Liquors", "longitude": -77.012329996374902, "latitude": 38.951226687011001, "type": "retail" }, "geometry": { "type": "Point", "coordinates": [ -77.012329996374874, 38.951226687010987 ] } },
{ "type": "Feature", "properties": { "_uid_": 2501, "osm_id": 739653586, "name": "Kennedy Liquors", "longitude": -77.011384789032903, "latitude": 38.956769187125303, "type": "retail" }, "geometry": { "type": "Point", "coordinates": [ -77.011384789032931, 38.956769187125261 ] } },
{ "type": "Feature", "properties": { "_uid_": 2502, "osm_id": 358955242, "name": "Rock Creek Cemetery", "longitude": -77.011087446673898, "latitude": 38.947610904684602, "type": "retail" }, "geometry": { "type": "Point", "coordinates": [ -77.011087446673869, 38.947610904684574 ] } },
{ "type": "Feature", "properties": { "_uid_": 2503, "osm_id": 358957203, "name": "Soldiers Home Cemetery", "longitude": -77.008587435238198, "latitude": 38.944555412267199, "type": "retail" }, "geometry": { "type": "Point", "coordinates": [ -77.008587435238184, 38.944555412267214 ] } },
{ "type": "Feature", "properties": { "_uid_": 2504, "osm_id": 358960010, "name": "Rock Creek Post Office (historical)", "longitude": -77.008309586320806, "latitude": 38.953721913570298, "type": "retail" }, "geometry": { "type": "Point", "coordinates": [ -77.008309586320806, 38.953721913570284 ] } },
{ "type": "Feature", "properties": { "_uid_": 2505, "osm_id": 737145401, "name": "Avenue Supermarket", "longitude": -77.012364401850306, "latitude": 38.951394700852703, "type": "retail" }, "geometry": { "type": "Point", "coordinates": [ -77.012364401850263, 38.95139470085271 ] } },
{ "type": "Feature", "properties": { "_uid_": 2506, "osm_id": 737145424, "name": "Fair Liquors", "longitude": -77.012329996374902, "latitude": 38.951226687011001, "type": "retail" }, "geometry": { "type": "Point", "coordinates": [ -77.012329996374874, 38.951226687010987 ] } },
{ "type": "Feature", "properties": { "_uid_": 2507, "osm_id": 739653586, "name": "Kennedy Liquors", "longitude": -77.011384789032903, "latitude": 38.956769187125303, "type": "retail" }, "geometry": { "type": "Point", "coordinates": [ -77.011384789032931, 38.956769187125261 ] } },
{ "type": "Feature", "properties": { "_uid_": 2508, "osm_id": 739653638, "name": "Brightwood Supermarket", "longitude": -77.011845445110595, "latitude": 38.956393157498098, "type": "retail" }, "geometry": { "type": "Point", "coordinates": [ -77.011845445110623, 38.956393157498148 ] } },
{ "type": "Feature", "properties": { "_uid_": 2509, "osm_id": 3014213932, "name": "Price's Grocery", "longitude": -77.008299345526595, "latitude": 38.951573682311697, "type": "retail" }, "geometry": { "type": "Point", "coordinates": [ -77.008299345526567, 38.951573682311682 ] } },
{ "type": "Feature", "properties": { "_uid_": 2510, "osm_id": 3355415747, "name": "CVS Pharmacy", "longitude": -77.013179263644503, "latitude": 38.956346005211998, "type": "retail" }, "geometry": { "type": "Point", "coordinates": [ -77.013179263644489, 38.956346005212026 ] } },
{ "type": "Feature", "properties": { "_uid_": 5183, "osm_id": 358245424, "name": "Orem Middle School", "longitude": -76.960252772892403, "latitude": 38.9642774167258, "type": "education" }, "geometry": { "type": "Point", "coordinates": [ -76.960252772892389, 38.9642774167258 ] } },
{ "type": "Feature", "properties": { "_uid_": 5184, "osm_id": 358245109, "name": "Concordia Lutheran School", "longitude": -76.950259105188096, "latitude": 38.965840585250596, "type": "education" }, "geometry": { "type": "Point", "coordinates": [ -76.950259105188067, 38.965840585250596 ] } },
{ "type": "Feature", "properties": { "_uid_": 5185, "osm_id": 358255251, "name": "Greenwood School", "longitude": -76.952941474626499, "latitude": 38.969466891643897, "type": "education" }, "geometry": { "type": "Point", "coordinates": [ -76.952941474626456, 38.969466891643904 ] } },
{ "type": "Feature", "properties": { "_uid_": 5186, "osm_id": 358254796, "name": "Hyattsville Hills Child Family School", "longitude": -76.9459299441708, "latitude": 38.956869987594601, "type": "education" }, "geometry": { "type": "Point", "coordinates": [ -76.945929944170842, 38.956869987594594 ] } },
{ "type": "Feature", "properties": { "_uid_": 5187, "osm_id": 3732066025, "name": "PG Plaza Dental, LLP", "longitude": -76.958982195754501, "latitude": 38.968481688940102, "type": "healthcare" }, "geometry": { "type": "Point", "coordinates": [ -76.958982195754515, 38.968481688940074 ] } },
{ "type": "Feature", "properties": { "_uid_": 5188, "osm_id": 5095335746, "name": "MedStar Health", "longitude": -76.952030942254495, "latitude": 38.967194465270403, "type": "healthcare" }, "geometry": { "type": "Point", "coordinates": [ -76.952030942254467, 38.967194465270396 ] } },
{ "type": "Feature", "properties": { "_uid_": 5189, "osm_id": 4407146835, "name": "Prince George's Medical Center", "longitude": -76.953485404530994, "latitude": 38.969580105964098, "type": "healthcare" }, "geometry": { "type": "Point", "coordinates": [ -76.953485404530994, 38.96958010596407 ] } },
{ "type": "Feature", "properties": { "_uid_": 5190, "osm_id": 2076967449, "name": "Old Dominion Brew House", "longitude": -76.952824873302603, "latitude": 38.968703022004199, "type": "nighlife" }, "geometry": { "type": "Point", "coordinates": [ -76.952824873302575, 38.968703022004242 ] } },
{ "type": "Feature", "properties": { "_uid_": 5191, "osm_id": 4102621412, "name": "Jerry's Subs & Pizza", "longitude": -76.958052349603904, "latitude": 38.9665424632392, "type": "restaurant" }, "geometry": { "type": "Point", "coordinates": [ -76.958052349603918, 38.966542463239151 ] } },
{ "type": "Feature", "properties": { "_uid_": 5192, "osm_id": 3708844020, "name": "La Chiquita", "longitude": -76.953528882990796, "latitude": 38.9655793610968, "type": "restaurant" }, "geometry": { "type": "Point", "coordinates": [ -76.953528882990753, 38.965579361096815 ] } },
{ "type": "Feature", "properties": { "_uid_": 5193, "osm_id": 3708844021, "name": "Golden House", "longitude": -76.953442015902795, "latitude": 38.965596822634502, "type": "restaurant" }, "geometry": { "type": "Point", "coordinates": [ -76.953442015902766, 38.965596822634453 ] } },
{ "type": "Feature", "properties": { "_uid_": 5194, "osm_id": 4102621409, "name": "Flippin' Pizza", "longitude": -76.952379937742407, "latitude": 38.968050405264698, "type": "restaurant" }, "geometry": { "type": "Point", "coordinates": [ -76.95237993774235, 38.968050405264712 ] } },
{ "type": "Feature", "properties": { "_uid_": 5195, "osm_id": 2818714653, "name": "5 guys", "longitude": -76.952083224204003, "latitude": 38.9675585640612, "type": "restaurant" }, "geometry": { "type": "Point", "coordinates": [ -76.952083224204017, 38.967558564061186 ] } },
{ "type": "Feature", "properties": { "_uid_": 5196, "osm_id": 3708844023, "name": "Carolina Kitchen Bar & Grill", "longitude": -76.952016838704495, "latitude": 38.968483155649302, "type": "restaurant" }, "geometry": { "type": "Point", "coordinates": [ -76.952016838704509, 38.968483155649317 ] } },
{ "type": "Feature", "properties": { "_uid_": 5197, "osm_id": 3730920384, "name": "Hyattsville Farmers Market", "longitude": -76.949776170891298, "latitude": 38.966104113347299, "type": "retail" }, "geometry": { "type": "Point", "coordinates": [ -76.949776170891326, 38.966104113347342 ] } },
{ "type": "Feature", "properties": { "_uid_": 5198, "osm_id": 4243464164, "name": "Unleashed", "longitude": -76.950461405790094, "latitude": 38.966786292446301, "type": "retail" }, "geometry": { "type": "Point", "coordinates": [ -76.950461405790051, 38.966786292446301 ] } },
{ "type": "Feature", "properties": { "_uid_": 5199, "osm_id": 2921236631, "name": "USPS Prince Georges Plaza", "longitude": -76.953095176371605, "latitude": 38.9697021202077, "type": "retail" }, "geometry": { "type": "Point", "coordinates": [ -76.953095176371562, 38.969702120207693 ] } },
{ "type": "Feature", "properties": { "_uid_": 5200, "osm_id": 4096188321, "name": "Safeway", "longitude": -76.951511805851794, "latitude": 38.9670493979567, "type": "retail" }, "geometry": { "type": "Point", "coordinates": [ -76.95151180585178, 38.9670493979567 ] } },
{ "type": "Feature", "properties": { "_uid_": 5201, "osm_id": 3732065420, "name": "JCPenney", "longitude": -76.959644343950401, "latitude": 38.9690388965764, "type": "retail" }, "geometry": { "type": "Point", "coordinates": [ -76.959644343950444, 38.969038896576365 ] } },
{ "type": "Feature", "properties": { "_uid_": 5202, "osm_id": 3732065419, "name": "Macy's", "longitude": -76.957451736004998, "latitude": 38.968949218431, "type": "retail" }, "geometry": { "type": "Point", "coordinates": [ -76.95745173600497, 38.968949218430993 ] } },
{ "type": "Feature", "properties": { "_uid_": 5203, "osm_id": 2372699413, "name": "Target", "longitude": -76.955057635941301, "latitude": 38.968748559677302, "type": "retail" }, "geometry": { "type": "Point", "coordinates": [ -76.955057635941259, 38.968748559677316 ] } },
{ "type": "Feature", "properties": { "_uid_": 5204, "osm_id": 3732065422, "name": "TJ Maxx", "longitude": -76.960154407368805, "latitude": 38.9682691554668, "type": "retail" }, "geometry": { "type": "Point", "coordinates": [ -76.960154407368762, 38.968269155466771 ] } },
{ "type": "Feature", "properties": { "_uid_": 5205, "osm_id": 3732065421, "name": "Old Navy", "longitude": -76.959486330291995, "latitude": 38.968330617726401, "type": "retail" }, "geometry": { "type": "Point", "coordinates": [ -76.959486330291966, 38.968330617726366 ] } },
{ "type": "Feature", "properties": { "_uid_": 5206, "osm_id": 3732066028, "name": "Diamonds and Diamonds", "longitude": -76.958793998702504, "latitude": 38.968420296654898, "type": "retail" }, "geometry": { "type": "Point", "coordinates": [ -76.95879399870249, 38.968420296654919 ] } },
{ "type": "Feature", "properties": { "_uid_": 5207, "osm_id": 3732066029, "name": "Shoe City", "longitude": -76.955830097254093, "latitude": 38.968236189323697, "type": "retail" }, "geometry": { "type": "Point", "coordinates": [ -76.955830097254065, 38.96823618932374 ] } },
{ "type": "Feature", "properties": { "_uid_": 5208, "osm_id": 4102621410, "name": "T-Mobile", "longitude": -76.953684471197903, "latitude": 38.966331670082901, "type": "retail" }, "geometry": { "type": "Point", "coordinates": [ -76.953684471197946, 38.966331670082887 ] } },
{ "type": "Feature", "properties": { "_uid_": 5209, "osm_id": 3732066026, "name": "Golden Krust Caribbean Bakery", "longitude": -76.958860833359594, "latitude": 38.968188975075201, "type": "retail" }, "geometry": { "type": "Point", "coordinates": [ -76.958860833359637, 38.968188975075222 ] } },
{ "type": "Feature", "properties": { "_uid_": 5210, "osm_id": 5095335745, "name": "Town Center Wine And Spirits", "longitude": -76.952030942254495, "latitude": 38.967128881191897, "type": "retail" }, "geometry": { "type": "Point", "coordinates": [ -76.952030942254467, 38.967128881191854 ] } },
{ "type": "Feature", "properties": { "_uid_": 5211, "osm_id": 4102621411, "name": "Bob's Discount Furniture", "longitude": -76.957167868375194, "latitude": 38.966472268768698, "type": "retail" }, "geometry": { "type": "Point", "coordinates": [ -76.95716786837518, 38.966472268768712 ] } },
{ "type": "Feature", "properties": { "_uid_": 5212, "osm_id": 2372699413, "name": "Target", "longitude": -76.955057635941301, "latitude": 38.968748559677302, "type": "retail" }, "geometry": { "type": "Point", "coordinates": [ -76.955057635941259, 38.968748559677316 ] } },
{ "type": "Feature", "properties": { "_uid_": 5213, "osm_id": 2921236631, "name": "USPS Prince Georges Plaza", "longitude": -76.953095176371605, "latitude": 38.9697021202077, "type": "retail" }, "geometry": { "type": "Point", "coordinates": [ -76.953095176371562, 38.969702120207693 ] } },
{ "type": "Feature", "properties": { "_uid_": 5214, "osm_id": 3730920384, "name": "Hyattsville Farmers Market", "longitude": -76.949776170891298, "latitude": 38.966104113347299, "type": "retail" }, "geometry": { "type": "Point", "coordinates": [ -76.949776170891326, 38.966104113347342 ] } },
{ "type": "Feature", "properties": { "_uid_": 5215, "osm_id": 3732065419, "name": "Macy's", "longitude": -76.957451736004998, "latitude": 38.968949218431, "type": "retail" }, "geometry": { "type": "Point", "coordinates": [ -76.95745173600497, 38.968949218430993 ] } },
{ "type": "Feature", "properties": { "_uid_": 5216, "osm_id": 3732065420, "name": "JCPenney", "longitude": -76.959644343950401, "latitude": 38.9690388965764, "type": "retail" }, "geometry": { "type": "Point", "coordinates": [ -76.959644343950444, 38.969038896576365 ] } },
{ "type": "Feature", "properties": { "_uid_": 5217, "osm_id": 3732065421, "name": "Old Navy", "longitude": -76.959486330291995, "latitude": 38.968330617726401, "type": "retail" }, "geometry": { "type": "Point", "coordinates": [ -76.959486330291966, 38.968330617726366 ] } },
{ "type": "Feature", "properties": { "_uid_": 5218, "osm_id": 3732065422, "name": "TJ Maxx", "longitude": -76.960154407368805, "latitude": 38.9682691554668, "type": "retail" }, "geometry": { "type": "Point", "coordinates": [ -76.960154407368762, 38.968269155466771 ] } },
{ "type": "Feature", "properties": { "_uid_": 5219, "osm_id": 3732065424, "name": "Regis Salon", "longitude": -76.959121883781194, "latitude": 38.968458081901602, "type": "retail" }, "geometry": { "type": "Point", "coordinates": [ -76.959121883781194, 38.968458081901574 ] } },
{ "type": "Feature", "properties": { "_uid_": 5220, "osm_id": 3732066026, "name": "Golden Krust Caribbean Bakery", "longitude": -76.958860833359594, "latitude": 38.968188975075201, "type": "retail" }, "geometry": { "type": "Point", "coordinates": [ -76.958860833359637, 38.968188975075222 ] } },
{ "type": "Feature", "properties": { "_uid_": 5221, "osm_id": 3732066028, "name": "Diamonds and Diamonds", "longitude": -76.958793998702504, "latitude": 38.968420296654898, "type": "retail" }, "geometry": { "type": "Point", "coordinates": [ -76.95879399870249, 38.968420296654919 ] } },
{ "type": "Feature", "properties": { "_uid_": 5222, "osm_id": 3732066029, "name": "Shoe City", "longitude": -76.955830097254093, "latitude": 38.968236189323697, "type": "retail" }, "geometry": { "type": "Point", "coordinates": [ -76.955830097254065, 38.96823618932374 ] } },
{ "type": "Feature", "properties": { "_uid_": 5223, "osm_id": 4096188321, "name": "Safeway", "longitude": -76.951511805851794, "latitude": 38.9670493979567, "type": "retail" }, "geometry": { "type": "Point", "coordinates": [ -76.95151180585178, 38.9670493979567 ] } },
{ "type": "Feature", "properties": { "_uid_": 5224, "osm_id": 4102621410, "name": "T-Mobile", "longitude": -76.953684471197903, "latitude": 38.966331670082901, "type": "retail" }, "geometry": { "type": "Point", "coordinates": [ -76.953684471197946, 38.966331670082887 ] } },
{ "type": "Feature", "properties": { "_uid_": 5225, "osm_id": 4102621411, "name": "Bob's Discount Furniture", "longitude": -76.957167868375194, "latitude": 38.966472268768698, "type": "retail" }, "geometry": { "type": "Point", "coordinates": [ -76.95716786837518, 38.966472268768712 ] } },
{ "type": "Feature", "properties": { "_uid_": 5226, "osm_id": 4243464164, "name": "Unleashed", "longitude": -76.950461405790094, "latitude": 38.966786292446301, "type": "retail" }, "geometry": { "type": "Point", "coordinates": [ -76.950461405790051, 38.966786292446301 ] } },
{ "type": "Feature", "properties": { "_uid_": 5227, "osm_id": 5095335745, "name": "Town Center Wine And Spirits", "longitude": -76.952030942254495, "latitude": 38.967128881191897, "type": "retail" }, "geometry": { "type": "Point", "coordinates": [ -76.952030942254467, 38.967128881191854 ] } },
{ "type": "Feature", "properties": { "_uid_": 5409, "osm_id": 358253336, "name": "Kenmoor Elementary School", "longitude": -76.867125685029094, "latitude": 38.927435889630203, "type": "education" }, "geometry": { "type": "Point", "coordinates": [ -76.867125685029094, 38.927435889630218 ] } },
{ "type": "Feature", "properties": { "_uid_": 5692, "osm_id": 2274572192, "name": null, "longitude": -76.938529263534207, "latitude": 38.934893002385699, "type": "retail" }, "geometry": { "type": "Point", "coordinates": [ -76.93852926353415, 38.934893002385742 ] } },
{ "type": "Feature", "properties": { "_uid_": 5693, "osm_id": 2274572192, "name": null, "longitude": -76.938529263534207, "latitude": 38.934893002385699, "type": "retail" }, "geometry": { "type": "Point", "coordinates": [ -76.93852926353415, 38.934893002385742 ] } },
{ "type": "Feature", "properties": { "_uid_": 6638, "osm_id": 2710354638, "name": null, "longitude": -76.944744706985006, "latitude": 38.987199104710001, "type": "healthcare" }, "geometry": { "type": "Point", "coordinates": [ -76.944744706984977, 38.987199104710029 ] } },
{ "type": "Feature", "properties": { "_uid_": 6678, "osm_id": 1786883730, "name": "Crisfield Seafood Restaurant", "longitude": -77.026895819380798, "latitude": 38.988325789332698, "type": "restaurant" }, "geometry": { "type": "Point", "coordinates": [ -77.026895819380769, 38.988325789332713 ] } },
{ "type": "Feature", "properties": { "_uid_": 6679, "osm_id": 1786883732, "name": "Denizens Brewing Co.", "longitude": -77.027252540380104, "latitude": 38.988542591672498, "type": "restaurant" }, "geometry": { "type": "Point", "coordinates": [ -77.02725254038009, 38.98854259167247 ] } },
{ "type": "Feature", "properties": { "_uid_": 6682, "osm_id": 2467269139, "name": "Plato's Diner", "longitude": -76.938237400898302, "latitude": 38.978089659038801, "type": "restaurant" }, "geometry": { "type": "Point", "coordinates": [ -76.938237400898345, 38.978089659038801 ] } },
{ "type": "Feature", "properties": { "_uid_": 6683, "osm_id": 2184503813, "name": "Applebee's", "longitude": -76.938296330380993, "latitude": 38.979052660909403, "type": "restaurant" }, "geometry": { "type": "Point", "coordinates": [ -76.938296330380979, 38.97905266090936 ] } },
{ "type": "Feature", "properties": { "_uid_": 6684, "osm_id": 2700702285, "name": "Sabor Latino", "longitude": -76.9703872066017, "latitude": 38.9850445567142, "type": "restaurant" }, "geometry": { "type": "Point", "coordinates": [ -76.970387206601714, 38.985044556714243 ] } },
{ "type": "Feature", "properties": { "_uid_": 6685, "osm_id": 2352439085, "name": "Chipotle", "longitude": -76.938982912752607, "latitude": 38.980350283469598, "type": "restaurant" }, "geometry": { "type": "Point", "coordinates": [ -76.938982912752635, 38.980350283469626 ] } },
{ "type": "Feature", "properties": { "_uid_": 6686, "osm_id": 659514948, "name": "Jason's Deli", "longitude": -76.939072295123395, "latitude": 38.980767176855302, "type": "restaurant" }, "geometry": { "type": "Point", "coordinates": [ -76.93907229512341, 38.980767176855288 ] } },
{ "type": "Feature", "properties": { "_uid_": 6687, "osm_id": 3891916387, "name": "Nando's Peri-Peri", "longitude": -76.938212068407296, "latitude": 38.981016892722799, "type": "restaurant" }, "geometry": { "type": "Point", "coordinates": [ -76.938212068407339, 38.981016892722813 ] } },
{ "type": "Feature", "properties": { "_uid_": 6688, "osm_id": 344569889, "name": "The Barking Dog", "longitude": -76.938160774604597, "latitude": 38.981430569979203, "type": "restaurant" }, "geometry": { "type": "Point", "coordinates": [ -76.938160774604611, 38.98143056997921 ] } },
{ "type": "Feature", "properties": { "_uid_": 6689, "osm_id": 3695870157, "name": "Smoothie King", "longitude": -76.937581540909406, "latitude": 38.981512969954302, "type": "restaurant" }, "geometry": { "type": "Point", "coordinates": [ -76.93758154090942, 38.981512969954316 ] } },
{ "type": "Feature", "properties": { "_uid_": 6690, "osm_id": 1419137214, "name": "Potbelly", "longitude": -76.938121877552803, "latitude": 38.981733982973303, "type": "restaurant" }, "geometry": { "type": "Point", "coordinates": [ -76.938121877552817, 38.981733982973267 ] } },
{ "type": "Feature", "properties": { "_uid_": 6691, "osm_id": 3695870156, "name": "Blaze Pizza", "longitude": -76.937577498490597, "latitude": 38.981783073607097, "type": "restaurant" }, "geometry": { "type": "Point", "coordinates": [ -76.937577498490626, 38.981783073607062 ] } },
{ "type": "Feature", "properties": { "_uid_": 6692, "osm_id": 3695870153, "name": "Papa Johns", "longitude": -76.937286713833203, "latitude": 38.981894382827001, "type": "restaurant" }, "geometry": { "type": "Point", "coordinates": [ -76.93728671383316, 38.981894382827015 ] } },
{ "type": "Feature", "properties": { "_uid_": 6693, "osm_id": 3695870154, "name": "Bagel Place", "longitude": -76.9375598915111, "latitude": 38.981941587938998, "type": "restaurant" }, "geometry": { "type": "Point", "coordinates": [ -76.937559891511071, 38.981941587938962 ] } },
{ "type": "Feature", "properties": { "_uid_": 6694, "osm_id": 3695870152, "name": "Wasabi Bistro", "longitude": -76.937352111185803, "latitude": 38.981904368526401, "type": "restaurant" }, "geometry": { "type": "Point", "coordinates": [ -76.937352111185845, 38.981904368526394 ] } },
{ "type": "Feature", "properties": { "_uid_": 6695, "osm_id": 2467265688, "name": "The Dairy", "longitude": -76.937419215337599, "latitude": 38.986069678942002, "type": "restaurant" }, "geometry": { "type": "Point", "coordinates": [ -76.93741921533757, 38.98606967894198 ] } },
{ "type": "Feature", "properties": { "_uid_": 6696, "osm_id": 3790825465, "name": "Ledo Restaurant", "longitude": -76.936928465697804, "latitude": 38.980562361701402, "type": "restaurant" }, "geometry": { "type": "Point", "coordinates": [ -76.936928465697846, 38.980562361701367 ] } },
{ "type": "Feature", "properties": { "_uid_": 6697, "osm_id": 3695855183, "name": "Aroy Thai Restaurant", "longitude": -76.937218441871593, "latitude": 38.9818820927335, "type": "restaurant" }, "geometry": { "type": "Point", "coordinates": [ -76.937218441871579, 38.981882092733528 ] } },
{ "type": "Feature", "properties": { "_uid_": 6700, "osm_id": 2710354645, "name": "UMD Bookstore", "longitude": -76.944884844169295, "latitude": 38.987859714421802, "type": "retail" }, "geometry": { "type": "Point", "coordinates": [ -76.944884844169309, 38.987859714421766 ] } },
{ "type": "Feature", "properties": { "_uid_": 6719, "osm_id": 367798366, "name": "University Park Town Hall", "longitude": -76.938312769550706, "latitude": 38.972346013178701, "type": "retail" }, "geometry": { "type": "Point", "coordinates": [ -76.938312769550691, 38.972346013178743 ] } },
{ "type": "Feature", "properties": { "_uid_": 6720, "osm_id": 1226167573, "name": null, "longitude": -76.935969244637505, "latitude": 38.974983103115299, "type": "retail" }, "geometry": { "type": "Point", "coordinates": [ -76.935969244637462, 38.974983103115285 ] } },
{ "type": "Feature", "properties": { "_uid_": 6721, "osm_id": 2268491358, "name": "SHOPPERS Food", "longitude": -76.968956729343304, "latitude": 38.951201257854301, "type": "retail" }, "geometry": { "type": "Point", "coordinates": [ -76.968956729343262, 38.951201257854294 ] } },
{ "type": "Feature", "properties": { "_uid_": 6722, "osm_id": 2700702256, "name": "Lewisdale Market", "longitude": -76.970957367312494, "latitude": 38.983462888496902, "type": "retail" }, "geometry": { "type": "Point", "coordinates": [ -76.970957367312522, 38.983462888496888 ] } },
{ "type": "Feature", "properties": { "_uid_": 6723, "osm_id": 2700702257, "name": "Value Dollar", "longitude": -76.970981531993701, "latitude": 38.983573706276999, "type": "retail" }, "geometry": { "type": "Point", "coordinates": [ -76.970981531993687, 38.983573706276964 ] } },
{ "type": "Feature", "properties": { "_uid_": 6724, "osm_id": 2700702286, "name": "Mega Supermarket", "longitude": -76.970055997756404, "latitude": 38.985106772511301, "type": "retail" }, "geometry": { "type": "Point", "coordinates": [ -76.970055997756432, 38.985106772511315 ] } },
{ "type": "Feature", "properties": { "_uid_": 6725, "osm_id": 3669265680, "name": "Target Express", "longitude": -76.937620168466594, "latitude": 38.9822316612644, "type": "retail" }, "geometry": { "type": "Point", "coordinates": [ -76.937620168466623, 38.982231661264393 ] } },
{ "type": "Feature", "properties": { "_uid_": 6732, "osm_id": 829740230, "name": "E.L. Haynes Public Charter School", "longitude": -77.024243184178303, "latitude": 38.934321271340004, "type": "education" }, "geometry": { "type": "Point", "coordinates": [ -77.024243184178275, 38.934321271340018 ] } },
{ "type": "Feature", "properties": { "_uid_": 6735, "osm_id": 2987664440, "name": "B and W Stat Laboratory", "longitude": -77.023521837005106, "latitude": 38.929304486645798, "type": "healthcare" }, "geometry": { "type": "Point", "coordinates": [ -77.023521837005148, 38.929304486645762 ] } },
{ "type": "Feature", "properties": { "_uid_": 6736, "osm_id": 2987671134, "name": "North West Dental care", "longitude": -77.023632509448106, "latitude": 38.929534257995201, "type": "healthcare" }, "geometry": { "type": "Point", "coordinates": [ -77.023632509448149, 38.929534257995236 ] } },
{ "type": "Feature", "properties": { "_uid_": 6737, "osm_id": 2987692488, "name": "MARC", "longitude": -77.023535940555107, "latitude": 38.929640687720301, "type": "healthcare" }, "geometry": { "type": "Point", "coordinates": [ -77.023535940555107, 38.929640687720273 ] } },
{ "type": "Feature", "properties": { "_uid_": 6738, "osm_id": 4128410097, "name": "Veteranos En AA", "longitude": -77.023043663779404, "latitude": 38.929487507133203, "type": "healthcare" }, "geometry": { "type": "Point", "coordinates": [ -77.023043663779404, 38.929487507133167 ] } },
{ "type": "Feature", "properties": { "_uid_": 6740, "osm_id": 2984529676, "name": "Metro Lab Walk-in Clinic", "longitude": -77.024041781891597, "latitude": 38.932613807079001, "type": "healthcare" }, "geometry": { "type": "Point", "coordinates": [ -77.024041781891583, 38.932613807078965 ] } },
{ "type": "Feature", "properties": { "_uid_": 6741, "osm_id": 2987865847, "name": "Bernice Fonteneau Senior Wellness Center", "longitude": -77.023702218714206, "latitude": 38.933689301227801, "type": "healthcare" }, "geometry": { "type": "Point", "coordinates": [ -77.023702218714206, 38.933689301227837 ] } },
{ "type": "Feature", "properties": { "_uid_": 6742, "osm_id": 358961183, "name": "Childrens National Medical Center - Adolescent Health Center", "longitude": -77.013899892165398, "latitude": 38.927299965603702, "type": "healthcare" }, "geometry": { "type": "Point", "coordinates": [ -77.013899892165398, 38.927299965603652 ] } },
{ "type": "Feature", "properties": { "_uid_": 6743, "osm_id": 358959894, "name": "Armed Forces Retirement Home - Washington", "longitude": -77.009996352929804, "latitude": 38.935779099534798, "type": "healthcare" }, "geometry": { "type": "Point", "coordinates": [ -77.00999635292979, 38.935779099534763 ] } },
{ "type": "Feature", "properties": { "_uid_": 6746, "osm_id": 2804654801, "name": "Bravo", "longitude": -77.022866875331502, "latitude": 38.927789011346803, "type": "nighlife" }, "geometry": { "type": "Point", "coordinates": [ -77.022866875331488, 38.92778901134681 ] } },
{ "type": "Feature", "properties": { "_uid_": 6747, "osm_id": 4436558787, "name": "Union Drinkery", "longitude": -77.023667004755097, "latitude": 38.930518394925201, "type": "nighlife" }, "geometry": { "type": "Point", "coordinates": [ -77.023667004755055, 38.930518394925244 ] } },
{ "type": "Feature", "properties": { "_uid_": 6748, "osm_id": 4128350130, "name": "Midlands Beer Garden", "longitude": -77.023427873226396, "latitude": 38.931973016963099, "type": "nighlife" }, "geometry": { "type": "Point", "coordinates": [ -77.023427873226424, 38.931973016963084 ] } },
{ "type": "Feature", "properties": { "_uid_": 6749, "osm_id": 1937053208, "name": "D.C. Reynolds", "longitude": -77.024327446151901, "latitude": 38.934878957227099, "type": "nighlife" }, "geometry": { "type": "Point", "coordinates": [ -77.024327446151943, 38.934878957227063 ] } },
{ "type": "Feature", "properties": { "_uid_": 6750, "osm_id": 1804034216, "name": "Walter's", "longitude": -77.024350892180806, "latitude": 38.934968398986101, "type": "nighlife" }, "geometry": { "type": "Point", "coordinates": [ -77.024350892180848, 38.934968398986058 ] } },
{ "type": "Feature", "properties": { "_uid_": 6751, "osm_id": 738190936, "name": "Looking Glass Lounge", "longitude": -77.024360504154401, "latitude": 38.935029820253703, "type": "nighlife" }, "geometry": { "type": "Point", "coordinates": [ -77.024360504154401, 38.935029820253675 ] } },
{ "type": "Feature", "properties": { "_uid_": 6752, "osm_id": 4128580071, "name": "Reliable Tavern", "longitude": -77.024063610952993, "latitude": 38.9360669861397, "type": "nighlife" }, "geometry": { "type": "Point", "coordinates": [ -77.024063610952979, 38.93606698613965 ] } },
{ "type": "Feature", "properties": { "_uid_": 6755, "osm_id": 2922821803, "name": "Nu Vegan Cafe", "longitude": -77.023300492119105, "latitude": 38.927823673506502, "type": "restaurant" }, "geometry": { "type": "Point", "coordinates": [ -77.023300492119134, 38.927823673506452 ] } },
{ "type": "Feature", "properties": { "_uid_": 6756, "osm_id": 2823718459, "name": "Kokeb", "longitude": -77.022995514080193, "latitude": 38.928563594761698, "type": "restaurant" }, "geometry": { "type": "Point", "coordinates": [ -77.022995514080179, 38.928563594761734 ] } },
{ "type": "Feature", "properties": { "_uid_": 6757, "osm_id": 2987761783, "name": "Morgan's Seafood", "longitude": -77.023626311072704, "latitude": 38.930164867509397, "type": "restaurant" }, "geometry": { "type": "Point", "coordinates": [ -77.023626311072675, 38.930164867509397 ] } },
{ "type": "Feature", "properties": { "_uid_": 6758, "osm_id": 829739773, "name": "Small Fry", "longitude": -77.023651104574498, "latitude": 38.9304436924021, "type": "restaurant" }, "geometry": { "type": "Point", "coordinates": [ -77.023651104574512, 38.930443692402072 ] } },
{ "type": "Feature", "properties": { "_uid_": 6759, "osm_id": 4128365156, "name": "Ana's Restaurant", "longitude": -77.023288634357399, "latitude": 38.930836770746097, "type": "restaurant" }, "geometry": { "type": "Point", "coordinates": [ -77.023288634357371, 38.93083677074614 ] } },
{ "type": "Feature", "properties": { "_uid_": 6760, "osm_id": 3984638716, "name": "Tchoup's Market", "longitude": -77.023314865163698, "latitude": 38.931364016411102, "type": "restaurant" }, "geometry": { "type": "Point", "coordinates": [ -77.02331486516367, 38.931364016411059 ] } },
{ "type": "Feature", "properties": { "_uid_": 6761, "osm_id": 2987806417, "name": "Esencias Paname√±as", "longitude": -77.023858884899695, "latitude": 38.931638084776502, "type": "restaurant" }, "geometry": { "type": "Point", "coordinates": [ -77.023858884899738, 38.931638084776466 ] } },
{ "type": "Feature", "properties": { "_uid_": 6762, "osm_id": 4128350125, "name": "Joselyn", "longitude": -77.023347384177001, "latitude": 38.931442770993698, "type": "restaurant" }, "geometry": { "type": "Point", "coordinates": [ -77.023347384176972, 38.931442770993698 ] } },
{ "type": "Feature", "properties": { "_uid_": 6763, "osm_id": 2987876516, "name": "Chinese Hunan", "longitude": -77.024156766247998, "latitude": 38.934029394645101, "type": "restaurant" }, "geometry": { "type": "Point", "coordinates": [ -77.02415676624797, 38.934029394645052 ] } },
{ "type": "Feature", "properties": { "_uid_": 6764, "osm_id": 2984535156, "name": "La Morenita Restaurant and Carryout", "longitude": -77.023729976656497, "latitude": 38.933878180103299, "type": "restaurant" }, "geometry": { "type": "Point", "coordinates": [ -77.023729976656483, 38.933878180103264 ] } },
{ "type": "Feature", "properties": { "_uid_": 6765, "osm_id": 829736502, "name": "Manny & Olga's", "longitude": -77.024311096813804, "latitude": 38.934780501285402, "type": "restaurant" }, "geometry": { "type": "Point", "coordinates": [ -77.024311096813776, 38.93478050128536 ] } },
{ "type": "Feature", "properties": { "_uid_": 6766, "osm_id": 1784870447, "name": "Fish in the Neighborhood", "longitude": -77.023848733937001, "latitude": 38.9346710047014, "type": "restaurant" }, "geometry": { "type": "Point", "coordinates": [ -77.023848733937029, 38.934671004701364 ] } },
{ "type": "Feature", "properties": { "_uid_": 6767, "osm_id": 4128603542, "name": "EatsPlace", "longitude": -77.023827982854002, "latitude": 38.934782877086803, "type": "restaurant" }, "geometry": { "type": "Point", "coordinates": [ -77.023827982853973, 38.934782877086839 ] } },
{ "type": "Feature", "properties": { "_uid_": 6768, "osm_id": 3016648167, "name": "City Kabob & Curry House", "longitude": -77.004281630418305, "latitude": 38.929686320376803, "type": "restaurant" }, "geometry": { "type": "Point", "coordinates": [ -77.004281630418348, 38.929686320376845 ] } },
{ "type": "Feature", "properties": { "_uid_": 6769, "osm_id": 2987818487, "name": "The Perch", "longitude": -77.023990218594307, "latitude": 38.932288870611799, "type": "retail" }, "geometry": { "type": "Point", "coordinates": [ -77.023990218594278, 38.932288870611771 ] } },
{ "type": "Feature", "properties": { "_uid_": 6770, "osm_id": 1364956397, "name": "BP", "longitude": -77.024213629605399, "latitude": 38.932735256068803, "type": "retail" }, "geometry": { "type": "Point", "coordinates": [ -77.024213629605441, 38.932735256068817 ] } },
{ "type": "Feature", "properties": { "_uid_": 6771, "osm_id": 2984525738, "name": "Capital City Auto Sales", "longitude": -77.023222248857905, "latitude": 38.932677117107701, "type": "retail" }, "geometry": { "type": "Point", "coordinates": [ -77.023222248857891, 38.932677117107673 ] } },
{ "type": "Feature", "properties": { "_uid_": 6772, "osm_id": 3984662968, "name": "Walls of Books", "longitude": -77.023187933214004, "latitude": 38.931729557128797, "type": "retail" }, "geometry": { "type": "Point", "coordinates": [ -77.023187933214047, 38.931729557128804 ] } },
{ "type": "Feature", "properties": { "_uid_": 6774, "osm_id": 3199482941, "name": "Mailbox", "longitude": -77.026630906203494, "latitude": 38.930689462708102, "type": "retail" }, "geometry": { "type": "Point", "coordinates": [ -77.026630906203479, 38.930689462708145 ] } },
{ "type": "Feature", "properties": { "_uid_": 6775, "osm_id": 738190963, "name": "District Dogs", "longitude": -77.023720813840598, "latitude": 38.930367801825597, "type": "retail" }, "geometry": { "type": "Point", "coordinates": [ -77.023720813840583, 38.930367801825561 ] } },
{ "type": "Feature", "properties": { "_uid_": 6776, "osm_id": 2970475884, "name": null, "longitude": -77.023495067209694, "latitude": 38.931644863098398, "type": "retail" }, "geometry": { "type": "Point", "coordinates": [ -77.023495067209666, 38.931644863098448 ] } },
{ "type": "Feature", "properties": { "_uid_": 6777, "osm_id": 3984638717, "name": "US Post Office", "longitude": -77.023252791577505, "latitude": 38.931605590749697, "type": "retail" }, "geometry": { "type": "Point", "coordinates": [ -77.023252791577548, 38.931605590749726 ] } },
{ "type": "Feature", "properties": { "_uid_": 6778, "osm_id": 2987901016, "name": "Georgia Ave Biz Services", "longitude": -77.023876941036903, "latitude": 38.9348969853407, "type": "retail" }, "geometry": { "type": "Point", "coordinates": [ -77.023876941036946, 38.934896985340693 ] } },
{ "type": "Feature", "properties": { "_uid_": 6781, "osm_id": 738190923, "name": "Stop & Go Market", "longitude": -77.025832034421299, "latitude": 38.927964907655202, "type": "retail" }, "geometry": { "type": "Point", "coordinates": [ -77.025832034421313, 38.927964907655237 ] } },
{ "type": "Feature", "properties": { "_uid_": 6784, "osm_id": 2788370135, "name": "Market 77", "longitude": -77.023043663779404, "latitude": 38.928835787123802, "type": "retail" }, "geometry": { "type": "Point", "coordinates": [ -77.023043663779404, 38.928835787123759 ] } },
{ "type": "Feature", "properties": { "_uid_": 6785, "osm_id": 738190950, "name": "Kusa Market", "longitude": -77.023538815164002, "latitude": 38.9293998055076, "type": "retail" }, "geometry": { "type": "Point", "coordinates": [ -77.023538815164002, 38.929399805507593 ] } },
{ "type": "Feature", "properties": { "_uid_": 6786, "osm_id": 738190954, "name": "Gray's Market", "longitude": -77.0237588125771, "latitude": 38.931279321944203, "type": "retail" }, "geometry": { "type": "Point", "coordinates": [ -77.023758812577086, 38.931279321944217 ] } },
{ "type": "Feature", "properties": { "_uid_": 6787, "osm_id": 829741008, "name": "Dollar 1 General Merchandise", "longitude": -77.023971803130905, "latitude": 38.932462519640197, "type": "retail" }, "geometry": { "type": "Point", "coordinates": [ -77.023971803130948, 38.93246251964019 ] } },
{ "type": "Feature", "properties": { "_uid_": 6788, "osm_id": 737145443, "name": "Spruill's Convenience Store", "longitude": -77.021167442476994, "latitude": 38.930765003538099, "type": "retail" }, "geometry": { "type": "Point", "coordinates": [ -77.021167442476994, 38.930765003538134 ] } },
{ "type": "Feature", "properties": { "_uid_": 6789, "osm_id": 3024686415, "name": "Lamont Market", "longitude": -77.019912765519706, "latitude": 38.931137255833399, "type": "retail" }, "geometry": { "type": "Point", "coordinates": [ -77.019912765519663, 38.931137255833377 ] } },
{ "type": "Feature", "properties": { "_uid_": 6790, "osm_id": 2984617625, "name": "Bell Corner Stop Convenience Store", "longitude": -77.023599900603301, "latitude": 38.932935178262603, "type": "retail" }, "geometry": { "type": "Point", "coordinates": [ -77.02359990060333, 38.932935178262575 ] } },
{ "type": "Feature", "properties": { "_uid_": 6791, "osm_id": 4128339089, "name": "Gojo International Market", "longitude": -77.023612477017295, "latitude": 38.933056976093198, "type": "retail" }, "geometry": { "type": "Point", "coordinates": [ -77.023612477017309, 38.933056976093184 ] } },
{ "type": "Feature", "properties": { "_uid_": 6792, "osm_id": 2984563450, "name": "Georgia Ave Mart and Wireless", "longitude": -77.023697727137801, "latitude": 38.9340623068247, "type": "retail" }, "geometry": { "type": "Point", "coordinates": [ -77.023697727137787, 38.934062306824679 ] } },
{ "type": "Feature", "properties": { "_uid_": 6793, "osm_id": 2984592534, "name": "Catrachito's Deli", "longitude": -77.023767526235304, "latitude": 38.934269073225899, "type": "retail" }, "geometry": { "type": "Point", "coordinates": [ -77.023767526235346, 38.934269073225892 ] } },
{ "type": "Feature", "properties": { "_uid_": 6794, "osm_id": 737145413, "name": "Gee's Market", "longitude": -77.020794641634097, "latitude": 38.934860579726703, "type": "retail" }, "geometry": { "type": "Point", "coordinates": [ -77.020794641634083, 38.934860579726674 ] } },
{ "type": "Feature", "properties": { "_uid_": 6795, "osm_id": 737145438, "name": "Trinity Deli & Food Market", "longitude": -77.004094780839196, "latitude": 38.929600505800799, "type": "retail" }, "geometry": { "type": "Point", "coordinates": [ -77.004094780839239, 38.929600505800821 ] } },
{ "type": "Feature", "properties": { "_uid_": 6796, "osm_id": 3816366750, "name": "King Deli and Market", "longitude": -77.024050765044393, "latitude": 38.935922274353999, "type": "retail" }, "geometry": { "type": "Point", "coordinates": [ -77.024050765044436, 38.935922274353999 ] } },
{ "type": "Feature", "properties": { "_uid_": 6797, "osm_id": 3816366749, "name": "Dollar Plus and Grocery", "longitude": -77.024053639653303, "latitude": 38.935990123325503, "type": "retail" }, "geometry": { "type": "Point", "coordinates": [ -77.024053639653332, 38.935990123325517 ] } },
{ "type": "Feature", "properties": { "_uid_": 6798, "osm_id": 3781194585, "name": "MetroPCS", "longitude": -77.023670598016196, "latitude": 38.930926706765, "type": "retail" }, "geometry": { "type": "Point", "coordinates": [ -77.023670598016182, 38.930926706765042 ] } },
{ "type": "Feature", "properties": { "_uid_": 6799, "osm_id": 2984617624, "name": "Nana-GSM", "longitude": -77.023554445849996, "latitude": 38.933114765352201, "type": "retail" }, "geometry": { "type": "Point", "coordinates": [ -77.023554445849953, 38.933114765352165 ] } },
{ "type": "Feature", "properties": { "_uid_": 6801, "osm_id": 738190958, "name": "Giant Liquors", "longitude": -77.024182907222695, "latitude": 38.933229994338603, "type": "retail" }, "geometry": { "type": "Point", "coordinates": [ -77.024182907222723, 38.933229994338625 ] } },
{ "type": "Feature", "properties": { "_uid_": 6802, "osm_id": 738190934, "name": "Lion's Liquors", "longitude": -77.024351700664596, "latitude": 38.934625165621704, "type": "retail" }, "geometry": { "type": "Point", "coordinates": [ -77.024351700664596, 38.934625165621746 ] } },
{ "type": "Feature", "properties": { "_uid_": 6803, "osm_id": 2987876517, "name": "Mom-N-Pop Antiques", "longitude": -77.024182278401994, "latitude": 38.934089908322399, "type": "retail" }, "geometry": { "type": "Point", "coordinates": [ -77.024182278402023, 38.934089908322363 ] } },
{ "type": "Feature", "properties": { "_uid_": 6804, "osm_id": 737145413, "name": "Gee's Market", "longitude": -77.020794641634097, "latitude": 38.934860579726703, "type": "retail" }, "geometry": { "type": "Point", "coordinates": [ -77.020794641634083, 38.934860579726674 ] } },
{ "type": "Feature", "properties": { "_uid_": 6805, "osm_id": 737145438, "name": "Trinity Deli & Food Market", "longitude": -77.004094780839196, "latitude": 38.929600505800799, "type": "retail" }, "geometry": { "type": "Point", "coordinates": [ -77.004094780839239, 38.929600505800821 ] } },
{ "type": "Feature", "properties": { "_uid_": 6806, "osm_id": 737145443, "name": "Spruill's Convenience Store", "longitude": -77.021167442476994, "latitude": 38.930765003538099, "type": "retail" }, "geometry": { "type": "Point", "coordinates": [ -77.021167442476994, 38.930765003538134 ] } },
{ "type": "Feature", "properties": { "_uid_": 6808, "osm_id": 738190923, "name": "Stop & Go Market", "longitude": -77.025832034421299, "latitude": 38.927964907655202, "type": "retail" }, "geometry": { "type": "Point", "coordinates": [ -77.025832034421313, 38.927964907655237 ] } },
{ "type": "Feature", "properties": { "_uid_": 6809, "osm_id": 738190934, "name": "Lion's Liquors", "longitude": -77.024351700664596, "latitude": 38.934625165621704, "type": "retail" }, "geometry": { "type": "Point", "coordinates": [ -77.024351700664596, 38.934625165621746 ] } },
{ "type": "Feature", "properties": { "_uid_": 6810, "osm_id": 738190950, "name": "Kusa Market", "longitude": -77.023538815164002, "latitude": 38.9293998055076, "type": "retail" }, "geometry": { "type": "Point", "coordinates": [ -77.023538815164002, 38.929399805507593 ] } },
{ "type": "Feature", "properties": { "_uid_": 6811, "osm_id": 738190954, "name": "Gray's Market", "longitude": -77.0237588125771, "latitude": 38.931279321944203, "type": "retail" }, "geometry": { "type": "Point", "coordinates": [ -77.023758812577086, 38.931279321944217 ] } },
{ "type": "Feature", "properties": { "_uid_": 6813, "osm_id": 738190958, "name": "Giant Liquors", "longitude": -77.024182907222695, "latitude": 38.933229994338603, "type": "retail" }, "geometry": { "type": "Point", "coordinates": [ -77.024182907222723, 38.933229994338625 ] } },
{ "type": "Feature", "properties": { "_uid_": 6815, "osm_id": 738190963, "name": "District Dogs", "longitude": -77.023720813840598, "latitude": 38.930367801825597, "type": "retail" }, "geometry": { "type": "Point", "coordinates": [ -77.023720813840583, 38.930367801825561 ] } },
{ "type": "Feature", "properties": { "_uid_": 6816, "osm_id": 829735877, "name": "Botanica San Capriano", "longitude": -77.023767885561497, "latitude": 38.931210560025498, "type": "retail" }, "geometry": { "type": "Point", "coordinates": [ -77.023767885561455, 38.93121056002547 ] } },
{ "type": "Feature", "properties": { "_uid_": 6817, "osm_id": 829741008, "name": "Dollar 1 General Merchandise", "longitude": -77.023971803130905, "latitude": 38.932462519640197, "type": "retail" }, "geometry": { "type": "Point", "coordinates": [ -77.023971803130948, 38.93246251964019 ] } },
{ "type": "Feature", "properties": { "_uid_": 6818, "osm_id": 1364956397, "name": "BP", "longitude": -77.024213629605399, "latitude": 38.932735256068803, "type": "retail" }, "geometry": { "type": "Point", "coordinates": [ -77.024213629605441, 38.932735256068817 ] } },
{ "type": "Feature", "properties": { "_uid_": 6819, "osm_id": 1784870120, "name": "CVS Pharmacy", "longitude": -77.024478003793504, "latitude": 38.935589387213298, "type": "retail" }, "geometry": { "type": "Point", "coordinates": [ -77.024478003793547, 38.935589387213348 ] } },
{ "type": "Feature", "properties": { "_uid_": 6820, "osm_id": 2788370135, "name": "Market 77", "longitude": -77.023043663779404, "latitude": 38.928835787123802, "type": "retail" }, "geometry": { "type": "Point", "coordinates": [ -77.023043663779404, 38.928835787123759 ] } },
{ "type": "Feature", "properties": { "_uid_": 6821, "osm_id": 2823689501, "name": "Fantasy Nails and Spa", "longitude": -77.022796896570895, "latitude": 38.928015013913601, "type": "retail" }, "geometry": { "type": "Point", "coordinates": [ -77.022796896570853, 38.928015013913573 ] } },
{ "type": "Feature", "properties": { "_uid_": 6824, "osm_id": 2970475884, "name": null, "longitude": -77.023495067209694, "latitude": 38.931644863098398, "type": "retail" }, "geometry": { "type": "Point", "coordinates": [ -77.023495067209666, 38.931644863098448 ] } },
{ "type": "Feature", "properties": { "_uid_": 6825, "osm_id": 2984525738, "name": "Capital City Auto Sales", "longitude": -77.023222248857905, "latitude": 38.932677117107701, "type": "retail" }, "geometry": { "type": "Point", "coordinates": [ -77.023222248857891, 38.932677117107673 ] } },
{ "type": "Feature", "properties": { "_uid_": 6826, "osm_id": 2984563450, "name": "Georgia Ave Mart and Wireless", "longitude": -77.023697727137801, "latitude": 38.9340623068247, "type": "retail" }, "geometry": { "type": "Point", "coordinates": [ -77.023697727137787, 38.934062306824679 ] } },
{ "type": "Feature", "properties": { "_uid_": 6827, "osm_id": 2984587096, "name": "African Hair Braiding", "longitude": -77.023764651626394, "latitude": 38.934210096997198, "type": "retail" }, "geometry": { "type": "Point", "coordinates": [ -77.023764651626436, 38.934210096997177 ] } },
{ "type": "Feature", "properties": { "_uid_": 6828, "osm_id": 2984592534, "name": "Catrachito's Deli", "longitude": -77.023767526235304, "latitude": 38.934269073225899, "type": "retail" }, "geometry": { "type": "Point", "coordinates": [ -77.023767526235346, 38.934269073225892 ] } },
{ "type": "Feature", "properties": { "_uid_": 6829, "osm_id": 2984617621, "name": "J&C Unisex Barbershop", "longitude": -77.023745517510903, "latitude": 38.934021498514802, "type": "retail" }, "geometry": { "type": "Point", "coordinates": [ -77.023745517510889, 38.934021498514753 ] } },
{ "type": "Feature", "properties": { "_uid_": 6830, "osm_id": 2984617622, "name": "Renee", "longitude": -77.023646882492699, "latitude": 38.933153198327801, "type": "retail" }, "geometry": { "type": "Point", "coordinates": [ -77.023646882492685, 38.93315319832783 ] } },
{ "type": "Feature", "properties": { "_uid_": 6831, "osm_id": 2984617624, "name": "Nana-GSM", "longitude": -77.023554445849996, "latitude": 38.933114765352201, "type": "retail" }, "geometry": { "type": "Point", "coordinates": [ -77.023554445849953, 38.933114765352165 ] } },
{ "type": "Feature", "properties": { "_uid_": 6832, "osm_id": 2984617625, "name": "Bell Corner Stop Convenience Store", "longitude": -77.023599900603301, "latitude": 38.932935178262603, "type": "retail" }, "geometry": { "type": "Point", "coordinates": [ -77.02359990060333, 38.932935178262575 ] } },
{ "type": "Feature", "properties": { "_uid_": 6833, "osm_id": 2987722255, "name": "Janelle's Beauty Salon", "longitude": -77.023046448556798, "latitude": 38.929302460070303, "type": "retail" }, "geometry": { "type": "Point", "coordinates": [ -77.023046448556784, 38.929302460070325 ] } },
{ "type": "Feature", "properties": { "_uid_": 6834, "osm_id": 2987747433, "name": "M & T's Hairstylist", "longitude": -77.023152270097199, "latitude": 38.929632092285502, "type": "retail" }, "geometry": { "type": "Point", "coordinates": [ -77.023152270097242, 38.929632092285509 ] } },
{ "type": "Feature", "properties": { "_uid_": 6835, "osm_id": 2987761791, "name": "Modern Barber Shop", "longitude": -77.023248928821801, "latitude": 38.930336285549402, "type": "retail" }, "geometry": { "type": "Point", "coordinates": [ -77.023248928821829, 38.930336285549387 ] } },
{ "type": "Feature", "properties": { "_uid_": 6836, "osm_id": 2987782647, "name": "Van and Frank Barber Shop", "longitude": -77.023273003671406, "latitude": 38.9304421550247, "type": "retail" }, "geometry": { "type": "Point", "coordinates": [ -77.023273003671434, 38.930442155024714 ] } },
{ "type": "Feature", "properties": { "_uid_": 6837, "osm_id": 2987818487, "name": "The Perch", "longitude": -77.023990218594307, "latitude": 38.932288870611799, "type": "retail" }, "geometry": { "type": "Point", "coordinates": [ -77.023990218594278, 38.932288870611771 ] } },
{ "type": "Feature", "properties": { "_uid_": 6838, "osm_id": 2987871287, "name": "International Hair Salon", "longitude": -77.024120474310493, "latitude": 38.933728292912598, "type": "retail" }, "geometry": { "type": "Point", "coordinates": [ -77.024120474310465, 38.933728292912583 ] } },
{ "type": "Feature", "properties": { "_uid_": 6839, "osm_id": 2987876517, "name": "Mom-N-Pop Antiques", "longitude": -77.024182278401994, "latitude": 38.934089908322399, "type": "retail" }, "geometry": { "type": "Point", "coordinates": [ -77.024182278402023, 38.934089908322363 ] } },
{ "type": "Feature", "properties": { "_uid_": 6840, "osm_id": 2987901016, "name": "Georgia Ave Biz Services", "longitude": -77.023876941036903, "latitude": 38.9348969853407, "type": "retail" }, "geometry": { "type": "Point", "coordinates": [ -77.023876941036946, 38.934896985340693 ] } },
{ "type": "Feature", "properties": { "_uid_": 6841, "osm_id": 2992766536, "name": "Studio Chique", "longitude": -77.022940896510903, "latitude": 38.928562965818003, "type": "retail" }, "geometry": { "type": "Point", "coordinates": [ -77.022940896510903, 38.928562965817967 ] } },
{ "type": "Feature", "properties": { "_uid_": 6842, "osm_id": 3018026879, "name": "LA Nails", "longitude": -77.023133495307803, "latitude": 38.929718885164398, "type": "retail" }, "geometry": { "type": "Point", "coordinates": [ -77.023133495307817, 38.929718885164355 ] } },
{ "type": "Feature", "properties": { "_uid_": 6843, "osm_id": 3024686415, "name": "Lamont Market", "longitude": -77.019912765519706, "latitude": 38.931137255833399, "type": "retail" }, "geometry": { "type": "Point", "coordinates": [ -77.019912765519663, 38.931137255833377 ] } },
{ "type": "Feature", "properties": { "_uid_": 6844, "osm_id": 3199482941, "name": "Mailbox", "longitude": -77.026630906203494, "latitude": 38.930689462708102, "type": "retail" }, "geometry": { "type": "Point", "coordinates": [ -77.026630906203479, 38.930689462708145 ] } },
{ "type": "Feature", "properties": { "_uid_": 6845, "osm_id": 3781194585, "name": "MetroPCS", "longitude": -77.023670598016196, "latitude": 38.930926706765, "type": "retail" }, "geometry": { "type": "Point", "coordinates": [ -77.023670598016182, 38.930926706765042 ] } },
{ "type": "Feature", "properties": { "_uid_": 6848, "osm_id": 3816366749, "name": "Dollar Plus and Grocery", "longitude": -77.024053639653303, "latitude": 38.935990123325503, "type": "retail" }, "geometry": { "type": "Point", "coordinates": [ -77.024053639653332, 38.935990123325517 ] } },
{ "type": "Feature", "properties": { "_uid_": 6849, "osm_id": 3816366750, "name": "King Deli and Market", "longitude": -77.024050765044393, "latitude": 38.935922274353999, "type": "retail" }, "geometry": { "type": "Point", "coordinates": [ -77.024050765044436, 38.935922274353999 ] } },
{ "type": "Feature", "properties": { "_uid_": 6850, "osm_id": 3984638717, "name": "US Post Office", "longitude": -77.023252791577505, "latitude": 38.931605590749697, "type": "retail" }, "geometry": { "type": "Point", "coordinates": [ -77.023252791577548, 38.931605590749726 ] } },
{ "type": "Feature", "properties": { "_uid_": 6851, "osm_id": 3984662968, "name": "Walls of Books", "longitude": -77.023187933214004, "latitude": 38.931729557128797, "type": "retail" }, "geometry": { "type": "Point", "coordinates": [ -77.023187933214047, 38.931729557128804 ] } },
{ "type": "Feature", "properties": { "_uid_": 6852, "osm_id": 4128339089, "name": "Gojo International Market", "longitude": -77.023612477017295, "latitude": 38.933056976093198, "type": "retail" }, "geometry": { "type": "Point", "coordinates": [ -77.023612477017309, 38.933056976093184 ] } },
{ "type": "Feature", "properties": { "_uid_": 6853, "osm_id": 4128350126, "name": "Margaritte Hair Braiding", "longitude": -77.0233528639002, "latitude": 38.931505383270299, "type": "retail" }, "geometry": { "type": "Point", "coordinates": [ -77.023352863900186, 38.931505383270284 ] } },
{ "type": "Feature", "properties": { "_uid_": 6854, "osm_id": 4128350127, "name": "Beau Nails", "longitude": -77.023859244225804, "latitude": 38.931598602785002, "type": "retail" }, "geometry": { "type": "Point", "coordinates": [ -77.023859244225847, 38.931598602785044 ] } },
{ "type": "Feature", "properties": { "_uid_": 6855, "osm_id": 4128350128, "name": null, "longitude": -77.023869844346194, "latitude": 38.931797060714203, "type": "retail" }, "geometry": { "type": "Point", "coordinates": [ -77.023869844346208, 38.931797060714231 ] } },
{ "type": "Feature", "properties": { "_uid_": 6856, "osm_id": 4128363019, "name": "Medical Center Orthotics And Prosthetics", "longitude": -77.0236732031305, "latitude": 38.930901759489203, "type": "retail" }, "geometry": { "type": "Point", "coordinates": [ -77.023673203130514, 38.930901759489174 ] } },
{ "type": "Feature", "properties": { "_uid_": 6857, "osm_id": 4128363020, "name": "Spruill's Barber Shop", "longitude": -77.023251893262298, "latitude": 38.930891417198602, "type": "retail" }, "geometry": { "type": "Point", "coordinates": [ -77.02325189326227, 38.930891417198573 ] } },
{ "type": "Feature", "properties": { "_uid_": 6858, "osm_id": 4128393961, "name": "Riteway Medical Supplies & Nurse Care", "longitude": -77.022950777979005, "latitude": 38.928769888016099, "type": "retail" }, "geometry": { "type": "Point", "coordinates": [ -77.02295077797902, 38.928769888016149 ] } },
{ "type": "Feature", "properties": { "_uid_": 6859, "osm_id": 4128393963, "name": "Hair By Newa", "longitude": -77.022929308243704, "latitude": 38.928720620880902, "type": "retail" }, "geometry": { "type": "Point", "coordinates": [ -77.022929308243732, 38.928720620880853 ] } },
{ "type": "Feature", "properties": { "_uid_": 6860, "osm_id": 4128410100, "name": "African Hair Braiding", "longitude": -77.023074745488202, "latitude": 38.929436772978903, "type": "retail" }, "geometry": { "type": "Point", "coordinates": [ -77.023074745488231, 38.929436772978924 ] } },
{ "type": "Feature", "properties": { "_uid_": 6861, "osm_id": 4128428428, "name": "Same Day Dentures", "longitude": -77.023000005656598, "latitude": 38.929191277860497, "type": "retail" }, "geometry": { "type": "Point", "coordinates": [ -77.023000005656598, 38.929191277860468 ] } },
{ "type": "Feature", "properties": { "_uid_": 6862, "osm_id": 4128458534, "name": "African Hair Gallery", "longitude": -77.024124965886898, "latitude": 38.933760157069102, "type": "retail" }, "geometry": { "type": "Point", "coordinates": [ -77.024124965886884, 38.933760157069138 ] } },
{ "type": "Feature", "properties": { "_uid_": 6863, "osm_id": 4237715089, "name": null, "longitude": -77.024422937066603, "latitude": 38.935029960006197, "type": "retail" }, "geometry": { "type": "Point", "coordinates": [ -77.024422937066632, 38.935029960006219 ] } },
{ "type": "Feature", "properties": { "_uid_": 7004, "osm_id": 358245073, "name": "Greenbelt Nursery School", "longitude": -76.878769378247299, "latitude": 39.001588610792901, "type": "education" }, "geometry": { "type": "Point", "coordinates": [ -76.878769378247284, 39.001588610792858 ] } },
{ "type": "Feature", "properties": { "_uid_": 7005, "osm_id": 358245662, "name": "Saint Hugh of Grenoble School", "longitude": -76.8801267326416, "latitude": 39.004899372834203, "type": "education" }, "geometry": { "type": "Point", "coordinates": [ -76.880126732641585, 39.004899372834188 ] } },
{ "type": "Feature", "properties": { "_uid_": 7006, "osm_id": 358253254, "name": "Catherine T Reed Elementary School", "longitude": -76.841915993716299, "latitude": 38.9895546762571, "type": "education" }, "geometry": { "type": "Point", "coordinates": [ -76.84191599371627, 38.989554676257129 ] } },
{ "type": "Feature", "properties": { "_uid_": 7007, "osm_id": 358253944, "name": "Howard B Owens Science Center School", "longitude": -76.852471916956901, "latitude": 38.990943572090202, "type": "education" }, "geometry": { "type": "Point", "coordinates": [ -76.852471916956901, 38.990943572090181 ] } },
{ "type": "Feature", "properties": { "_uid_": 7008, "osm_id": 358245145, "name": "DuVal High School", "longitude": -76.837717178246805, "latitude": 38.9902159622036, "type": "education" }, "geometry": { "type": "Point", "coordinates": [ -76.837717178246777, 38.990215962203642 ] } },
{ "type": "Feature", "properties": { "_uid_": 7009, "osm_id": 358255562, "name": "Kiddie Academy of Greenbelt", "longitude": -76.833655086363507, "latitude": 38.990769787048201, "type": "education" }, "geometry": { "type": "Point", "coordinates": [ -76.833655086363507, 38.990769787048222 ] } },
{ "type": "Feature", "properties": { "_uid_": 7016, "osm_id": 2295388386, "name": "New Deal Cafe", "longitude": -76.876553144609801, "latitude": 39.001295056434103, "type": "restaurant" }, "geometry": { "type": "Point", "coordinates": [ -76.876553144609815, 39.001295056434117 ] } },
{ "type": "Feature", "properties": { "_uid_": 7017, "osm_id": 626297878, "name": "Osaka Sushi", "longitude": -76.8527482387383, "latitude": 38.990495668031102, "type": "restaurant" }, "geometry": { "type": "Point", "coordinates": [ -76.8527482387383, 38.990495668031137 ] } },
{ "type": "Feature", "properties": { "_uid_": 7024, "osm_id": 3720583456, "name": "Your Christian CPA, Inc", "longitude": -76.835513880349396, "latitude": 38.990246404529003, "type": "retail" }, "geometry": { "type": "Point", "coordinates": [ -76.83551388034941, 38.990246404529039 ] } },
{ "type": "Feature", "properties": { "_uid_": 7025, "osm_id": 358253401, "name": "Pleasant Grove Cemetery", "longitude": -76.831082580884399, "latitude": 39.020665356381798, "type": "retail" }, "geometry": { "type": "Point", "coordinates": [ -76.831082580884384, 39.02066535638177 ] } },
{ "type": "Feature", "properties": { "_uid_": 7044, "osm_id": 358254296, "name": "Holy Redeemer Elementary School", "longitude": -76.927789904312505, "latitude": 38.994659984211701, "type": "education" }, "geometry": { "type": "Point", "coordinates": [ -76.927789904312505, 38.994659984211687 ] } },
{ "type": "Feature", "properties": { "_uid_": 7045, "osm_id": 358245320, "name": "Lakeland School", "longitude": -76.924793394019304, "latitude": 38.989597058510803, "type": "education" }, "geometry": { "type": "Point", "coordinates": [ -76.924793394019275, 38.989597058510789 ] } },
{ "type": "Feature", "properties": { "_uid_": 7046, "osm_id": 358253914, "name": "Berwyn Heights Elementary School", "longitude": -76.908865904705706, "latitude": 38.991989973847097, "type": "education" }, "geometry": { "type": "Point", "coordinates": [ -76.908865904705706, 38.991989973847055 ] } },
{ "type": "Feature", "properties": { "_uid_": 7047, "osm_id": 358254705, "name": "Berwyn Baptist School", "longitude": -76.927653270557798, "latitude": 39.003644364712002, "type": "education" }, "geometry": { "type": "Point", "coordinates": [ -76.927653270557784, 39.003644364712009 ] } },
{ "type": "Feature", "properties": { "_uid_": 7048, "osm_id": 358253197, "name": "Paint Branch School (historical)", "longitude": -76.939419044823097, "latitude": 39.019554122373897, "type": "education" }, "geometry": { "type": "Point", "coordinates": [ -76.939419044823069, 39.019554122373911 ] } },
{ "type": "Feature", "properties": { "_uid_": 7049, "osm_id": 358245279, "name": "Hollywood Elementary School", "longitude": -76.923006195761502, "latitude": 39.015207007034597, "type": "education" }, "geometry": { "type": "Point", "coordinates": [ -76.923006195761516, 39.015207007034618 ] } },
{ "type": "Feature", "properties": { "_uid_": 7050, "osm_id": 358255347, "name": "Paint Branch Montessori School", "longitude": -76.951769891832896, "latitude": 39.033649977819302, "type": "education" }, "geometry": { "type": "Point", "coordinates": [ -76.95176989183291, 39.033649977819323 ] } },
{ "type": "Feature", "properties": { "_uid_": 7051, "osm_id": 358253182, "name": "Frances Fuch Special Education Complex", "longitude": -76.943585970100003, "latitude": 39.035387174341103, "type": "education" }, "geometry": { "type": "Point", "coordinates": [ -76.943585970099988, 39.035387174341132 ] } },
{ "type": "Feature", "properties": { "_uid_": 7054, "osm_id": 358245083, "name": "Chestnut Hill School", "longitude": -76.918862986008094, "latitude": 39.034553889147297, "type": "education" }, "geometry": { "type": "Point", "coordinates": [ -76.918862986008094, 39.034553889147332 ] } },
{ "type": "Feature", "properties": { "_uid_": 7055, "osm_id": 358245669, "name": "Saint Josephs School", "longitude": -76.919760941966103, "latitude": 39.036705394424096, "type": "education" }, "geometry": { "type": "Point", "coordinates": [ -76.919760941966089, 39.036705394424096 ] } },
{ "type": "Feature", "properties": { "_uid_": 7056, "osm_id": 358245002, "name": "Beltsville Junior High School", "longitude": -76.918585316753806, "latitude": 39.038998265654598, "type": "education" }, "geometry": { "type": "Point", "coordinates": [ -76.918585316753777, 39.038998265654605 ] } },
{ "type": "Feature", "properties": { "_uid_": 7069, "osm_id": 2467270027, "name": "Looney's Pub", "longitude": -76.9345542184019, "latitude": 38.990868165214003, "type": "nighlife" }, "geometry": { "type": "Point", "coordinates": [ -76.934554218401928, 38.990868165213975 ] } },
{ "type": "Feature", "properties": { "_uid_": 7070, "osm_id": 3589227093, "name": "Town Hall Liquors", "longitude": -76.933448122792598, "latitude": 38.990873820732503, "type": "nighlife" }, "geometry": { "type": "Point", "coordinates": [ -76.933448122792583, 38.990873820732482 ] } },
{ "type": "Feature", "properties": { "_uid_": 7071, "osm_id": 2888481201, "name": "Bobby's Burger Palace", "longitude": -76.934195880435098, "latitude": 38.991151010406398, "type": "restaurant" }, "geometry": { "type": "Point", "coordinates": [ -76.934195880435084, 38.991151010406426 ] } },
{ "type": "Feature", "properties": { "_uid_": 7072, "osm_id": 4102660479, "name": "NuVegan Cafe", "longitude": -76.934067870507107, "latitude": 38.991351675503097, "type": "restaurant" }, "geometry": { "type": "Point", "coordinates": [ -76.934067870507107, 38.991351675503054 ] } },
{ "type": "Feature", "properties": { "_uid_": 7073, "osm_id": 3825904577, "name": "D.P Dough", "longitude": -76.932736567256001, "latitude": 38.9909268848347, "type": "restaurant" }, "geometry": { "type": "Point", "coordinates": [ -76.932736567256043, 38.990926884834678 ] } },
{ "type": "Feature", "properties": { "_uid_": 7074, "osm_id": 2299059136, "name": "Food Factory", "longitude": -76.932634069482106, "latitude": 38.990973455533698, "type": "restaurant" }, "geometry": { "type": "Point", "coordinates": [ -76.93263406948212, 38.990973455533698 ] } },
{ "type": "Feature", "properties": { "_uid_": 7075, "osm_id": 4102660480, "name": "Shanghai Tokyo Cafe", "longitude": -76.933484145235496, "latitude": 38.992562007714497, "type": "restaurant" }, "geometry": { "type": "Point", "coordinates": [ -76.933484145235468, 38.992562007714547 ] } },
{ "type": "Feature", "properties": { "_uid_": 7076, "osm_id": 2888480401, "name": "Pizza Authentica", "longitude": -76.933476868881698, "latitude": 38.992664991472701, "type": "restaurant" }, "geometry": { "type": "Point", "coordinates": [ -76.933476868881684, 38.992664991472729 ] } },
{ "type": "Feature", "properties": { "_uid_": 7077, "osm_id": 3067777197, "name": "Sakura Seafood Buffet", "longitude": -76.930510721645007, "latitude": 39.000734961112201, "type": "restaurant" }, "geometry": { "type": "Point", "coordinates": [ -76.930510721645035, 39.000734961112229 ] } },
{ "type": "Feature", "properties": { "_uid_": 7078, "osm_id": 5002239382, "name": "Mamma Lucia", "longitude": -76.928194146190407, "latitude": 39.016114713828102, "type": "restaurant" }, "geometry": { "type": "Point", "coordinates": [ -76.928194146190364, 39.016114713828074 ] } },
{ "type": "Feature", "properties": { "_uid_": 7079, "osm_id": 5002239381, "name": "Hard Times Cafe", "longitude": -76.928135665865398, "latitude": 39.016068508658002, "type": "restaurant" }, "geometry": { "type": "Point", "coordinates": [ -76.928135665865369, 39.016068508657995 ] } },
{ "type": "Feature", "properties": { "_uid_": 7080, "osm_id": 1089089766, "name": "Moose Creek Steakhouse", "longitude": -76.926473782589795, "latitude": 39.020802217998103, "type": "restaurant" }, "geometry": { "type": "Point", "coordinates": [ -76.926473782589753, 39.020802217998146 ] } },
{ "type": "Feature", "properties": { "_uid_": 7081, "osm_id": 3761031201, "name": "Pizza Roma", "longitude": -76.919740909535307, "latitude": 39.014185517597703, "type": "restaurant" }, "geometry": { "type": "Point", "coordinates": [ -76.919740909535278, 39.014185517597717 ] } },
{ "type": "Feature", "properties": { "_uid_": 7082, "osm_id": 3761031194, "name": "Eddie's Cafe", "longitude": -76.919979591906298, "latitude": 39.0146336904888, "type": "restaurant" }, "geometry": { "type": "Point", "coordinates": [ -76.919979591906269, 39.01463369048885 ] } },
{ "type": "Feature", "properties": { "_uid_": 7083, "osm_id": 4517287251, "name": "Sardi's Pollo A La Brasa", "longitude": -76.918018928967101, "latitude": 39.027126666490197, "type": "restaurant" }, "geometry": { "type": "Point", "coordinates": [ -76.918018928967129, 39.027126666490162 ] } },
{ "type": "Feature", "properties": { "_uid_": 7084, "osm_id": 4801932306, "name": "Panera Bread", "longitude": -76.911588877994902, "latitude": 39.033257190761603, "type": "restaurant" }, "geometry": { "type": "Point", "coordinates": [ -76.911588877994944, 39.03325719076156 ] } },
{ "type": "Feature", "properties": { "_uid_": 7085, "osm_id": 4547982780, "name": "Parts Authority - Olympic", "longitude": -76.908981967040404, "latitude": 38.996853964450999, "type": "retail" }, "geometry": { "type": "Point", "coordinates": [ -76.908981967040432, 38.996853964450956 ] } },
{ "type": "Feature", "properties": { "_uid_": 7086, "osm_id": 3066112013, "name": null, "longitude": -76.9300054192977, "latitude": 39.007597306626899, "type": "retail" }, "geometry": { "type": "Point", "coordinates": [ -76.930005419297714, 39.007597306626877 ] } },
{ "type": "Feature", "properties": { "_uid_": 7087, "osm_id": 3066112020, "name": "DARCARS Nissan of College Park", "longitude": -76.930093633858604, "latitude": 39.008108205474599, "type": "retail" }, "geometry": { "type": "Point", "coordinates": [ -76.930093633858633, 39.008108205474556 ] } },
{ "type": "Feature", "properties": { "_uid_": 7088, "osm_id": 3066113136, "name": "Honda", "longitude": -76.929994280188197, "latitude": 39.008810571934099, "type": "retail" }, "geometry": { "type": "Point", "coordinates": [ -76.929994280188211, 39.008810571934134 ] } },
{ "type": "Feature", "properties": { "_uid_": 7089, "osm_id": 3068150148, "name": "College Park Hyundai", "longitude": -76.929456099501493, "latitude": 39.0096970012222, "type": "retail" }, "geometry": { "type": "Point", "coordinates": [ -76.929456099501508, 39.009697001222222 ] } },
{ "type": "Feature", "properties": { "_uid_": 7090, "osm_id": 1080130838, "name": "Home Depot", "longitude": -76.931092111296906, "latitude": 39.017854295576797, "type": "retail" }, "geometry": { "type": "Point", "coordinates": [ -76.93109211129692, 39.017854295576754 ] } },
{ "type": "Feature", "properties": { "_uid_": 7091, "osm_id": 2336737214, "name": "Advance Auto Parts", "longitude": -76.908596769446604, "latitude": 39.033653396989997, "type": "retail" }, "geometry": { "type": "Point", "coordinates": [ -76.908596769446589, 39.033653396990026 ] } },
{ "type": "Feature", "properties": { "_uid_": 7092, "osm_id": 367798357, "name": "Berwyn Heights Town Hall", "longitude": -76.916999880108804, "latitude": 38.992100010258298, "type": "retail" }, "geometry": { "type": "Point", "coordinates": [ -76.916999880108833, 38.992100010258348 ] } },
{ "type": "Feature", "properties": { "_uid_": 7093, "osm_id": 3761031203, "name": "Mighty Healthy Pet", "longitude": -76.9198720635667, "latitude": 39.014433370609801, "type": "retail" }, "geometry": { "type": "Point", "coordinates": [ -76.919872063566743, 39.014433370609787 ] } },
{ "type": "Feature", "properties": { "_uid_": 7094, "osm_id": 3200110802, "name": "Beltsville Farmers Market", "longitude": -76.909913250495507, "latitude": 39.021339053560297, "type": "retail" }, "geometry": { "type": "Point", "coordinates": [ -76.909913250495478, 39.021339053560339 ] } },
{ "type": "Feature", "properties": { "_uid_": 7095, "osm_id": 2482553161, "name": "Petco", "longitude": -76.918100945152602, "latitude": 39.028365765835602, "type": "retail" }, "geometry": { "type": "Point", "coordinates": [ -76.918100945152574, 39.028365765835566 ] } },
{ "type": "Feature", "properties": { "_uid_": 7096, "osm_id": 358253207, "name": "Saint Johns Cemetery", "longitude": -76.9085850015164, "latitude": 39.035387313895697, "type": "retail" }, "geometry": { "type": "Point", "coordinates": [ -76.908585001516357, 39.03538731389569 ] } },
{ "type": "Feature", "properties": { "_uid_": 7097, "osm_id": 358253163, "name": "Beltsville Post Office", "longitude": -76.909583838280795, "latitude": 39.039768074851899, "type": "retail" }, "geometry": { "type": "Point", "coordinates": [ -76.909583838280781, 39.039768074851871 ] } },
{ "type": "Feature", "properties": { "_uid_": 7100, "osm_id": 2888480201, "name": "7-Eleven", "longitude": -76.933935907991895, "latitude": 38.991775974879602, "type": "retail" }, "geometry": { "type": "Point", "coordinates": [ -76.933935907991867, 38.991775974879637 ] } },
{ "type": "Feature", "properties": { "_uid_": 7101, "osm_id": 1951408827, "name": "Giant", "longitude": -76.911126245623606, "latitude": 38.999493003905698, "type": "retail" }, "geometry": { "type": "Point", "coordinates": [ -76.91112624562362, 38.999493003905727 ] } },
{ "type": "Feature", "properties": { "_uid_": 7102, "osm_id": 1951408831, "name": "Target", "longitude": -76.9065196848467, "latitude": 38.9989654971044, "type": "retail" }, "geometry": { "type": "Point", "coordinates": [ -76.906519684846657, 38.998965497104443 ] } },
{ "type": "Feature", "properties": { "_uid_": 7103, "osm_id": 3066112008, "name": null, "longitude": -76.929865910934097, "latitude": 39.0075619156286, "type": "retail" }, "geometry": { "type": "Point", "coordinates": [ -76.929865910934097, 39.007561915628649 ] } },
{ "type": "Feature", "properties": { "_uid_": 7104, "osm_id": 2337634233, "name": "MOM", "longitude": -76.919953810257596, "latitude": 39.014785011888897, "type": "retail" }, "geometry": { "type": "Point", "coordinates": [ -76.91995381025761, 39.014785011888883 ] } },
{ "type": "Feature", "properties": { "_uid_": 7105, "osm_id": 4547992126, "name": "7-Eleven", "longitude": -76.902382583637205, "latitude": 38.995541354566903, "type": "retail" }, "geometry": { "type": "Point", "coordinates": [ -76.902382583637163, 38.995541354566924 ] } },
{ "type": "Feature", "properties": { "_uid_": 7106, "osm_id": 3931497557, "name": "Snacks", "longitude": -76.907377935269096, "latitude": 39.034226001080398, "type": "retail" }, "geometry": { "type": "Point", "coordinates": [ -76.907377935269096, 39.034226001080356 ] } },
{ "type": "Feature", "properties": { "_uid_": 7107, "osm_id": 3270465167, "name": "7-Eleven", "longitude": -76.904871905120999, "latitude": 39.0408799679007, "type": "retail" }, "geometry": { "type": "Point", "coordinates": [ -76.904871905120984, 39.0408799679007 ] } },
{ "type": "Feature", "properties": { "_uid_": 8661, "osm_id": 358245396, "name": "Mount Rainier Junior High School", "longitude": -76.966641681024598, "latitude": 38.9489998547119, "type": "education" }, "geometry": { "type": "Point", "coordinates": [ -76.966641681024555, 38.9489998547119 ] } },
{ "type": "Feature", "properties": { "_uid_": 8662, "osm_id": 358254919, "name": "New City Montessori School", "longitude": -76.963209487818503, "latitude": 38.963653466771298, "type": "education" }, "geometry": { "type": "Point", "coordinates": [ -76.963209487818517, 38.963653466771312 ] } },
{ "type": "Feature", "properties": { "_uid_": 8663, "osm_id": 358254642, "name": "Pathways School - Hyattsville", "longitude": -76.963156936374403, "latitude": 38.963774792744204, "type": "education" }, "geometry": { "type": "Point", "coordinates": [ -76.963156936374403, 38.963774792744168 ] } },
{ "type": "Feature", "properties": { "_uid_": 8664, "osm_id": 2089922762, "name": "Queens Car Wash", "longitude": -76.9679887047931, "latitude": 38.951980894883903, "type": "retail" }, "geometry": { "type": "Point", "coordinates": [ -76.9679887047931, 38.951980894883896 ] } },
{ "type": "Feature", "properties": { "_uid_": 8665, "osm_id": 2467275677, "name": "Advanced Auto Parts", "longitude": -76.966545471457593, "latitude": 38.9508987619664, "type": "retail" }, "geometry": { "type": "Point", "coordinates": [ -76.966545471457636, 38.950898761966407 ] } },
{ "type": "Feature", "properties": { "_uid_": 8666, "osm_id": 2467275684, "name": null, "longitude": -76.962473947263902, "latitude": 38.9561678042148, "type": "retail" }, "geometry": { "type": "Point", "coordinates": [ -76.962473947263888, 38.956167804214765 ] } },
{ "type": "Feature", "properties": { "_uid_": 8667, "osm_id": 2467275678, "name": null, "longitude": -76.965177606774503, "latitude": 38.956167594648498, "type": "retail" }, "geometry": { "type": "Point", "coordinates": [ -76.965177606774517, 38.956167594648456 ] } },
{ "type": "Feature", "properties": { "_uid_": 8668, "osm_id": 2467275684, "name": null, "longitude": -76.962473947263902, "latitude": 38.9561678042148, "type": "retail" }, "geometry": { "type": "Point", "coordinates": [ -76.962473947263888, 38.956167804214765 ] } },
{ "type": "Feature", "properties": { "_uid_": 8669, "osm_id": 2467275678, "name": null, "longitude": -76.965177606774503, "latitude": 38.956167594648498, "type": "retail" }, "geometry": { "type": "Point", "coordinates": [ -76.965177606774517, 38.956167594648456 ] } },
{ "type": "Feature", "properties": { "_uid_": 9591, "osm_id": 1837393990, "name": "Italian Inn", "longitude": -76.909500205127799, "latitude": 38.938480086761601, "type": "restaurant" }, "geometry": { "type": "Point", "coordinates": [ -76.909500205127827, 38.938480086761551 ] } },
{ "type": "Feature", "properties": { "_uid_": 9592, "osm_id": 2110614493, "name": "Community Forklift", "longitude": -76.936177384288797, "latitude": 38.945931287444601, "type": "retail" }, "geometry": { "type": "Point", "coordinates": [ -76.936177384288797, 38.945931287444623 ] } },
{ "type": "Feature", "properties": { "_uid_": 9593, "osm_id": 2271774111, "name": null, "longitude": -76.942068535922104, "latitude": 38.942002989348502, "type": "retail" }, "geometry": { "type": "Point", "coordinates": [ -76.942068535922061, 38.94200298934846 ] } },
{ "type": "Feature", "properties": { "_uid_": 9594, "osm_id": 358256410, "name": "Bladensburg Post Office", "longitude": -76.933030496016997, "latitude": 38.942036456782397, "type": "retail" }, "geometry": { "type": "Point", "coordinates": [ -76.933030496016997, 38.942036456782411 ] } },
{ "type": "Feature", "properties": { "_uid_": 9595, "osm_id": 367798358, "name": "Bladensburg Town Hall", "longitude": -76.932699915992501, "latitude": 38.942399986159003, "type": "retail" }, "geometry": { "type": "Point", "coordinates": [ -76.932699915992458, 38.942399986158968 ] } },
{ "type": "Feature", "properties": { "_uid_": 9596, "osm_id": 4890672522, "name": "Dollar Tree", "longitude": -76.905268511318894, "latitude": 38.939736110347802, "type": "retail" }, "geometry": { "type": "Point", "coordinates": [ -76.905268511318923, 38.939736110347759 ] } },
{ "type": "Feature", "properties": { "_uid_": 9597, "osm_id": 4890672521, "name": "Walmart", "longitude": -76.907965343633407, "latitude": 38.943146881912099, "type": "retail" }, "geometry": { "type": "Point", "coordinates": [ -76.907965343633379, 38.943146881912078 ] } },
{ "type": "Feature", "properties": { "_uid_": 9598, "osm_id": 358256410, "name": "Bladensburg Post Office", "longitude": -76.933030496016997, "latitude": 38.942036456782397, "type": "retail" }, "geometry": { "type": "Point", "coordinates": [ -76.933030496016997, 38.942036456782411 ] } },
{ "type": "Feature", "properties": { "_uid_": 9599, "osm_id": 367798358, "name": "Bladensburg Town Hall", "longitude": -76.932699915992501, "latitude": 38.942399986159003, "type": "retail" }, "geometry": { "type": "Point", "coordinates": [ -76.932699915992458, 38.942399986158968 ] } },
{ "type": "Feature", "properties": { "_uid_": 9600, "osm_id": 2110614493, "name": "Community Forklift", "longitude": -76.936177384288797, "latitude": 38.945931287444601, "type": "retail" }, "geometry": { "type": "Point", "coordinates": [ -76.936177384288797, 38.945931287444623 ] } },
{ "type": "Feature", "properties": { "_uid_": 9601, "osm_id": 2271774111, "name": null, "longitude": -76.942068535922104, "latitude": 38.942002989348502, "type": "retail" }, "geometry": { "type": "Point", "coordinates": [ -76.942068535922061, 38.94200298934846 ] } },
{ "type": "Feature", "properties": { "_uid_": 9602, "osm_id": 4890672521, "name": "Walmart", "longitude": -76.907965343633407, "latitude": 38.943146881912099, "type": "retail" }, "geometry": { "type": "Point", "coordinates": [ -76.907965343633379, 38.943146881912078 ] } },
{ "type": "Feature", "properties": { "_uid_": 9603, "osm_id": 4890672522, "name": "Dollar Tree", "longitude": -76.905268511318894, "latitude": 38.939736110347802, "type": "retail" }, "geometry": { "type": "Point", "coordinates": [ -76.905268511318923, 38.939736110347759 ] } },
{ "type": "Feature", "properties": { "_uid_": 10882, "osm_id": 5064224121, "name": "Ciesbd Thrift Store", "longitude": -76.921273525241503, "latitude": 39.017195012809999, "type": "retail" }, "geometry": { "type": "Point", "coordinates": [ -76.921273525241503, 39.017195012810049 ] } },
{ "type": "Feature", "properties": { "_uid_": 10883, "osm_id": 4801932307, "name": "Sprint", "longitude": -76.911402747068095, "latitude": 39.033417264485898, "type": "retail" }, "geometry": { "type": "Point", "coordinates": [ -76.911402747068067, 39.033417264485855 ] } },
{ "type": "Feature", "properties": { "_uid_": 10884, "osm_id": 2482561040, "name": "T-Mobile", "longitude": -76.907726122273203, "latitude": 39.034128869443499, "type": "retail" }, "geometry": { "type": "Point", "coordinates": [ -76.907726122273218, 39.034128869443457 ] } },
{ "type": "Feature", "properties": { "_uid_": 10885, "osm_id": 3181355132, "name": "Atomic Music", "longitude": -76.906677788336694, "latitude": 39.033585013544602, "type": "retail" }, "geometry": { "type": "Point", "coordinates": [ -76.906677788336665, 39.033585013544567 ] } },
{ "type": "Feature", "properties": { "_uid_": 10886, "osm_id": 2001768893, "name": "Old Line Fine Wine, Spirits & Bistro", "longitude": -76.907059751995504, "latitude": 39.033490811751101, "type": "retail" }, "geometry": { "type": "Point", "coordinates": [ -76.907059751995462, 39.033490811751129 ] } },
{ "type": "Feature", "properties": { "_uid_": 10887, "osm_id": 358253163, "name": "Beltsville Post Office", "longitude": -76.909583838280795, "latitude": 39.039768074851899, "type": "retail" }, "geometry": { "type": "Point", "coordinates": [ -76.909583838280781, 39.039768074851871 ] } },
{ "type": "Feature", "properties": { "_uid_": 10889, "osm_id": 358253207, "name": "Saint Johns Cemetery", "longitude": -76.9085850015164, "latitude": 39.035387313895697, "type": "retail" }, "geometry": { "type": "Point", "coordinates": [ -76.908585001516357, 39.03538731389569 ] } },
{ "type": "Feature", "properties": { "_uid_": 10891, "osm_id": 1080130838, "name": "Home Depot", "longitude": -76.931092111296906, "latitude": 39.017854295576797, "type": "retail" }, "geometry": { "type": "Point", "coordinates": [ -76.93109211129692, 39.017854295576754 ] } },
{ "type": "Feature", "properties": { "_uid_": 10892, "osm_id": 2001768893, "name": "Old Line Fine Wine, Spirits & Bistro", "longitude": -76.907059751995504, "latitude": 39.033490811751101, "type": "retail" }, "geometry": { "type": "Point", "coordinates": [ -76.907059751995462, 39.033490811751129 ] } },
{ "type": "Feature", "properties": { "_uid_": 10893, "osm_id": 2336737214, "name": "Advance Auto Parts", "longitude": -76.908596769446604, "latitude": 39.033653396989997, "type": "retail" }, "geometry": { "type": "Point", "coordinates": [ -76.908596769446589, 39.033653396990026 ] } },
{ "type": "Feature", "properties": { "_uid_": 10894, "osm_id": 2337634233, "name": "MOM", "longitude": -76.919953810257596, "latitude": 39.014785011888897, "type": "retail" }, "geometry": { "type": "Point", "coordinates": [ -76.91995381025761, 39.014785011888883 ] } },
{ "type": "Feature", "properties": { "_uid_": 10895, "osm_id": 2482553161, "name": "Petco", "longitude": -76.918100945152602, "latitude": 39.028365765835602, "type": "retail" }, "geometry": { "type": "Point", "coordinates": [ -76.918100945152574, 39.028365765835566 ] } },
{ "type": "Feature", "properties": { "_uid_": 10896, "osm_id": 2482553167, "name": "Rite Aid", "longitude": -76.918342232637897, "latitude": 39.028165763998402, "type": "retail" }, "geometry": { "type": "Point", "coordinates": [ -76.918342232637883, 39.028165763998366 ] } },
{ "type": "Feature", "properties": { "_uid_": 10897, "osm_id": 2482561040, "name": "T-Mobile", "longitude": -76.907726122273203, "latitude": 39.034128869443499, "type": "retail" }, "geometry": { "type": "Point", "coordinates": [ -76.907726122273218, 39.034128869443457 ] } },
{ "type": "Feature", "properties": { "_uid_": 10898, "osm_id": 3181355132, "name": "Atomic Music", "longitude": -76.906677788336694, "latitude": 39.033585013544602, "type": "retail" }, "geometry": { "type": "Point", "coordinates": [ -76.906677788336665, 39.033585013544567 ] } },
{ "type": "Feature", "properties": { "_uid_": 10899, "osm_id": 3200110802, "name": "Beltsville Farmers Market", "longitude": -76.909913250495507, "latitude": 39.021339053560297, "type": "retail" }, "geometry": { "type": "Point", "coordinates": [ -76.909913250495478, 39.021339053560339 ] } },
{ "type": "Feature", "properties": { "_uid_": 10900, "osm_id": 3270465167, "name": "7-Eleven", "longitude": -76.904871905120999, "latitude": 39.0408799679007, "type": "retail" }, "geometry": { "type": "Point", "coordinates": [ -76.904871905120984, 39.0408799679007 ] } },
{ "type": "Feature", "properties": { "_uid_": 10901, "osm_id": 3761031203, "name": "Mighty Healthy Pet", "longitude": -76.9198720635667, "latitude": 39.014433370609801, "type": "retail" }, "geometry": { "type": "Point", "coordinates": [ -76.919872063566743, 39.014433370609787 ] } },
{ "type": "Feature", "properties": { "_uid_": 10902, "osm_id": 3761031213, "name": "Hollwood Haircutters", "longitude": -76.919829393590703, "latitude": 39.014379486559399, "type": "retail" }, "geometry": { "type": "Point", "coordinates": [ -76.919829393590746, 39.014379486559385 ] } },
{ "type": "Feature", "properties": { "_uid_": 10903, "osm_id": 3931497557, "name": "Snacks", "longitude": -76.907377935269096, "latitude": 39.034226001080398, "type": "retail" }, "geometry": { "type": "Point", "coordinates": [ -76.907377935269096, 39.034226001080356 ] } },
{ "type": "Feature", "properties": { "_uid_": 10904, "osm_id": 4801932307, "name": "Sprint", "longitude": -76.911402747068095, "latitude": 39.033417264485898, "type": "retail" }, "geometry": { "type": "Point", "coordinates": [ -76.911402747068067, 39.033417264485855 ] } },
{ "type": "Feature", "properties": { "_uid_": 10905, "osm_id": 5064224121, "name": "Ciesbd Thrift Store", "longitude": -76.921273525241503, "latitude": 39.017195012809999, "type": "retail" }, "geometry": { "type": "Point", "coordinates": [ -76.921273525241503, 39.017195012810049 ] } },
{ "type": "Feature", "properties": { "_uid_": 12130, "osm_id": 2480216595, "name": "Joint Global Change Research Institute", "longitude": -76.921936751415799, "latitude": 38.970619280650403, "type": "education" }, "geometry": { "type": "Point", "coordinates": [ -76.921936751415771, 38.970619280650403 ] } },
{ "type": "Feature", "properties": { "_uid_": 12132, "osm_id": 358245653, "name": "Saint Ambroses School", "longitude": -76.906917728349001, "latitude": 38.928444654408104, "type": "education" }, "geometry": { "type": "Point", "coordinates": [ -76.906917728349043, 38.928444654408096 ] } },
{ "type": "Feature", "properties": { "_uid_": 12133, "osm_id": 358254864, "name": "First Adventure Early Learning Center School", "longitude": -76.910829891411396, "latitude": 38.934320013554597, "type": "education" }, "geometry": { "type": "Point", "coordinates": [ -76.910829891411382, 38.93432001355459 ] } },
{ "type": "Feature", "properties": { "_uid_": 12134, "osm_id": 358245251, "name": "Gladys Noon Spellman School", "longitude": -76.907263849228002, "latitude": 38.930511756257097, "type": "education" }, "geometry": { "type": "Point", "coordinates": [ -76.907263849228016, 38.930511756257054 ] } },
{ "type": "Feature", "properties": { "_uid_": 12135, "osm_id": 358253950, "name": "Gladys Noon Spellman Elementary School", "longitude": -76.906729531297003, "latitude": 38.930896378702997, "type": "education" }, "geometry": { "type": "Point", "coordinates": [ -76.906729531297032, 38.930896378703039 ] } },