{
"type": "FeatureCollection",
"name": "Amenities-756-St-Broadway",
"crs": { "type": "name", "properties": { "name": "urn:ogc:def:crs:OGC:1.3:CRS84" } },
"features": [
{ "type": "Feature", "properties": { "_uid_": 3281, "osm_id": 358851955, "name": "Dena Elementary School", "longitude": -118.213127963707, "latitude": 34.0214019702846, "type": "education" }, "geometry": { "type": "Point", "coordinates": [ -118.213127963707436, 34.021401970284636 ] } },
{ "type": "Feature", "properties": { "_uid_": 3282, "osm_id": 358789093, "name": "Metropolitan Continuation High School", "longitude": -118.234239810189, "latitude": 34.034179412395197, "type": "education" }, "geometry": { "type": "Point", "coordinates": [ -118.234239810188697, 34.03417941239524 ] } },
{ "type": "Feature", "properties": { "_uid_": 3283, "osm_id": 358788745, "name": "Maryknoll School", "longitude": -118.23539396566601, "latitude": 34.046983214677702, "type": "education" }, "geometry": { "type": "Point", "coordinates": [ -118.235393965665708, 34.046983214677716 ] } },
{ "type": "Feature", "properties": { "_uid_": 3284, "osm_id": 1435012195, "name": "DISKovery Center", "longitude": -118.239524509174, "latitude": 34.049585260360303, "type": "education" }, "geometry": { "type": "Point", "coordinates": [ -118.239524509173648, 34.049585260360267 ] } },
{ "type": "Feature", "properties": { "_uid_": 3285, "osm_id": 358858290, "name": "Southern California Institute of Architecture", "longitude": -118.232806637984, "latitude": 34.0431786611923, "type": "education" }, "geometry": { "type": "Point", "coordinates": [ -118.23280663798441, 34.04317866119225 ] } },
{ "type": "Feature", "properties": { "_uid_": 3286, "osm_id": 358786379, "name": "International Institute", "longitude": -118.219794990252, "latitude": 34.042234362933399, "type": "education" }, "geometry": { "type": "Point", "coordinates": [ -118.219794990251572, 34.042234362933378 ] } },
{ "type": "Feature", "properties": { "_uid_": 3287, "osm_id": 358783104, "name": "Dolores Mission School", "longitude": -118.220350598255, "latitude": 34.044734281438203, "type": "education" }, "geometry": { "type": "Point", "coordinates": [ -118.220350598254811, 34.044734281438231 ] } },
{ "type": "Feature", "properties": { "_uid_": 3288, "osm_id": 358791847, "name": "Saint Marys School", "longitude": -118.21535039571999, "latitude": 34.0416789147298, "type": "education" }, "geometry": { "type": "Point", "coordinates": [ -118.215350395720321, 34.041678914729758 ] } },
{ "type": "Feature", "properties": { "_uid_": 3289, "osm_id": 358860985, "name": "Saint Mary Elementary School", "longitude": -118.215280327128, "latitude": 34.041776501778898, "type": "education" }, "geometry": { "type": "Point", "coordinates": [ -118.215280327128184, 34.041776501778884 ] } },
{ "type": "Feature", "properties": { "_uid_": 3290, "osm_id": 358781078, "name": "Breed Street Elementary School", "longitude": -118.21312814337, "latitude": 34.042234362933399, "type": "education" }, "geometry": { "type": "Point", "coordinates": [ -118.213128143370483, 34.042234362933378 ] } },
{ "type": "Feature", "properties": { "_uid_": 3291, "osm_id": 358795864, "name": "Second Street Elementary School", "longitude": -118.21736064566301, "latitude": 34.044924982334699, "type": "education" }, "geometry": { "type": "Point", "coordinates": [ -118.217360645663149, 34.044924982334656 ] } },
{ "type": "Feature", "properties": { "_uid_": 3292, "osm_id": 358794631, "name": "White Memorial School", "longitude": -118.21868404374, "latitude": 34.051122900152002, "type": "education" }, "geometry": { "type": "Point", "coordinates": [ -118.218684043739714, 34.051122900152023 ] } },
{ "type": "Feature", "properties": { "_uid_": 3293, "osm_id": 358790191, "name": "Our Lady Queen of Angels High School (former)", "longitude": -118.240351408393, "latitude": 34.061955924139497, "type": "education" }, "geometry": { "type": "Point", "coordinates": [ -118.240351408392669, 34.061955924139546 ] } },
{ "type": "Feature", "properties": { "_uid_": 3294, "osm_id": 358781672, "name": "Castelar Elementary School", "longitude": -118.239989477165, "latitude": 34.064243023156202, "type": "education" }, "geometry": { "type": "Point", "coordinates": [ -118.239989477164713, 34.064243023156223 ] } },
{ "type": "Feature", "properties": { "_uid_": 3295, "osm_id": 358790189, "name": "Our Lady Help of Christians School", "longitude": -118.21725922586801, "latitude": 34.067303678715398, "type": "education" }, "geometry": { "type": "Point", "coordinates": [ -118.217259225867551, 34.067303678715355 ] } },
{ "type": "Feature", "properties": { "_uid_": 3297, "osm_id": 358779504, "name": "Albion Elementary School", "longitude": -118.220350777918, "latitude": 34.069455425511798, "type": "education" }, "geometry": { "type": "Point", "coordinates": [ -118.220350777917858, 34.069455425511784 ] } },
{ "type": "Feature", "properties": { "_uid_": 3298, "osm_id": 358791466, "name": "Sacred Heart High School", "longitude": -118.21340608211899, "latitude": 34.070010914971199, "type": "education" }, "geometry": { "type": "Point", "coordinates": [ -118.213406082119391, 34.070010914971157 ] } },
{ "type": "Feature", "properties": { "_uid_": 3301, "osm_id": 358791086, "name": "Resurrection School", "longitude": -118.204794382648, "latitude": 34.022512979675902, "type": "education" }, "geometry": { "type": "Point", "coordinates": [ -118.204794382648188, 34.022512979675867 ] } },
{ "type": "Feature", "properties": { "_uid_": 3302, "osm_id": 358793393, "name": "Roosevelt Senior High School", "longitude": -118.210350193186, "latitude": 34.038067891654499, "type": "education" }, "geometry": { "type": "Point", "coordinates": [ -118.210350193185889, 34.038067891654471 ] } },
{ "type": "Feature", "properties": { "_uid_": 3303, "osm_id": 358793255, "name": "Talpa School", "longitude": -118.204516713394, "latitude": 34.0369567137137, "type": "education" }, "geometry": { "type": "Point", "coordinates": [ -118.204516713393858, 34.036956713713693 ] } },
{ "type": "Feature", "properties": { "_uid_": 3304, "osm_id": 358851077, "name": "Rafu Chuo Gakuen School", "longitude": -118.20312782813301, "latitude": 34.043900909022902, "type": "education" }, "geometry": { "type": "Point", "coordinates": [ -118.203127828133077, 34.043900909022895 ] } },
{ "type": "Feature", "properties": { "_uid_": 3306, "osm_id": 358795868, "name": "Sheridan Street Elementary School", "longitude": -118.20775990106399, "latitude": 34.050179955662799, "type": "education" }, "geometry": { "type": "Point", "coordinates": [ -118.207759901064108, 34.050179955662848 ] } },
{ "type": "Feature", "properties": { "_uid_": 3307, "osm_id": 358851154, "name": "East Los Angeles Occupational Center", "longitude": -118.205905778318, "latitude": 34.055567079836798, "type": "education" }, "geometry": { "type": "Point", "coordinates": [ -118.2059057783177, 34.055567079836813 ] } },
{ "type": "Feature", "properties": { "_uid_": 3308, "osm_id": 358828689, "name": "Francisco Bravo Medical Magnet School", "longitude": -118.20340567705, "latitude": 34.058344722671599, "type": "education" }, "geometry": { "type": "Point", "coordinates": [ -118.203405677050455, 34.058344722671585 ] } },
{ "type": "Feature", "properties": { "_uid_": 3309, "osm_id": 358858385, "name": "Los Angeles County College of Nursing and Allied Health", "longitude": -118.211744468338, "latitude": 34.063186513574102, "type": "education" }, "geometry": { "type": "Point", "coordinates": [ -118.211744468338352, 34.063186513574138 ] } },
{ "type": "Feature", "properties": { "_uid_": 3310, "osm_id": 358781406, "name": "California College of Medicine", "longitude": -118.21173925811, "latitude": 34.063344503412402, "type": "education" }, "geometry": { "type": "Point", "coordinates": [ -118.211739258109702, 34.063344503412402 ] } },
{ "type": "Feature", "properties": { "_uid_": 3311, "osm_id": 358785146, "name": "Griffin Avenue Elementary School", "longitude": -118.21201719685899, "latitude": 34.068066574308197, "type": "education" }, "geometry": { "type": "Point", "coordinates": [ -118.212017196858611, 34.068066574308155 ] } },
{ "type": "Feature", "properties": { "_uid_": 3312, "osm_id": 358784652, "name": "Gates Elementary School", "longitude": -118.205628109063, "latitude": 34.072788605274603, "type": "education" }, "geometry": { "type": "Point", "coordinates": [ -118.205628109063369, 34.07278860527456 ] } },
{ "type": "Feature", "properties": { "_uid_": 3332, "osm_id": 3732406243, "name": "Fred Jordan Mission", "longitude": -118.24200502716801, "latitude": 34.043359093464097, "type": "healthcare" }, "geometry": { "type": "Point", "coordinates": [ -118.242005027167679, 34.04335909346414 ] } },
{ "type": "Feature", "properties": { "_uid_": 3333, "osm_id": 1441727507, "name": "T. Yamashita, M.D., Diplomate of Ophthalmogy", "longitude": -118.24007122385601, "latitude": 34.048096270909099, "type": "healthcare" }, "geometry": { "type": "Point", "coordinates": [ -118.240071223855551, 34.04809627090912 ] } },
{ "type": "Feature", "properties": { "_uid_": 3334, "osm_id": 3732403713, "name": "Our Lady Queen of Angels Catholic Church", "longitude": -118.239757172832, "latitude": 34.057156112256898, "type": "healthcare" }, "geometry": { "type": "Point", "coordinates": [ -118.239757172832242, 34.057156112256948 ] } },
{ "type": "Feature", "properties": { "_uid_": 3335, "osm_id": 1436221220, "name": "Temple Medical Center", "longitude": -118.233566433052, "latitude": 34.049112403909398, "type": "healthcare" }, "geometry": { "type": "Point", "coordinates": [ -118.233566433051706, 34.049112403909383 ] } },
{ "type": "Feature", "properties": { "_uid_": 3336, "osm_id": 3697993774, "name": "Catholic Charities- Brownson House Food Pantry", "longitude": -118.22019456088999, "latitude": 34.052105504286402, "type": "healthcare" }, "geometry": { "type": "Point", "coordinates": [ -118.220194560889951, 34.052105504286445 ] } },
{ "type": "Feature", "properties": { "_uid_": 3337, "osm_id": 3697988977, "name": "White Memorial S.D.A. Church Food Pantry", "longitude": -118.215893067983, "latitude": 34.049658871807303, "type": "healthcare" }, "geometry": { "type": "Point", "coordinates": [ -118.215893067983458, 34.049658871807281 ] } },
{ "type": "Feature", "properties": { "_uid_": 3338, "osm_id": 3699274203, "name": "Spanish American S.D.A. Church Food Pantry", "longitude": -118.21520522797, "latitude": 34.051614352499698, "type": "healthcare" }, "geometry": { "type": "Point", "coordinates": [ -118.215205227970429, 34.051614352499662 ] } },
{ "type": "Feature", "properties": { "_uid_": 3340, "osm_id": 3889783157, "name": "Estrada Courts Community Center Food Bank", "longitude": -118.208650401005, "latitude": 34.021492209627901, "type": "healthcare" }, "geometry": { "type": "Point", "coordinates": [ -118.208650401005258, 34.021492209627851 ] } },
{ "type": "Feature", "properties": { "_uid_": 3341, "osm_id": 3697992922, "name": "Our Lady of Talpa Church Food Pantry", "longitude": -118.20487397338201, "latitude": 34.036827781291798, "type": "healthcare" }, "geometry": { "type": "Point", "coordinates": [ -118.204873973382362, 34.036827781291791 ] } },
{ "type": "Feature", "properties": { "_uid_": 3342, "osm_id": 3698750067, "name": "Iglesia Pentecostes Roca de Salvacion Food Pantry", "longitude": -118.20248283775901, "latitude": 34.039737720485199, "type": "healthcare" }, "geometry": { "type": "Point", "coordinates": [ -118.202482837759064, 34.039737720485185 ] } },
{ "type": "Feature", "properties": { "_uid_": 3343, "osm_id": 3694520596, "name": "Sacred Heart Church Food Pantry", "longitude": -118.21269003500601, "latitude": 34.070298889988798, "type": "healthcare" }, "geometry": { "type": "Point", "coordinates": [ -118.212690035006432, 34.070298889988791 ] } },
{ "type": "Feature", "properties": { "_uid_": 3344, "osm_id": 3694518547, "name": "Church of the Epiphany Food Pantry", "longitude": -118.212784088617, "latitude": 34.075287771567503, "type": "healthcare" }, "geometry": { "type": "Point", "coordinates": [ -118.212784088616658, 34.075287771567538 ] } },
{ "type": "Feature", "properties": { "_uid_": 3345, "osm_id": 2247893775, "name": "Blue Whale Bar", "longitude": -118.24207922801, "latitude": 34.049892805435498, "type": "nighlife" }, "geometry": { "type": "Point", "coordinates": [ -118.242079228010155, 34.04989280543554 ] } },
{ "type": "Feature", "properties": { "_uid_": 3346, "osm_id": 3449722142, "name": "Wolf and Crane", "longitude": -118.239785379932, "latitude": 34.047898506134104, "type": "nighlife" }, "geometry": { "type": "Point", "coordinates": [ -118.23978537993213, 34.047898506134139 ] } },
{ "type": "Feature", "properties": { "_uid_": 3347, "osm_id": 1441710308, "name": "Ebisu Japanese Tavern", "longitude": -118.240231213808, "latitude": 34.048198911910902, "type": "nighlife" }, "geometry": { "type": "Point", "coordinates": [ -118.240231213807647, 34.048198911910852 ] } },
{ "type": "Feature", "properties": { "_uid_": 3348, "osm_id": 1439673340, "name": "Villians Tavern", "longitude": -118.230911641893, "latitude": 34.040199612322397, "type": "nighlife" }, "geometry": { "type": "Point", "coordinates": [ -118.230911641892561, 34.040199612322397 ] } },
{ "type": "Feature", "properties": { "_uid_": 3350, "osm_id": 4116310582, "name": "Farmer Boys Restaurant", "longitude": -118.238329570183, "latitude": 34.032069501884997, "type": "restaurant" }, "geometry": { "type": "Point", "coordinates": [ -118.2383295701827, 34.032069501884997 ] } },
{ "type": "Feature", "properties": { "_uid_": 3351, "osm_id": 4026590720, "name": "Pour Haus", "longitude": -118.233755528419, "latitude": 34.0356094644481, "type": "restaurant" }, "geometry": { "type": "Point", "coordinates": [ -118.233755528419024, 34.0356094644481 ] } },
{ "type": "Feature", "properties": { "_uid_": 3352, "osm_id": 4116170713, "name": "Yxta Cocina Mexicana", "longitude": -118.24053771898301, "latitude": 34.0391330515112, "type": "restaurant" }, "geometry": { "type": "Point", "coordinates": [ -118.240537718982594, 34.039133051511193 ] } },
{ "type": "Feature", "properties": { "_uid_": 3353, "osm_id": 5029780922, "name": "The Factory Kitchen", "longitude": -118.235950022827, "latitude": 34.039037099088901, "type": "restaurant" }, "geometry": { "type": "Point", "coordinates": [ -118.2359500228266, 34.039037099088866 ] } },
{ "type": "Feature", "properties": { "_uid_": 3354, "osm_id": 3449763201, "name": "The Escondite", "longitude": -118.24220490231799, "latitude": 34.046106395348097, "type": "restaurant" }, "geometry": { "type": "Point", "coordinates": [ -118.242204902318392, 34.046106395348083 ] } },
{ "type": "Feature", "properties": { "_uid_": 3355, "osm_id": 4039425354, "name": "The Chairman", "longitude": -118.236081626016, "latitude": 34.0415799876981, "type": "restaurant" }, "geometry": { "type": "Point", "coordinates": [ -118.236081626015732, 34.041579987698078 ] } },
{ "type": "Feature", "properties": { "_uid_": 3356, "osm_id": 3449763080, "name": "Urth Cafe", "longitude": -118.23528212541299, "latitude": 34.041933712715696, "type": "restaurant" }, "geometry": { "type": "Point", "coordinates": [ -118.235282125412851, 34.041933712715689 ] } },
{ "type": "Feature", "properties": { "_uid_": 3357, "osm_id": 1214166696, "name": "Wurstküche", "longitude": -118.236007964162, "latitude": 34.045537797729601, "type": "restaurant" }, "geometry": { "type": "Point", "coordinates": [ -118.236007964162411, 34.045537797729637 ] } },
{ "type": "Feature", "properties": { "_uid_": 3358, "osm_id": 4946398337, "name": "Kagura Downtown", "longitude": -118.240599523074, "latitude": 34.048922010153298, "type": "restaurant" }, "geometry": { "type": "Point", "coordinates": [ -118.240599523074152, 34.048922010153319 ] } },
{ "type": "Feature", "properties": { "_uid_": 3359, "osm_id": 4946398335, "name": "Hibachi BBQ", "longitude": -118.240480226804, "latitude": 34.0490998251326, "type": "restaurant" }, "geometry": { "type": "Point", "coordinates": [ -118.240480226804422, 34.049099825132593 ] } },
{ "type": "Feature", "properties": { "_uid_": 3360, "osm_id": 5106524283, "name": "Seoul Sausage", "longitude": -118.243732667122, "latitude": 34.049443024107198, "type": "restaurant" }, "geometry": { "type": "Point", "coordinates": [ -118.243732667122075, 34.049443024107191 ] } },
{ "type": "Feature", "properties": { "_uid_": 3361, "osm_id": 5106524282, "name": "Redbird LA", "longitude": -118.244045640167, "latitude": 34.050568254462398, "type": "restaurant" }, "geometry": { "type": "Point", "coordinates": [ -118.244045640167073, 34.050568254462362 ] } },
{ "type": "Feature", "properties": { "_uid_": 3362, "osm_id": 1434981440, "name": "Izakaya Fu-ga", "longitude": -118.241391118503, "latitude": 34.050066301451203, "type": "restaurant" }, "geometry": { "type": "Point", "coordinates": [ -118.241391118502506, 34.050066301451217 ] } },
{ "type": "Feature", "properties": { "_uid_": 3363, "osm_id": 1435041916, "name": "San Sui Tei 山水亭", "longitude": -118.240431717779, "latitude": 34.050218063655201, "type": "restaurant" }, "geometry": { "type": "Point", "coordinates": [ -118.240431717779074, 34.050218063655166 ] } },
{ "type": "Feature", "properties": { "_uid_": 3364, "osm_id": 2964681656, "name": "Justice Urban Tavern", "longitude": -118.242334978372, "latitude": 34.0509393583811, "type": "restaurant" }, "geometry": { "type": "Point", "coordinates": [ -118.242334978371531, 34.050939358381058 ] } },
{ "type": "Feature", "properties": { "_uid_": 3365, "osm_id": 4414028220, "name": "Bento Man", "longitude": -118.241721429032, "latitude": 34.050784397014503, "type": "restaurant" }, "geometry": { "type": "Point", "coordinates": [ -118.241721429032481, 34.050784397014461 ] } },
{ "type": "Feature", "properties": { "_uid_": 3366, "osm_id": 3454386527, "name": "Shin Sen Gumi Ramen", "longitude": -118.239061427645, "latitude": 34.048275501816001, "type": "restaurant" }, "geometry": { "type": "Point", "coordinates": [ -118.239061427644657, 34.048275501815979 ] } },
{ "type": "Feature", "properties": { "_uid_": 3367, "osm_id": 4946398336, "name": "Shabu-Shabu House", "longitude": -118.24034197608199, "latitude": 34.049003065248698, "type": "restaurant" }, "geometry": { "type": "Point", "coordinates": [ -118.240341976082178, 34.049003065248719 ] } },
{ "type": "Feature", "properties": { "_uid_": 3368, "osm_id": 1434999959, "name": "Mr. Ramen", "longitude": -118.239693033121, "latitude": 34.049712387065902, "type": "restaurant" }, "geometry": { "type": "Point", "coordinates": [ -118.239693033120929, 34.04971238706586 ] } },
{ "type": "Feature", "properties": { "_uid_": 3369, "osm_id": 470890156, "name": "Daikokuya", "longitude": -118.240082991786, "latitude": 34.049971403417103, "type": "restaurant" }, "geometry": { "type": "Point", "coordinates": [ -118.240082991785769, 34.049971403417132 ] } },
{ "type": "Feature", "properties": { "_uid_": 3370, "osm_id": 1435041904, "name": "Korean BBQ House", "longitude": -118.240183333603, "latitude": 34.0500532762372, "type": "restaurant" }, "geometry": { "type": "Point", "coordinates": [ -118.240183333603028, 34.050053276237151 ] } },
{ "type": "Feature", "properties": { "_uid_": 3371, "osm_id": 1435041912, "name": "Suehiro Cafe", "longitude": -118.239825624457, "latitude": 34.049810411450501, "type": "restaurant" }, "geometry": { "type": "Point", "coordinates": [ -118.23982562445687, 34.04981041145048 ] } },
{ "type": "Feature", "properties": { "_uid_": 3372, "osm_id": 470889787, "name": "Restaurant Aoi", "longitude": -118.239970343049, "latitude": 34.0499024813274, "type": "restaurant" }, "geometry": { "type": "Point", "coordinates": [ -118.239970343049137, 34.049902481327358 ] } },
{ "type": "Feature", "properties": { "_uid_": 3373, "osm_id": 1435012193, "name": "Rakkan Ramen", "longitude": -118.239427940281, "latitude": 34.0495075551841, "type": "restaurant" }, "geometry": { "type": "Point", "coordinates": [ -118.239427940280578, 34.049507555184071 ] } },
{ "type": "Feature", "properties": { "_uid_": 3374, "osm_id": 1435012202, "name": "Chop Suey Cafe & Lounge", "longitude": -118.239584786129, "latitude": 34.049622624318097, "type": "restaurant" }, "geometry": { "type": "Point", "coordinates": [ -118.239584786129186, 34.049622624318111 ] } },
{ "type": "Feature", "properties": { "_uid_": 3375, "osm_id": 2894755461, "name": null, "longitude": -118.238594303697, "latitude": 34.0570605523463, "type": "restaurant" }, "geometry": { "type": "Point", "coordinates": [ -118.238594303696928, 34.057060552346258 ] } },
{ "type": "Feature", "properties": { "_uid_": 3376, "osm_id": 4946281522, "name": "El Paseo", "longitude": -118.237865141181, "latitude": 34.057460206396001, "type": "restaurant" }, "geometry": { "type": "Point", "coordinates": [ -118.237865141180805, 34.057460206396023 ] } },
{ "type": "Feature", "properties": { "_uid_": 3377, "osm_id": 3449763079, "name": "Zinc", "longitude": -118.23270261307501, "latitude": 34.039334558688701, "type": "restaurant" }, "geometry": { "type": "Point", "coordinates": [ -118.232702613074508, 34.03933455868868 ] } },
{ "type": "Feature", "properties": { "_uid_": 3378, "osm_id": 4984051894, "name": "Urth Cafe", "longitude": -118.23410389508599, "latitude": 34.041415183492902, "type": "restaurant" }, "geometry": { "type": "Point", "coordinates": [ -118.234103895086221, 34.041415183492887 ] } },
{ "type": "Feature", "properties": { "_uid_": 3379, "osm_id": 566336317, "name": "Purgatory Pizza", "longitude": -118.225738423834, "latitude": 34.047452510262801, "type": "restaurant" }, "geometry": { "type": "Point", "coordinates": [ -118.225738423834372, 34.047452510262794 ] } },
{ "type": "Feature", "properties": { "_uid_": 3380, "osm_id": 4946281721, "name": "La Colondrina Cafe", "longitude": -118.237909607787, "latitude": 34.057624681723901, "type": "restaurant" }, "geometry": { "type": "Point", "coordinates": [ -118.237909607787387, 34.057624681723922 ] } },
{ "type": "Feature", "properties": { "_uid_": 3381, "osm_id": 4908362224, "name": "The Little Jewel of New Orleans", "longitude": -118.238194104238, "latitude": 34.060086117347602, "type": "restaurant" }, "geometry": { "type": "Point", "coordinates": [ -118.238194104237849, 34.060086117347623 ] } },
{ "type": "Feature", "properties": { "_uid_": 3382, "osm_id": 4946281621, "name": "El Rancho Grande", "longitude": -118.237576422649, "latitude": 34.057772262707999, "type": "restaurant" }, "geometry": { "type": "Point", "coordinates": [ -118.237576422648502, 34.057772262707992 ] } },
{ "type": "Feature", "properties": { "_uid_": 3383, "osm_id": 3211936878, "name": "Cielito Lindo", "longitude": -118.237396490097, "latitude": 34.057957278142503, "type": "restaurant" }, "geometry": { "type": "Point", "coordinates": [ -118.237396490097069, 34.057957278142496 ] } },
{ "type": "Feature", "properties": { "_uid_": 3384, "osm_id": 4946245021, "name": "Las Anitas", "longitude": -118.237538693407, "latitude": 34.058042194584402, "type": "restaurant" }, "geometry": { "type": "Point", "coordinates": [ -118.237538693406549, 34.058042194584417 ] } },
{ "type": "Feature", "properties": { "_uid_": 3385, "osm_id": 470872073, "name": "Philippe The Original", "longitude": -118.236941223911, "latitude": 34.0596738240504, "type": "restaurant" }, "geometry": { "type": "Point", "coordinates": [ -118.236941223911089, 34.059673824050378 ] } },
{ "type": "Feature", "properties": { "_uid_": 3386, "osm_id": 4121132662, "name": "Ocean Seafood", "longitude": -118.23978052903, "latitude": 34.061767270877702, "type": "restaurant" }, "geometry": { "type": "Point", "coordinates": [ -118.239780529029616, 34.061767270877667 ] } },
{ "type": "Feature", "properties": { "_uid_": 3387, "osm_id": 4121132655, "name": "Hong Kong BBQ", "longitude": -118.23833738552599, "latitude": 34.062668114325199, "type": "restaurant" }, "geometry": { "type": "Point", "coordinates": [ -118.238337385525682, 34.062668114325177 ] } },
{ "type": "Feature", "properties": { "_uid_": 3388, "osm_id": 4121132666, "name": "Yang Chow Restaurant", "longitude": -118.23829193077199, "latitude": 34.062848281865598, "type": "restaurant" }, "geometry": { "type": "Point", "coordinates": [ -118.238291930772291, 34.062848281865563 ] } },
{ "type": "Feature", "properties": { "_uid_": 3389, "osm_id": 4121132656, "name": "Hop Woo BBQ & SeeaFood REstaurant", "longitude": -118.237911494249, "latitude": 34.063567311002103, "type": "restaurant" }, "geometry": { "type": "Point", "coordinates": [ -118.237911494249474, 34.063567311002146 ] } },
{ "type": "Feature", "properties": { "_uid_": 3390, "osm_id": 5111888223, "name": "Pacific Restaurant", "longitude": -118.237716919159, "latitude": 34.063839903458899, "type": "restaurant" }, "geometry": { "type": "Point", "coordinates": [ -118.237716919158927, 34.063839903458934 ] } },
{ "type": "Feature", "properties": { "_uid_": 3391, "osm_id": 4358370089, "name": null, "longitude": -118.23737546951899, "latitude": 34.065277269055599, "type": "restaurant" }, "geometry": { "type": "Point", "coordinates": [ -118.237375469519435, 34.065277269055585 ] } },
{ "type": "Feature", "properties": { "_uid_": 3392, "osm_id": 683080610, "name": "Golden Dragon Restaurant", "longitude": -118.236427297737, "latitude": 34.0655825247145, "type": "restaurant" }, "geometry": { "type": "Point", "coordinates": [ -118.236427297737066, 34.065582524714465 ] } },
{ "type": "Feature", "properties": { "_uid_": 3393, "osm_id": 4294018639, "name": "Foo Chow", "longitude": -118.23820039244499, "latitude": 34.065884579390101, "type": "restaurant" }, "geometry": { "type": "Point", "coordinates": [ -118.238200392444838, 34.065884579390065 ] } },
{ "type": "Feature", "properties": { "_uid_": 3394, "osm_id": 683080613, "name": "Empress Pavilion", "longitude": -118.23726677337, "latitude": 34.0666823884957, "type": "restaurant" }, "geometry": { "type": "Point", "coordinates": [ -118.237266773370067, 34.066682388495728 ] } },
{ "type": "Feature", "properties": { "_uid_": 3395, "osm_id": 4096361913, "name": "Nick's Cafe", "longitude": -118.233149165602, "latitude": 34.066043457187199, "type": "restaurant" }, "geometry": { "type": "Point", "coordinates": [ -118.233149165602256, 34.066043457187163 ] } },
{ "type": "Feature", "properties": { "_uid_": 3396, "osm_id": 464745080, "name": null, "longitude": -118.219250970516, "latitude": 34.066211711054002, "type": "restaurant" }, "geometry": { "type": "Point", "coordinates": [ -118.219250970515503, 34.066211711054031 ] } },
{ "type": "Feature", "properties": { "_uid_": 3397, "osm_id": 1994547208, "name": "La Parilla", "longitude": -118.21072020925099, "latitude": 34.0479177839402, "type": "restaurant" }, "geometry": { "type": "Point", "coordinates": [ -118.210720209251392, 34.047917783940171 ] } },
{ "type": "Feature", "properties": { "_uid_": 3402, "osm_id": 1441936543, "name": "Bull's Truck Wash", "longitude": -118.237812230411, "latitude": 34.0411128183054, "type": "retail" }, "geometry": { "type": "Point", "coordinates": [ -118.237812230410569, 34.041112818305365 ] } },
{ "type": "Feature", "properties": { "_uid_": 3403, "osm_id": 1438109170, "name": "Pearce's Garage", "longitude": -118.236022696533, "latitude": 34.043794317748102, "type": "retail" }, "geometry": { "type": "Point", "coordinates": [ -118.23602269653307, 34.043794317748095 ] } },
{ "type": "Feature", "properties": { "_uid_": 3404, "osm_id": 1435041908, "name": "Anzen Hardware", "longitude": -118.240520291666, "latitude": 34.050282594142203, "type": "retail" }, "geometry": { "type": "Point", "coordinates": [ -118.240520291666073, 34.050282594142168 ] } },
{ "type": "Feature", "properties": { "_uid_": 3405, "osm_id": 1437226055, "name": "Little Tokyo Car Wash", "longitude": -118.236239819337, "latitude": 34.048501996145198, "type": "retail" }, "geometry": { "type": "Point", "coordinates": [ -118.236239819337257, 34.048501996145156 ] } },
{ "type": "Feature", "properties": { "_uid_": 3406, "osm_id": 4121132648, "name": "DT Auto Repair Center", "longitude": -118.238050104298, "latitude": 34.064036217112097, "type": "retail" }, "geometry": { "type": "Point", "coordinates": [ -118.238050104297812, 34.064036217112076 ] } },
{ "type": "Feature", "properties": { "_uid_": 3407, "osm_id": 2323432629, "name": "Kinokuniya", "longitude": -118.24228440322101, "latitude": 34.050375184512902, "type": "retail" }, "geometry": { "type": "Point", "coordinates": [ -118.242284403221049, 34.050375184512923 ] } },
{ "type": "Feature", "properties": { "_uid_": 3408, "osm_id": 4116738116, "name": "Price Check", "longitude": -118.244119032526, "latitude": 34.046386710561201, "type": "retail" }, "geometry": { "type": "Point", "coordinates": [ -118.244119032525774, 34.046386710561151 ] } },
{ "type": "Feature", "properties": { "_uid_": 3409, "osm_id": 2406441198, "name": "West Plaza", "longitude": -118.238328492204, "latitude": 34.065645257518398, "type": "retail" }, "geometry": { "type": "Point", "coordinates": [ -118.238328492204346, 34.065645257518398 ] } },
{ "type": "Feature", "properties": { "_uid_": 3410, "osm_id": 3449712294, "name": "Opodz Coworking Space", "longitude": -118.23984556705599, "latitude": 34.047935052086999, "type": "retail" }, "geometry": { "type": "Point", "coordinates": [ -118.239845567056179, 34.047935052087034 ] } },
{ "type": "Feature", "properties": { "_uid_": 3411, "osm_id": 2406529085, "name": "Los Angeles Mall", "longitude": -118.240852398827, "latitude": 34.0542041245928, "type": "retail" }, "geometry": { "type": "Point", "coordinates": [ -118.240852398826632, 34.054204124592815 ] } },
{ "type": "Feature", "properties": { "_uid_": 3412, "osm_id": 358826377, "name": "Los Angeles Main Post Office", "longitude": -118.239801190281, "latitude": 34.053861763582297, "type": "retail" }, "geometry": { "type": "Point", "coordinates": [ -118.239801190281156, 34.053861763582326 ] } },
{ "type": "Feature", "properties": { "_uid_": 3413, "osm_id": 4945761867, "name": "Gateway to Nature", "longitude": -118.239048761399, "latitude": 34.056105468285502, "type": "retail" }, "geometry": { "type": "Point", "coordinates": [ -118.239048761399175, 34.056105468285466 ] } },
{ "type": "Feature", "properties": { "_uid_": 3414, "osm_id": 607954824, "name": null, "longitude": -118.225328073413, "latitude": 34.042291455835198, "type": "retail" }, "geometry": { "type": "Point", "coordinates": [ -118.225328073412598, 34.04229145583524 ] } },
{ "type": "Feature", "properties": { "_uid_": 3415, "osm_id": 358826140, "name": "Boyle Heights Station Los Angeles Post Office", "longitude": -118.21451711846299, "latitude": 34.045012070423397, "type": "retail" }, "geometry": { "type": "Point", "coordinates": [ -118.21451711846278, 34.045012070423404 ] } },
{ "type": "Feature", "properties": { "_uid_": 3416, "osm_id": 1437216517, "name": null, "longitude": -118.23392045910499, "latitude": 34.048714794570898, "type": "retail" }, "geometry": { "type": "Point", "coordinates": [ -118.233920459105178, 34.048714794570934 ] } },
{ "type": "Feature", "properties": { "_uid_": 3417, "osm_id": 4409181637, "name": null, "longitude": -118.233329996469, "latitude": 34.055878696570304, "type": "retail" }, "geometry": { "type": "Point", "coordinates": [ -118.233329996468939, 34.055878696570275 ] } },
{ "type": "Feature", "properties": { "_uid_": 3418, "osm_id": 4409181639, "name": null, "longitude": -118.233325325229, "latitude": 34.055898121411097, "type": "retail" }, "geometry": { "type": "Point", "coordinates": [ -118.233325325229472, 34.055898121411118 ] } },
{ "type": "Feature", "properties": { "_uid_": 3419, "osm_id": 3158050664, "name": null, "longitude": -118.239565113024, "latitude": 34.062801323737197, "type": "retail" }, "geometry": { "type": "Point", "coordinates": [ -118.239565113024483, 34.06280132373724 ] } },
{ "type": "Feature", "properties": { "_uid_": 3420, "osm_id": 3158050665, "name": null, "longitude": -118.2384398833, "latitude": 34.062171293464402, "type": "retail" }, "geometry": { "type": "Point", "coordinates": [ -118.238439883299591, 34.062171293464381 ] } },
{ "type": "Feature", "properties": { "_uid_": 3421, "osm_id": 855626219, "name": "Morgue", "longitude": -118.21355026172201, "latitude": 34.060452491098197, "type": "retail" }, "geometry": { "type": "Point", "coordinates": [ -118.213550261722489, 34.060452491098239 ] } },
{ "type": "Feature", "properties": { "_uid_": 3422, "osm_id": 464745088, "name": null, "longitude": -118.21883900312601, "latitude": 34.06586329644, "type": "retail" }, "geometry": { "type": "Point", "coordinates": [ -118.21883900312622, 34.06586329644005 ] } },
{ "type": "Feature", "properties": { "_uid_": 3423, "osm_id": 464745098, "name": null, "longitude": -118.217594477132, "latitude": 34.064498199835697, "type": "retail" }, "geometry": { "type": "Point", "coordinates": [ -118.217594477131598, 34.064498199835718 ] } },
{ "type": "Feature", "properties": { "_uid_": 3424, "osm_id": 1512406693, "name": null, "longitude": -118.215899715517, "latitude": 34.07374625445, "type": "retail" }, "geometry": { "type": "Point", "coordinates": [ -118.215899715516585, 34.073746254449958 ] } },
{ "type": "Feature", "properties": { "_uid_": 3427, "osm_id": 358826373, "name": "Lincoln Heights Station Los Angeles Post Office", "longitude": -118.21007279342599, "latitude": 34.073899611249303, "type": "retail" }, "geometry": { "type": "Point", "coordinates": [ -118.210072793426136, 34.073899611249303 ] } },
{ "type": "Feature", "properties": { "_uid_": 3433, "osm_id": 1441936580, "name": "Valero", "longitude": -118.23783468829301, "latitude": 34.041245168340403, "type": "retail" }, "geometry": { "type": "Point", "coordinates": [ -118.237834688292679, 34.041245168340389 ] } },
{ "type": "Feature", "properties": { "_uid_": 3434, "osm_id": 4269938709, "name": "Little Tokyo Market Place", "longitude": -118.239220788776, "latitude": 34.044858810214301, "type": "retail" }, "geometry": { "type": "Point", "coordinates": [ -118.23922078877608, 34.044858810214265 ] } },
{ "type": "Feature", "properties": { "_uid_": 3435, "osm_id": 4269938708, "name": "Marukai Market", "longitude": -118.242186936013, "latitude": 34.050398555378301, "type": "retail" }, "geometry": { "type": "Point", "coordinates": [ -118.2421869360127, 34.050398555378301 ] } },
{ "type": "Feature", "properties": { "_uid_": 3436, "osm_id": 4946318822, "name": "Nijiya Market", "longitude": -118.240116319283, "latitude": 34.048778358600103, "type": "retail" }, "geometry": { "type": "Point", "coordinates": [ -118.240116319282805, 34.048778358600117 ] } },
{ "type": "Feature", "properties": { "_uid_": 3437, "osm_id": 3898849569, "name": "Walmart Neighborhood Market (closed)", "longitude": -118.244337862129, "latitude": 34.061275282032398, "type": "retail" }, "geometry": { "type": "Point", "coordinates": [ -118.244337862129015, 34.061275282032433 ] } },
{ "type": "Feature", "properties": { "_uid_": 3438, "osm_id": 5087643724, "name": "Speedy's Parking Space", "longitude": -118.240476813206, "latitude": 34.062006752540299, "type": "retail" }, "geometry": { "type": "Point", "coordinates": [ -118.240476813206328, 34.062006752540263 ] } },
{ "type": "Feature", "properties": { "_uid_": 3439, "osm_id": 4538669989, "name": "Chinatown", "longitude": -118.239310979631, "latitude": 34.064086895430101, "type": "retail" }, "geometry": { "type": "Point", "coordinates": [ -118.239310979630602, 34.064086895430108 ] } },
{ "type": "Feature", "properties": { "_uid_": 3440, "osm_id": 4121132644, "name": "Ai Hoa Supermarket", "longitude": -118.238718361038, "latitude": 34.064048123914901, "type": "retail" }, "geometry": { "type": "Point", "coordinates": [ -118.238718361037655, 34.06404812391493 ] } },
{ "type": "Feature", "properties": { "_uid_": 3442, "osm_id": 4116324537, "name": "Angelina Hosiery", "longitude": -118.239484983301, "latitude": 34.027598703431899, "type": "retail" }, "geometry": { "type": "Point", "coordinates": [ -118.239484983301139, 34.027598703431913 ] } },
{ "type": "Feature", "properties": { "_uid_": 3443, "osm_id": 4116756584, "name": "Bebemio Inc.", "longitude": -118.244384844018, "latitude": 34.046176511454803, "type": "retail" }, "geometry": { "type": "Point", "coordinates": [ -118.244384844018384, 34.046176511454817 ] } },
{ "type": "Feature", "properties": { "_uid_": 3444, "osm_id": 4946311923, "name": "Tokyo Japanese Outlet", "longitude": -118.239938273194, "latitude": 34.048938980372498, "type": "retail" }, "geometry": { "type": "Point", "coordinates": [ -118.239938273193502, 34.048938980372533 ] } },
{ "type": "Feature", "properties": { "_uid_": 3445, "osm_id": 4121132657, "name": "Kim Phuoc Jewelry", "longitude": -118.238392003095, "latitude": 34.062526867468399, "type": "retail" }, "geometry": { "type": "Point", "coordinates": [ -118.23839200309493, 34.062526867468442 ] } },
{ "type": "Feature", "properties": { "_uid_": 3446, "osm_id": 4116337758, "name": "Alfa Games Inc.", "longitude": -118.239423358873, "latitude": 34.025929752423799, "type": "retail" }, "geometry": { "type": "Point", "coordinates": [ -118.239423358872656, 34.025929752423842 ] } },
{ "type": "Feature", "properties": { "_uid_": 3447, "osm_id": 4116769713, "name": "Downtown Baby", "longitude": -118.24398060214099, "latitude": 34.045945470476198, "type": "retail" }, "geometry": { "type": "Point", "coordinates": [ -118.24398060214051, 34.045945470476234 ] } },
{ "type": "Feature", "properties": { "_uid_": 3448, "osm_id": 1435041909, "name": "Video Paradise", "longitude": -118.240240017297, "latitude": 34.050082601573401, "type": "retail" }, "geometry": { "type": "Point", "coordinates": [ -118.240240017297438, 34.050082601573436 ] } },
{ "type": "Feature", "properties": { "_uid_": 3450, "osm_id": 4116148820, "name": "Pacific Fresh Fish Co.", "longitude": -118.24346263354801, "latitude": 34.040868588030399, "type": "retail" }, "geometry": { "type": "Point", "coordinates": [ -118.243462633547693, 34.040868588030357 ] } },
{ "type": "Feature", "properties": { "_uid_": 3451, "osm_id": 4116163686, "name": "R & P Seafood", "longitude": -118.242098182463, "latitude": 34.040071801408203, "type": "retail" }, "geometry": { "type": "Point", "coordinates": [ -118.242098182462641, 34.040071801408203 ] } },
{ "type": "Feature", "properties": { "_uid_": 3452, "osm_id": 4269938707, "name": "Los Angeles Fish Company", "longitude": -118.239984446599, "latitude": 34.043444098964201, "type": "retail" }, "geometry": { "type": "Point", "coordinates": [ -118.239984446599095, 34.043444098964152 ] } },
{ "type": "Feature", "properties": { "_uid_": 3453, "osm_id": 3445765297, "name": "Yamazaki Bakery", "longitude": -118.240175338597, "latitude": 34.048922903322797, "type": "retail" }, "geometry": { "type": "Point", "coordinates": [ -118.24017533859697, 34.048922903322833 ] } },
{ "type": "Feature", "properties": { "_uid_": 3454, "osm_id": 4116332016, "name": "Office Furniture", "longitude": -118.239532144854, "latitude": 34.026423286476401, "type": "retail" }, "geometry": { "type": "Point", "coordinates": [ -118.239532144853555, 34.026423286476351 ] } },
{ "type": "Feature", "properties": { "_uid_": 3455, "osm_id": 358826377, "name": "Los Angeles Main Post Office", "longitude": -118.239801190281, "latitude": 34.053861763582297, "type": "retail" }, "geometry": { "type": "Point", "coordinates": [ -118.239801190281156, 34.053861763582326 ] } },
{ "type": "Feature", "properties": { "_uid_": 3456, "osm_id": 470890489, "name": null, "longitude": -118.242235804364, "latitude": 34.046966020769503, "type": "retail" }, "geometry": { "type": "Point", "coordinates": [ -118.242235804364171, 34.046966020769517 ] } },
{ "type": "Feature", "properties": { "_uid_": 3457, "osm_id": 1435041908, "name": "Anzen Hardware", "longitude": -118.240520291666, "latitude": 34.050282594142203, "type": "retail" }, "geometry": { "type": "Point", "coordinates": [ -118.240520291666073, 34.050282594142168 ] } },
{ "type": "Feature", "properties": { "_uid_": 3458, "osm_id": 1435041909, "name": "Video Paradise", "longitude": -118.240240017297, "latitude": 34.050082601573401, "type": "retail" }, "geometry": { "type": "Point", "coordinates": [ -118.240240017297438, 34.050082601573436 ] } },
{ "type": "Feature", "properties": { "_uid_": 3459, "osm_id": 1438109170, "name": "Pearce's Garage", "longitude": -118.236022696533, "latitude": 34.043794317748102, "type": "retail" }, "geometry": { "type": "Point", "coordinates": [ -118.23602269653307, 34.043794317748095 ] } },
{ "type": "Feature", "properties": { "_uid_": 3460, "osm_id": 1441936580, "name": "Valero", "longitude": -118.23783468829301, "latitude": 34.041245168340403, "type": "retail" }, "geometry": { "type": "Point", "coordinates": [ -118.237834688292679, 34.041245168340389 ] } },
{ "type": "Feature", "properties": { "_uid_": 3462, "osm_id": 2323432629, "name": "Kinokuniya", "longitude": -118.24228440322101, "latitude": 34.050375184512902, "type": "retail" }, "geometry": { "type": "Point", "coordinates": [ -118.242284403221049, 34.050375184512923 ] } },
{ "type": "Feature", "properties": { "_uid_": 3463, "osm_id": 2406441198, "name": "West Plaza", "longitude": -118.238328492204, "latitude": 34.065645257518398, "type": "retail" }, "geometry": { "type": "Point", "coordinates": [ -118.238328492204346, 34.065645257518398 ] } },
{ "type": "Feature", "properties": { "_uid_": 3464, "osm_id": 2406529085, "name": "Los Angeles Mall", "longitude": -118.240852398827, "latitude": 34.0542041245928, "type": "retail" }, "geometry": { "type": "Point", "coordinates": [ -118.240852398826632, 34.054204124592815 ] } },
{ "type": "Feature", "properties": { "_uid_": 3465, "osm_id": 3158050664, "name": null, "longitude": -118.239565113024, "latitude": 34.062801323737197, "type": "retail" }, "geometry": { "type": "Point", "coordinates": [ -118.239565113024483, 34.06280132373724 ] } },
{ "type": "Feature", "properties": { "_uid_": 3466, "osm_id": 3158050665, "name": null, "longitude": -118.2384398833, "latitude": 34.062171293464402, "type": "retail" }, "geometry": { "type": "Point", "coordinates": [ -118.238439883299591, 34.062171293464381 ] } },
{ "type": "Feature", "properties": { "_uid_": 3467, "osm_id": 3445765297, "name": "Yamazaki Bakery", "longitude": -118.240175338597, "latitude": 34.048922903322797, "type": "retail" }, "geometry": { "type": "Point", "coordinates": [ -118.24017533859697, 34.048922903322833 ] } },
{ "type": "Feature", "properties": { "_uid_": 3468, "osm_id": 3449712294, "name": "Opodz Coworking Space", "longitude": -118.23984556705599, "latitude": 34.047935052086999, "type": "retail" }, "geometry": { "type": "Point", "coordinates": [ -118.239845567056179, 34.047935052087034 ] } },
{ "type": "Feature", "properties": { "_uid_": 3469, "osm_id": 3898849569, "name": "Walmart Neighborhood Market (closed)", "longitude": -118.244337862129, "latitude": 34.061275282032398, "type": "retail" }, "geometry": { "type": "Point", "coordinates": [ -118.244337862129015, 34.061275282032433 ] } },
{ "type": "Feature", "properties": { "_uid_": 3471, "osm_id": 4116148820, "name": "Pacific Fresh Fish Co.", "longitude": -118.24346263354801, "latitude": 34.040868588030399, "type": "retail" }, "geometry": { "type": "Point", "coordinates": [ -118.243462633547693, 34.040868588030357 ] } },
{ "type": "Feature", "properties": { "_uid_": 3472, "osm_id": 4116163686, "name": "R & P Seafood", "longitude": -118.242098182463, "latitude": 34.040071801408203, "type": "retail" }, "geometry": { "type": "Point", "coordinates": [ -118.242098182462641, 34.040071801408203 ] } },
{ "type": "Feature", "properties": { "_uid_": 3473, "osm_id": 4116324537, "name": "Angelina Hosiery", "longitude": -118.239484983301, "latitude": 34.027598703431899, "type": "retail" }, "geometry": { "type": "Point", "coordinates": [ -118.239484983301139, 34.027598703431913 ] } },
{ "type": "Feature", "properties": { "_uid_": 3474, "osm_id": 4116332016, "name": "Office Furniture", "longitude": -118.239532144854, "latitude": 34.026423286476401, "type": "retail" }, "geometry": { "type": "Point", "coordinates": [ -118.239532144853555, 34.026423286476351 ] } },
{ "type": "Feature", "properties": { "_uid_": 3475, "osm_id": 4116337758, "name": "Alfa Games Inc.", "longitude": -118.239423358873, "latitude": 34.025929752423799, "type": "retail" }, "geometry": { "type": "Point", "coordinates": [ -118.239423358872656, 34.025929752423842 ] } },
{ "type": "Feature", "properties": { "_uid_": 3476, "osm_id": 4116738116, "name": "Price Check", "longitude": -118.244119032526, "latitude": 34.046386710561201, "type": "retail" }, "geometry": { "type": "Point", "coordinates": [ -118.244119032525774, 34.046386710561151 ] } },
{ "type": "Feature", "properties": { "_uid_": 3477, "osm_id": 4116756584, "name": "Bebemio Inc.", "longitude": -118.244384844018, "latitude": 34.046176511454803, "type": "retail" }, "geometry": { "type": "Point", "coordinates": [ -118.244384844018384, 34.046176511454817 ] } },
{ "type": "Feature", "properties": { "_uid_": 3478, "osm_id": 4116769713, "name": "Downtown Baby", "longitude": -118.24398060214099, "latitude": 34.045945470476198, "type": "retail" }, "geometry": { "type": "Point", "coordinates": [ -118.24398060214051, 34.045945470476234 ] } },
{ "type": "Feature", "properties": { "_uid_": 3479, "osm_id": 4121132644, "name": "Ai Hoa Supermarket", "longitude": -118.238718361038, "latitude": 34.064048123914901, "type": "retail" }, "geometry": { "type": "Point", "coordinates": [ -118.238718361037655, 34.06404812391493 ] } },
{ "type": "Feature", "properties": { "_uid_": 3480, "osm_id": 4121132645, "name": "C.T. Pharmacy", "longitude": -118.240659620367, "latitude": 34.0611041904003, "type": "retail" }, "geometry": { "type": "Point", "coordinates": [ -118.240659620366642, 34.061104190400307 ] } },
{ "type": "Feature", "properties": { "_uid_": 3481, "osm_id": 4121132647, "name": "Columbus Pharmacy", "longitude": -118.237717637811, "latitude": 34.063939623112098, "type": "retail" }, "geometry": { "type": "Point", "coordinates": [ -118.237717637811159, 34.063939623112134 ] } },
{ "type": "Feature", "properties": { "_uid_": 3482, "osm_id": 4121132648, "name": "DT Auto Repair Center", "longitude": -118.238050104298, "latitude": 34.064036217112097, "type": "retail" }, "geometry": { "type": "Point", "coordinates": [ -118.238050104297812, 34.064036217112076 ] } },
{ "type": "Feature", "properties": { "_uid_": 3483, "osm_id": 4121132657, "name": "Kim Phuoc Jewelry", "longitude": -118.238392003095, "latitude": 34.062526867468399, "type": "retail" }, "geometry": { "type": "Point", "coordinates": [ -118.23839200309493, 34.062526867468442 ] } },
{ "type": "Feature", "properties": { "_uid_": 5545, "osm_id": 358850335, "name": "Mary E Bennett School", "longitude": -118.267296734666, "latitude": 34.062789119084698, "type": "education" }, "geometry": { "type": "Point", "coordinates": [ -118.267296734665933, 34.062789119084748 ] } },
{ "type": "Feature", "properties": { "_uid_": 5546, "osm_id": 358780581, "name": "Belmont Senior High School", "longitude": -118.26373698069, "latitude": 34.061677669733598, "type": "education" }, "geometry": { "type": "Point", "coordinates": [ -118.263736980689572, 34.061677669733591 ] } },
{ "type": "Feature", "properties": { "_uid_": 5547, "osm_id": 358780625, "name": "Sal Castro Middle School", "longitude": -118.26257438104901, "latitude": 34.062789193503399, "type": "education" }, "geometry": { "type": "Point", "coordinates": [ -118.262574381048864, 34.062789193503363 ] } },
{ "type": "Feature", "properties": { "_uid_": 5548, "osm_id": 358852021, "name": "Belmont Community Adult School", "longitude": -118.261880073166, "latitude": 34.061349925206997, "type": "education" }, "geometry": { "type": "Point", "coordinates": [ -118.261880073165756, 34.061349925206962 ] } },
{ "type": "Feature", "properties": { "_uid_": 5549, "osm_id": 2422063060, "name": "Newmark Continuation High School", "longitude": -118.26087710415101, "latitude": 34.061298873152502, "type": "education" }, "geometry": { "type": "Point", "coordinates": [ -118.260877104151035, 34.061298873152531 ] } },
{ "type": "Feature", "properties": { "_uid_": 5550, "osm_id": 358793750, "name": "Union Elementary School", "longitude": -118.26674112666301, "latitude": 34.063622380256, "type": "education" }, "geometry": { "type": "Point", "coordinates": [ -118.266741126662723, 34.063622380256021 ] } },
{ "type": "Feature", "properties": { "_uid_": 5551, "osm_id": 358790165, "name": "Our Lady of Loretto School (former)", "longitude": -118.263685507224, "latitude": 34.066955566251302, "type": "education" }, "geometry": { "type": "Point", "coordinates": [ -118.263685507223784, 34.066955566251323 ] } },
{ "type": "Feature", "properties": { "_uid_": 5552, "osm_id": 358852007, "name": "Plasencia Elementary School", "longitude": -118.25757417851401, "latitude": 34.066122412272001, "type": "education" }, "geometry": { "type": "Point", "coordinates": [ -118.257574178514375, 34.066122412272001 ] } },
{ "type": "Feature", "properties": { "_uid_": 5553, "osm_id": 4868892056, "name": "Downtown Magnets High School", "longitude": -118.2504046344, "latitude": 34.063084262810499, "type": "education" }, "geometry": { "type": "Point", "coordinates": [ -118.250404634400297, 34.063084262810534 ] } },
{ "type": "Feature", "properties": { "_uid_": 5554, "osm_id": 358782561, "name": "Cortez School", "longitude": -118.25535192616501, "latitude": 34.065844618042497, "type": "education" }, "geometry": { "type": "Point", "coordinates": [ -118.255351926164536, 34.065844618042455 ] } },
{ "type": "Feature", "properties": { "_uid_": 5555, "osm_id": 3889786452, "name": "Chinese Community Service Center", "longitude": -118.266576016313, "latitude": 34.065393581860697, "type": "healthcare" }, "geometry": { "type": "Point", "coordinates": [ -118.266576016313493, 34.065393581860747 ] } },
{ "type": "Feature", "properties": { "_uid_": 5556, "osm_id": 3889792242, "name": "Filipino Christian Church Food Bank", "longitude": -118.264328341641, "latitude": 34.0675421029296, "type": "healthcare" }, "geometry": { "type": "Point", "coordinates": [ -118.264328341641104, 34.067542102929607 ] } },
{ "type": "Feature", "properties": { "_uid_": 5557, "osm_id": 3889805494, "name": "Pilipino Worker Center of Southern California Food Bank", "longitude": -118.260176328398, "latitude": 34.063438121368797, "type": "healthcare" }, "geometry": { "type": "Point", "coordinates": [ -118.260176328397904, 34.06343812136884 ] } },
{ "type": "Feature", "properties": { "_uid_": 5558, "osm_id": 3889788317, "name": "St. Athanasius & St. Paul Church", "longitude": -118.25942264187501, "latitude": 34.073122183912297, "type": "healthcare" }, "geometry": { "type": "Point", "coordinates": [ -118.259422641874536, 34.073122183912261 ] } },
{ "type": "Feature", "properties": { "_uid_": 5564, "osm_id": 4094216682, "name": "Button Mash", "longitude": -118.251533816712, "latitude": 34.073977666107503, "type": "nighlife" }, "geometry": { "type": "Point", "coordinates": [ -118.251533816712424, 34.073977666107503 ] } },
{ "type": "Feature", "properties": { "_uid_": 5565, "osm_id": 4094216683, "name": "Sunset Beer Company", "longitude": -118.25530171034001, "latitude": 34.075468284311398, "type": "nighlife" }, "geometry": { "type": "Point", "coordinates": [ -118.255301710340163, 34.07546828431137 ] } },
{ "type": "Feature", "properties": { "_uid_": 5567, "osm_id": 2247904357, "name": "The Short Stop", "longitude": -118.25350849337001, "latitude": 34.075390007604099, "type": "nighlife" }, "geometry": { "type": "Point", "coordinates": [ -118.253508493369978, 34.075390007604071 ] } },
{ "type": "Feature", "properties": { "_uid_": 5575, "osm_id": 2247874052, "name": "The Park's Finest BBQ", "longitude": -118.254419295237, "latitude": 34.066678593320503, "type": "restaurant" }, "geometry": { "type": "Point", "coordinates": [ -118.254419295236559, 34.066678593320496 ] } },
{ "type": "Feature", "properties": { "_uid_": 5576, "osm_id": 1944730492, "name": "La Esquinita", "longitude": -118.25027707363, "latitude": 34.070223361751999, "type": "restaurant" }, "geometry": { "type": "Point", "coordinates": [ -118.250277073629974, 34.070223361751978 ] } },
{ "type": "Feature", "properties": { "_uid_": 5577, "osm_id": 4166615844, "name": "Los Angeles Pizza Company", "longitude": -118.255249338559, "latitude": 34.075536664759802, "type": "restaurant" }, "geometry": { "type": "Point", "coordinates": [ -118.255249338559096, 34.075536664759781 ] } },
{ "type": "Feature", "properties": { "_uid_": 5580, "osm_id": 933320750, "name": "Reliable Do It Center", "longitude": -118.250109627661, "latitude": 34.069024053622897, "type": "retail" }, "geometry": { "type": "Point", "coordinates": [ -118.250109627661018, 34.069024053622897 ] } },
{ "type": "Feature", "properties": { "_uid_": 5581, "osm_id": 4166615845, "name": "Alternate Universe", "longitude": -118.255180168282, "latitude": 34.0756465644508, "type": "retail" }, "geometry": { "type": "Point", "coordinates": [ -118.255180168282209, 34.075646564450778 ] } },
{ "type": "Feature", "properties": { "_uid_": 5585, "osm_id": 610178503, "name": null, "longitude": -118.267518977867, "latitude": 34.070434096526299, "type": "retail" }, "geometry": { "type": "Point", "coordinates": [ -118.26751897786724, 34.070434096526306 ] } },
{ "type": "Feature", "properties": { "_uid_": 5599, "osm_id": 4094216683, "name": "Sunset Beer Company", "longitude": -118.25530171034001, "latitude": 34.075468284311398, "type": "retail" }, "geometry": { "type": "Point", "coordinates": [ -118.255301710340163, 34.07546828431137 ] } },
{ "type": "Feature", "properties": { "_uid_": 5600, "osm_id": 933344236, "name": "Casablanca Furniture", "longitude": -118.25271132838699, "latitude": 34.075067301441401, "type": "retail" }, "geometry": { "type": "Point", "coordinates": [ -118.252711328386852, 34.075067301441408 ] } },
{ "type": "Feature", "properties": { "_uid_": 5601, "osm_id": 610178503, "name": null, "longitude": -118.267518977867, "latitude": 34.070434096526299, "type": "retail" }, "geometry": { "type": "Point", "coordinates": [ -118.26751897786724, 34.070434096526306 ] } },
{ "type": "Feature", "properties": { "_uid_": 5604, "osm_id": 610186122, "name": "CVS\/pharmacy", "longitude": -118.249383609248, "latitude": 34.0643554676845, "type": "retail" }, "geometry": { "type": "Point", "coordinates": [ -118.249383609248383, 34.064355467684493 ] } },
{ "type": "Feature", "properties": { "_uid_": 5606, "osm_id": 933320750, "name": "Reliable Do It Center", "longitude": -118.250109627661, "latitude": 34.069024053622897, "type": "retail" }, "geometry": { "type": "Point", "coordinates": [ -118.250109627661018, 34.069024053622897 ] } },
{ "type": "Feature", "properties": { "_uid_": 5607, "osm_id": 933344236, "name": "Casablanca Furniture", "longitude": -118.25271132838699, "latitude": 34.075067301441401, "type": "retail" }, "geometry": { "type": "Point", "coordinates": [ -118.252711328386852, 34.075067301441408 ] } },
{ "type": "Feature", "properties": { "_uid_": 5624, "osm_id": 4094216683, "name": "Sunset Beer Company", "longitude": -118.25530171034001, "latitude": 34.075468284311398, "type": "retail" }, "geometry": { "type": "Point", "coordinates": [ -118.255301710340163, 34.07546828431137 ] } },
{ "type": "Feature", "properties": { "_uid_": 5626, "osm_id": 4166615845, "name": "Alternate Universe", "longitude": -118.255180168282, "latitude": 34.0756465644508, "type": "retail" }, "geometry": { "type": "Point", "coordinates": [ -118.255180168282209, 34.075646564450778 ] } },
{ "type": "Feature", "properties": { "_uid_": 10735, "osm_id": 614037517, "name": null, "longitude": -118.221326527979, "latitude": 34.071901784208102, "type": "retail" }, "geometry": { "type": "Point", "coordinates": [ -118.221326527979457, 34.071901784208052 ] } },
{ "type": "Feature", "properties": { "_uid_": 10736, "osm_id": 614037522, "name": null, "longitude": -118.220035918411, "latitude": 34.072923510199701, "type": "retail" }, "geometry": { "type": "Point", "coordinates": [ -118.220035918410773, 34.072923510199686 ] } },
{ "type": "Feature", "properties": { "_uid_": 10737, "osm_id": 614042926, "name": null, "longitude": -118.207494898055, "latitude": 34.073516181525797, "type": "retail" }, "geometry": { "type": "Point", "coordinates": [ -118.207494898055302, 34.073516181525775 ] } },
{ "type": "Feature", "properties": { "_uid_": 10738, "osm_id": 614042908, "name": "Payless Shoe Source", "longitude": -118.215336741328, "latitude": 34.073499960319303, "type": "retail" }, "geometry": { "type": "Point", "coordinates": [ -118.215336741328017, 34.073499960319317 ] } },
{ "type": "Feature", "properties": { "_uid_": 10739, "osm_id": 614042911, "name": "99 Cents Only Stores", "longitude": -118.215087279174, "latitude": 34.073498100088997, "type": "retail" }, "geometry": { "type": "Point", "coordinates": [ -118.21508727917363, 34.073498100089019 ] } },
{ "type": "Feature", "properties": { "_uid_": 10740, "osm_id": 358826373, "name": "Lincoln Heights Station Los Angeles Post Office", "longitude": -118.21007279342599, "latitude": 34.073899611249303, "type": "retail" }, "geometry": { "type": "Point", "coordinates": [ -118.210072793426136, 34.073899611249303 ] } },
{ "type": "Feature", "properties": { "_uid_": 10741, "osm_id": 464745088, "name": null, "longitude": -118.21883900312601, "latitude": 34.06586329644, "type": "retail" }, "geometry": { "type": "Point", "coordinates": [ -118.21883900312622, 34.06586329644005 ] } },
{ "type": "Feature", "properties": { "_uid_": 10742, "osm_id": 464745098, "name": null, "longitude": -118.217594477132, "latitude": 34.064498199835697, "type": "retail" }, "geometry": { "type": "Point", "coordinates": [ -118.217594477131598, 34.064498199835718 ] } },
{ "type": "Feature", "properties": { "_uid_": 10743, "osm_id": 614037517, "name": null, "longitude": -118.221326527979, "latitude": 34.071901784208102, "type": "retail" }, "geometry": { "type": "Point", "coordinates": [ -118.221326527979457, 34.071901784208052 ] } },
{ "type": "Feature", "properties": { "_uid_": 10744, "osm_id": 614037522, "name": null, "longitude": -118.220035918411, "latitude": 34.072923510199701, "type": "retail" }, "geometry": { "type": "Point", "coordinates": [ -118.220035918410773, 34.072923510199686 ] } },
{ "type": "Feature", "properties": { "_uid_": 10745, "osm_id": 614042908, "name": "Payless Shoe Source", "longitude": -118.215336741328, "latitude": 34.073499960319303, "type": "retail" }, "geometry": { "type": "Point", "coordinates": [ -118.215336741328017, 34.073499960319317 ] } },
{ "type": "Feature", "properties": { "_uid_": 10746, "osm_id": 614042911, "name": "99 Cents Only Stores", "longitude": -118.215087279174, "latitude": 34.073498100088997, "type": "retail" }, "geometry": { "type": "Point", "coordinates": [ -118.21508727917363, 34.073498100089019 ] } },
{ "type": "Feature", "properties": { "_uid_": 10747, "osm_id": 614042926, "name": null, "longitude": -118.207494898055, "latitude": 34.073516181525797, "type": "retail" }, "geometry": { "type": "Point", "coordinates": [ -118.207494898055302, 34.073516181525775 ] } },
{ "type": "Feature", "properties": { "_uid_": 10748, "osm_id": 1512406693, "name": null, "longitude": -118.215899715517, "latitude": 34.07374625445, "type": "retail" }, "geometry": { "type": "Point", "coordinates": [ -118.215899715516585, 34.073746254449958 ] } },
{ "type": "Feature", "properties": { "_uid_": 13803, "osm_id": 855626219, "name": "Morgue", "longitude": -118.21355026172201, "latitude": 34.060452491098197, "type": "retail" }, "geometry": { "type": "Point", "coordinates": [ -118.213550261722489, 34.060452491098239 ] } },
{ "type": "Feature", "properties": { "_uid_": 28270, "osm_id": 358851985, "name": "Los Angeles Elementary School", "longitude": -118.305559935204, "latitude": 34.0485899737333, "type": "education" }, "geometry": { "type": "Point", "coordinates": [ -118.305559935203846, 34.04858997373325 ] } },
{ "type": "Feature", "properties": { "_uid_": 28271, "osm_id": 358780779, "name": "Bishop Conaty Memorial High School", "longitude": -118.302853041758, "latitude": 34.046678264195499, "type": "education" }, "geometry": { "type": "Point", "coordinates": [ -118.302853041758198, 34.046678264195535 ] } },
{ "type": "Feature", "properties": { "_uid_": 28272, "osm_id": 358851906, "name": "Camino Nuevo CHT Middle School", "longitude": -118.3050342411, "latitude": 34.062709565544601, "type": "education" }, "geometry": { "type": "Point", "coordinates": [ -118.305034241099577, 34.062709565544552 ] } },
{ "type": "Feature", "properties": { "_uid_": 28274, "osm_id": 358781378, "name": "Cahuenga Elementary School", "longitude": -118.30535341252001, "latitude": 34.070566103141203, "type": "education" }, "geometry": { "type": "Point", "coordinates": [ -118.30535341252002, 34.070566103141232 ] } },
{ "type": "Feature", "properties": { "_uid_": 28275, "osm_id": 358794109, "name": "Vermont Elementary School", "longitude": -118.29229711851799, "latitude": 34.030567995611598, "type": "education" }, "geometry": { "type": "Point", "coordinates": [ -118.292297118517567, 34.030567995611619 ] } },
{ "type": "Feature", "properties": { "_uid_": 28276, "osm_id": 358791507, "name": "Saint Agnes Elementary School", "longitude": -118.29229711851799, "latitude": 34.031956791195697, "type": "education" }, "geometry": { "type": "Point", "coordinates": [ -118.292297118517567, 34.031956791195697 ] } },
{ "type": "Feature", "properties": { "_uid_": 28277, "osm_id": 358850043, "name": "Divine Providence Kindergarten and Day Nursery", "longitude": -118.28479690454699, "latitude": 34.031401424582299, "type": "education" }, "geometry": { "type": "Point", "coordinates": [ -118.28479690454742, 34.031401424582349 ] } },
{ "type": "Feature", "properties": { "_uid_": 28278, "osm_id": 358786623, "name": "John Adams Middle School", "longitude": -118.271999864336, "latitude": 34.022860008914101, "type": "education" }, "geometry": { "type": "Point", "coordinates": [ -118.271999864335953, 34.022860008914094 ] } },
{ "type": "Feature", "properties": { "_uid_": 28279, "osm_id": 358794351, "name": "Washington Boulevard School", "longitude": -118.296186194877, "latitude": 34.038623065747203, "type": "education" }, "geometry": { "type": "Point", "coordinates": [ -118.296186194877123, 34.03862306574721 ] } },
{ "type": "Feature", "properties": { "_uid_": 28280, "osm_id": 358791955, "name": "Saint Thomas School", "longitude": -118.298686296144, "latitude": 34.044733909265901, "type": "education" }, "geometry": { "type": "Point", "coordinates": [ -118.298686296144339, 34.044733909265886 ] } },
{ "type": "Feature", "properties": { "_uid_": 28281, "osm_id": 358816690, "name": "Loyola College (historical)", "longitude": -118.296741713049, "latitude": 34.045011698252303, "type": "education" }, "geometry": { "type": "Point", "coordinates": [ -118.296741713048817, 34.045011698252274 ] } },
{ "type": "Feature", "properties": { "_uid_": 28282, "osm_id": 358788279, "name": "Loyola High School of Los Angeles", "longitude": -118.295630586874, "latitude": 34.044733983700297, "type": "education" }, "geometry": { "type": "Point", "coordinates": [ -118.295630586873884, 34.044733983700347 ] } },
{ "type": "Feature", "properties": { "_uid_": 28283, "osm_id": 358780633, "name": "Bernedo Middle School", "longitude": -118.294241701613, "latitude": 34.049733822931799, "type": "education" }, "geometry": { "type": "Point", "coordinates": [ -118.294241701613103, 34.049733822931849 ] } },
{ "type": "Feature", "properties": { "_uid_": 28284, "osm_id": 358852010, "name": "Leo Politi Elementary School", "longitude": -118.287575034395, "latitude": 34.050844907898799, "type": "education" }, "geometry": { "type": "Point", "coordinates": [ -118.287575034395076, 34.050844907898814 ] } },
{ "type": "Feature", "properties": { "_uid_": 28285, "osm_id": 358788285, "name": "Loyola University", "longitude": -118.271185631362, "latitude": 34.049178572710403, "type": "education" }, "geometry": { "type": "Point", "coordinates": [ -118.271185631362414, 34.049178572710424 ] } },
{ "type": "Feature", "properties": { "_uid_": 28286, "osm_id": 358786259, "name": "Immaculate Conception School", "longitude": -118.271228481001, "latitude": 34.050922983994496, "type": "education" }, "geometry": { "type": "Point", "coordinates": [ -118.271228481001486, 34.050922983994511 ] } },
{ "type": "Feature", "properties": { "_uid_": 28287, "osm_id": 358850317, "name": "Hollywood College School of Chiropractic", "longitude": -118.277852388412, "latitude": 34.053344870263203, "type": "education" }, "geometry": { "type": "Point", "coordinates": [ -118.277852388412015, 34.053344870263189 ] } },
{ "type": "Feature", "properties": { "_uid_": 28288, "osm_id": 358858653, "name": "California Design College", "longitude": -118.299121889226, "latitude": 34.061468624835598, "type": "education" }, "geometry": { "type": "Point", "coordinates": [ -118.299121889225617, 34.061468624835648 ] } },
{ "type": "Feature", "properties": { "_uid_": 28289, "osm_id": 358826580, "name": "Southwestern University School of Law", "longitude": -118.289581960571, "latitude": 34.060608253417499, "type": "education" }, "geometry": { "type": "Point", "coordinates": [ -118.289581960571326, 34.060608253417541 ] } },
{ "type": "Feature", "properties": { "_uid_": 28290, "osm_id": 358858131, "name": "World Mission University", "longitude": -118.28955914336299, "latitude": 34.064872665942701, "type": "education" }, "geometry": { "type": "Point", "coordinates": [ -118.289559143363107, 34.064872665942666 ] } },
{ "type": "Feature", "properties": { "_uid_": 28291, "osm_id": 358826594, "name": "West Coast University (historical)", "longitude": -118.289519617491, "latitude": 34.066121965777803, "type": "education" }, "geometry": { "type": "Point", "coordinates": [ -118.289519617490598, 34.066121965777846 ] } },
{ "type": "Feature", "properties": { "_uid_": 28292, "osm_id": 358858092, "name": "Dongguk Royal University", "longitude": -118.289566689211, "latitude": 34.066203302089399, "type": "education" }, "geometry": { "type": "Point", "coordinates": [ -118.289566689211497, 34.066203302089406 ] } },
{ "type": "Feature", "properties": { "_uid_": 28293, "osm_id": 358790826, "name": "Precious Blood School", "longitude": -118.282575011524, "latitude": 34.067510923271797, "type": "education" }, "geometry": { "type": "Point", "coordinates": [ -118.282575011523662, 34.067510923271811 ] } },
{ "type": "Feature", "properties": { "_uid_": 28294, "osm_id": 358782779, "name": "Cutler Academy", "longitude": -118.289797376576, "latitude": 34.069177493383798, "type": "education" }, "geometry": { "type": "Point", "coordinates": [ -118.289797376576459, 34.069177493383783 ] } },
{ "type": "Feature", "properties": { "_uid_": 28296, "osm_id": 358782407, "name": "Commonwealth Elementary School", "longitude": -118.28590839004799, "latitude": 34.069455202273502, "type": "education" }, "geometry": { "type": "Point", "coordinates": [ -118.285908390048448, 34.069455202273495 ] } },
{ "type": "Feature", "properties": { "_uid_": 28297, "osm_id": 358850362, "name": "Saint Vincent College of Nursing", "longitude": -118.272574696286, "latitude": 34.064455558816803, "type": "education" }, "geometry": { "type": "Point", "coordinates": [ -118.27257469628627, 34.064455558816768 ] } },
{ "type": "Feature", "properties": { "_uid_": 28298, "osm_id": 358790164, "name": "Our Lady of Loretto High School", "longitude": -118.270352264273, "latitude": 34.068622072873502, "type": "education" }, "geometry": { "type": "Point", "coordinates": [ -118.270352264273342, 34.068622072873509 ] } },
{ "type": "Feature", "properties": { "_uid_": 28299, "osm_id": 358791358, "name": "Rosemont Elementary School", "longitude": -118.26979692576499, "latitude": 34.071677584728697, "type": "education" }, "geometry": { "type": "Point", "coordinates": [ -118.269796925764723, 34.071677584728704 ] } },
{ "type": "Feature", "properties": { "_uid_": 28300, "osm_id": 358850414, "name": "Queen of Angels School of Nursing", "longitude": -118.26979692576499, "latitude": 34.075288590051599, "type": "education" }, "geometry": { "type": "Point", "coordinates": [ -118.269796925764723, 34.075288590051578 ] } },
{ "type": "Feature", "properties": { "_uid_": 28302, "osm_id": 3734961926, "name": "First African Methodist Episcopal Church", "longitude": -118.306225946155, "latitude": 34.0350069993356, "type": "healthcare" }, "geometry": { "type": "Point", "coordinates": [ -118.306225946155479, 34.035006999335565 ] } },
{ "type": "Feature", "properties": { "_uid_": 28304, "osm_id": 5111896532, "name": "Hana Dental", "longitude": -118.305150932255, "latitude": 34.0614871553583, "type": "healthcare" }, "geometry": { "type": "Point", "coordinates": [ -118.305150932254975, 34.061487155358293 ] } },
{ "type": "Feature", "properties": { "_uid_": 28308, "osm_id": 3732303744, "name": "Redeemer Missionary Baptist Church", "longitude": -118.298363621294, "latitude": 34.033040490082897, "type": "healthcare" }, "geometry": { "type": "Point", "coordinates": [ -118.2983636212943, 34.033040490082897 ] } },
{ "type": "Feature", "properties": { "_uid_": 28309, "osm_id": 3724125231, "name": "St Agnes Church", "longitude": -118.29183772008101, "latitude": 34.031914357145702, "type": "healthcare" }, "geometry": { "type": "Point", "coordinates": [ -118.291837720081276, 34.03191435714573 ] } },
{ "type": "Feature", "properties": { "_uid_": 28310, "osm_id": 3732263865, "name": "Greater True Light M.B.C.", "longitude": -118.288544047092, "latitude": 34.0280835172358, "type": "healthcare" }, "geometry": { "type": "Point", "coordinates": [ -118.288544047092046, 34.028083517235842 ] } },
{ "type": "Feature", "properties": { "_uid_": 28311, "osm_id": 3732301010, "name": "St. John's Cathedral-Hope Net", "longitude": -118.275610373126, "latitude": 34.027444369463801, "type": "healthcare" }, "geometry": { "type": "Point", "coordinates": [ -118.2756103731259, 34.027444369463765 ] } },
{ "type": "Feature", "properties": { "_uid_": 28312, "osm_id": 3724139450, "name": "Los Angeles Central City Seventh-day Adventist Church", "longitude": -118.27526164713299, "latitude": 34.032812391116899, "type": "healthcare" }, "geometry": { "type": "Point", "coordinates": [ -118.275261647132581, 34.032812391116941 ] } },
{ "type": "Feature", "properties": { "_uid_": 28313, "osm_id": 3646948889, "name": "St. Francis Center - Food Bank", "longitude": -118.269562106149, "latitude": 34.033915881172, "type": "healthcare" }, "geometry": { "type": "Point", "coordinates": [ -118.269562106149436, 34.033915881171971 ] } },
{ "type": "Feature", "properties": { "_uid_": 28314, "osm_id": 3724115711, "name": "Central Spanish Seventh Day Adventist Church", "longitude": -118.28346721826399, "latitude": 34.0456589013775, "type": "healthcare" }, "geometry": { "type": "Point", "coordinates": [ -118.283467218263851, 34.045658901377521 ] } },
{ "type": "Feature", "properties": { "_uid_": 28315, "osm_id": 3681611344, "name": "Saint Thomas Center Food Bank", "longitude": -118.298964145062, "latitude": 34.046955972379997, "type": "healthcare" }, "geometry": { "type": "Point", "coordinates": [ -118.298964145061717, 34.046955972379997 ] } },
{ "type": "Feature", "properties": { "_uid_": 28316, "osm_id": 3714502465, "name": "First Unitarian Church of Los Angeles", "longitude": -118.290221111896, "latitude": 34.057541402174699, "type": "healthcare" }, "geometry": { "type": "Point", "coordinates": [ -118.29022111189596, 34.057541402174706 ] } },
{ "type": "Feature", "properties": { "_uid_": 28317, "osm_id": 3692741204, "name": null, "longitude": -118.274436364881, "latitude": 34.050655560042998, "type": "healthcare" }, "geometry": { "type": "Point", "coordinates": [ -118.274436364881069, 34.050655560043033 ] } },
{ "type": "Feature", "properties": { "_uid_": 28318, "osm_id": 2657044914, "name": "Los Angeles Medical Center Cosmetic Surgery", "longitude": -118.275106597915, "latitude": 34.057249513778899, "type": "healthcare" }, "geometry": { "type": "Point", "coordinates": [ -118.275106597914572, 34.057249513778935 ] } },
{ "type": "Feature", "properties": { "_uid_": 28319, "osm_id": 5111900622, "name": "First Family Dental", "longitude": -118.30023723748199, "latitude": 34.061223411313101, "type": "healthcare" }, "geometry": { "type": "Point", "coordinates": [ -118.300237237482392, 34.061223411313108 ] } },
{ "type": "Feature", "properties": { "_uid_": 28320, "osm_id": 5112097126, "name": "LA Dental", "longitude": -118.297406915517, "latitude": 34.062121358192798, "type": "healthcare" }, "geometry": { "type": "Point", "coordinates": [ -118.297406915516703, 34.062121358192826 ] } },
{ "type": "Feature", "properties": { "_uid_": 28321, "osm_id": 4265283713, "name": "Immanuel Presbyterian Church-Hope Net", "longitude": -118.29452799469399, "latitude": 34.061270667995601, "type": "healthcare" }, "geometry": { "type": "Point", "coordinates": [ -118.294527994694164, 34.061270667995565 ] } },
{ "type": "Feature", "properties": { "_uid_": 28322, "osm_id": 3744318766, "name": "Islamic Center of Southern CA-Hope Net", "longitude": -118.291342299202, "latitude": 34.066522767743301, "type": "healthcare" }, "geometry": { "type": "Point", "coordinates": [ -118.291342299202086, 34.066522767743272 ] } },
{ "type": "Feature", "properties": { "_uid_": 28323, "osm_id": 3714508380, "name": "First Baptist Church of Los Angeles", "longitude": -118.288965267129, "latitude": 34.058273277021399, "type": "healthcare" }, "geometry": { "type": "Point", "coordinates": [ -118.288965267128788, 34.058273277021449 ] } },
{ "type": "Feature", "properties": { "_uid_": 28324, "osm_id": 3744303552, "name": "Los Angeles First Church of the Nazarene-Hope Net", "longitude": -118.2899985992, "latitude": 34.069516816019501, "type": "healthcare" }, "geometry": { "type": "Point", "coordinates": [ -118.289998599200104, 34.069516816019529 ] } },
{ "type": "Feature", "properties": { "_uid_": 28327, "osm_id": 3729520572, "name": "Good News Central Church", "longitude": -118.289675834519, "latitude": 34.073166457578701, "type": "healthcare" }, "geometry": { "type": "Point", "coordinates": [ -118.289675834518519, 34.073166457578736 ] } },
{ "type": "Feature", "properties": { "_uid_": 28328, "osm_id": 2988516857, "name": "POT", "longitude": -118.30104608056401, "latitude": 34.061959273010203, "type": "nighlife" }, "geometry": { "type": "Point", "coordinates": [ -118.30104608056422, 34.061959273010224 ] } },
{ "type": "Feature", "properties": { "_uid_": 28331, "osm_id": 5112100828, "name": "Food & Grog", "longitude": -118.297326695962, "latitude": 34.061956668333004, "type": "nighlife" }, "geometry": { "type": "Point", "coordinates": [ -118.297326695961829, 34.061956668333039 ] } },
{ "type": "Feature", "properties": { "_uid_": 28332, "osm_id": 5112114622, "name": "BarCode", "longitude": -118.29474071575299, "latitude": 34.0619789197155, "type": "nighlife" }, "geometry": { "type": "Point", "coordinates": [ -118.294740715753434, 34.061978919715536 ] } },
{ "type": "Feature", "properties": { "_uid_": 28333, "osm_id": 2611810013, "name": "Rain Karoki", "longitude": -118.28438664395701, "latitude": 34.060483301250002, "type": "nighlife" }, "geometry": { "type": "Point", "coordinates": [ -118.284386643957149, 34.060483301250045 ] } },
{ "type": "Feature", "properties": { "_uid_": 28336, "osm_id": 4487414743, "name": "Slurpin' Ramen", "longitude": -118.306806617155, "latitude": 34.057486552239197, "type": "restaurant" }, "geometry": { "type": "Point", "coordinates": [ -118.306806617155146, 34.05748655223924 ] } },
{ "type": "Feature", "properties": { "_uid_": 28337, "osm_id": 3795734832, "name": "Yu Chun", "longitude": -118.305951690499, "latitude": 34.052823954714597, "type": "restaurant" }, "geometry": { "type": "Point", "coordinates": [ -118.305951690499256, 34.052823954714597 ] } },
{ "type": "Feature", "properties": { "_uid_": 28342, "osm_id": 4542457494, "name": "Man Soo", "longitude": -118.305245075697, "latitude": 34.057746884453202, "type": "restaurant" }, "geometry": { "type": "Point", "coordinates": [ -118.30524507569676, 34.057746884453188 ] } },
{ "type": "Feature", "properties": { "_uid_": 28343, "osm_id": 5111896531, "name": "Roll Roll Roll", "longitude": -118.305756396756, "latitude": 34.061924295910003, "type": "restaurant" }, "geometry": { "type": "Point", "coordinates": [ -118.305756396756493, 34.061924295909954 ] } },
{ "type": "Feature", "properties": { "_uid_": 28344, "osm_id": 5111896340, "name": "SapOr", "longitude": -118.303379005357, "latitude": 34.061550784230498, "type": "restaurant" }, "geometry": { "type": "Point", "coordinates": [ -118.303379005357073, 34.061550784230484 ] } },
{ "type": "Feature", "properties": { "_uid_": 28345, "osm_id": 5111896425, "name": "Bulgogi Hut", "longitude": -118.303197276175, "latitude": 34.061569091476102, "type": "restaurant" }, "geometry": { "type": "Point", "coordinates": [ -118.303197276175084, 34.061569091476095 ] } },
{ "type": "Feature", "properties": { "_uid_": 28346, "osm_id": 3796041675, "name": "Bon Juk", "longitude": -118.302118219856, "latitude": 34.061889616472897, "type": "restaurant" }, "geometry": { "type": "Point", "coordinates": [ -118.302118219855814, 34.061889616472868 ] } },
{ "type": "Feature", "properties": { "_uid_": 28348, "osm_id": 5084829721, "name": "hae jan chon", "longitude": -118.30600037918801, "latitude": 34.063845782456703, "type": "restaurant" }, "geometry": { "type": "Point", "coordinates": [ -118.306000379187665, 34.063845782456667 ] } },
{ "type": "Feature", "properties": { "_uid_": 28349, "osm_id": 2165018868, "name": "Namsan", "longitude": -118.30084602575, "latitude": 34.063783494827, "type": "restaurant" }, "geometry": { "type": "Point", "coordinates": [ -118.300846025750417, 34.063783494827021 ] } },
{ "type": "Feature", "properties": { "_uid_": 28350, "osm_id": 2165018839, "name": "Mapo", "longitude": -118.30084683423399, "latitude": 34.063841912736699, "type": "restaurant" }, "geometry": { "type": "Point", "coordinates": [ -118.300846834234179, 34.063841912736692 ] } },
{ "type": "Feature", "properties": { "_uid_": 28355, "osm_id": 4141781780, "name": "Little Galen Center", "longitude": -118.28707143884699, "latitude": 34.0228164535094, "type": "restaurant" }, "geometry": { "type": "Point", "coordinates": [ -118.287071438846795, 34.022816453509371 ] } },
{ "type": "Feature", "properties": { "_uid_": 28356, "osm_id": 2643391587, "name": "23rd Street Cafe", "longitude": -118.280968015312, "latitude": 34.033691878988598, "type": "restaurant" }, "geometry": { "type": "Point", "coordinates": [ -118.280968015311913, 34.033691878988556 ] } },
{ "type": "Feature", "properties": { "_uid_": 28357, "osm_id": 3088547686, "name": "KFC", "longitude": -118.27802872770199, "latitude": 34.026072251462999, "type": "restaurant" }, "geometry": { "type": "Point", "coordinates": [ -118.278028727702264, 34.026072251462956 ] } },
{ "type": "Feature", "properties": { "_uid_": 28358, "osm_id": 4944439089, "name": "Aldewaniah", "longitude": -118.27201073395101, "latitude": 34.026547916585699, "type": "restaurant" }, "geometry": { "type": "Point", "coordinates": [ -118.272010733950879, 34.026547916585677 ] } },
{ "type": "Feature", "properties": { "_uid_": 28359, "osm_id": 5038979121, "name": "Guelaguetza", "longitude": -118.30073319735099, "latitude": 34.052423981095103, "type": "restaurant" }, "geometry": { "type": "Point", "coordinates": [ -118.300733197350766, 34.052423981095117 ] } },
{ "type": "Feature", "properties": { "_uid_": 28360, "osm_id": 3795798036, "name": "Gam Ja Gol", "longitude": -118.300376117025, "latitude": 34.052889004209298, "type": "restaurant" }, "geometry": { "type": "Point", "coordinates": [ -118.300376117025309, 34.052889004209312 ] } },
{ "type": "Feature", "properties": { "_uid_": 28361, "osm_id": 3795768631, "name": "O Dae San Korean BBQ", "longitude": -118.29725078832, "latitude": 34.0527907601019, "type": "restaurant" }, "geometry": { "type": "Point", "coordinates": [ -118.297250788320341, 34.052790760101942 ] } },
{ "type": "Feature", "properties": { "_uid_": 28362, "osm_id": 3795772626, "name": "Surawon", "longitude": -118.29562627496099, "latitude": 34.052787410869001, "type": "restaurant" }, "geometry": { "type": "Point", "coordinates": [ -118.295626274960526, 34.052787410868994 ] } },
{ "type": "Feature", "properties": { "_uid_": 28363, "osm_id": 3797634884, "name": "Masan Restaurant", "longitude": -118.296237309017, "latitude": 34.052839658887798, "type": "restaurant" }, "geometry": { "type": "Point", "coordinates": [ -118.296237309016789, 34.052839658887798 ] } },
{ "type": "Feature", "properties": { "_uid_": 28364, "osm_id": 2168231371, "name": "Soot Bull Jeep", "longitude": -118.295909693433, "latitude": 34.057582111669703, "type": "restaurant" }, "geometry": { "type": "Point", "coordinates": [ -118.295909693432648, 34.05758211166966 ] } },
{ "type": "Feature", "properties": { "_uid_": 28365, "osm_id": 3797634879, "name": "Jang An Restaurant", "longitude": -118.293969601914, "latitude": 34.0529649944597, "type": "restaurant" }, "geometry": { "type": "Point", "coordinates": [ -118.293969601913545, 34.052964994459728 ] } },
{ "type": "Feature", "properties": { "_uid_": 28366, "osm_id": 4867570924, "name": "Jeon Ju", "longitude": -118.292230463523, "latitude": 34.052414082207903, "type": "restaurant" }, "geometry": { "type": "Point", "coordinates": [ -118.292230463523495, 34.052414082207882 ] } },
{ "type": "Feature", "properties": { "_uid_": 28367, "osm_id": 2678224143, "name": "Beverly Soon Tofu Restaurant", "longitude": -118.292479566352, "latitude": 34.053024164098296, "type": "restaurant" }, "geometry": { "type": "Point", "coordinates": [ -118.292479566351787, 34.053024164098254 ] } },
{ "type": "Feature", "properties": { "_uid_": 28368, "osm_id": 4269959251, "name": "Yong Su San Restaurant", "longitude": -118.29135361797501, "latitude": 34.053853799951099, "type": "restaurant" }, "geometry": { "type": "Point", "coordinates": [ -118.291353617974679, 34.053853799951057 ] } },
{ "type": "Feature", "properties": { "_uid_": 28369, "osm_id": 4679104390, "name": "McDonalds", "longitude": -118.279731124997, "latitude": 34.051443687937898, "type": "restaurant" }, "geometry": { "type": "Point", "coordinates": [ -118.279731124997198, 34.051443687937912 ] } },
{ "type": "Feature", "properties": { "_uid_": 28370, "osm_id": 4259783966, "name": "Langer's", "longitude": -118.276772074451, "latitude": 34.056258857014399, "type": "restaurant" }, "geometry": { "type": "Point", "coordinates": [ -118.276772074451301, 34.056258857014363 ] } },
{ "type": "Feature", "properties": { "_uid_": 28371, "osm_id": 4679023595, "name": "McDonalds", "longitude": -118.270824328955, "latitude": 34.055952079279002, "type": "restaurant" }, "geometry": { "type": "Point", "coordinates": [ -118.270824328955158, 34.055952079279002 ] } },
{ "type": "Feature", "properties": { "_uid_": 28372, "osm_id": 5111904822, "name": "Happy Noodle", "longitude": -118.300189806435, "latitude": 34.061469889971903, "type": "restaurant" }, "geometry": { "type": "Point", "coordinates": [ -118.300189806435398, 34.061469889971853 ] } },
{ "type": "Feature", "properties": { "_uid_": 28373, "osm_id": 5111900623, "name": "Gogobop Korean Rice Bar", "longitude": -118.300132044763, "latitude": 34.0614765877515, "type": "restaurant" }, "geometry": { "type": "Point", "coordinates": [ -118.30013204476262, 34.061476587751493 ] } },
{ "type": "Feature", "properties": { "_uid_": 28374, "osm_id": 5112088125, "name": "Mali Taste of Thailand", "longitude": -118.299450043799, "latitude": 34.061475471454898, "type": "restaurant" }, "geometry": { "type": "Point", "coordinates": [ -118.299450043798899, 34.061475471454926 ] } },
{ "type": "Feature", "properties": { "_uid_": 28375, "osm_id": 5112088126, "name": "Wasabi", "longitude": -118.299332184834, "latitude": 34.061454782755902, "type": "restaurant" }, "geometry": { "type": "Point", "coordinates": [ -118.299332184833631, 34.061454782755852 ] } },
{ "type": "Feature", "properties": { "_uid_": 28376, "osm_id": 5112088127, "name": "Wiki Poki", "longitude": -118.299045891753, "latitude": 34.061445480281598, "type": "restaurant" }, "geometry": { "type": "Point", "coordinates": [ -118.299045891752584, 34.061445480281591 ] } },
{ "type": "Feature", "properties": { "_uid_": 28377, "osm_id": 5112088128, "name": "The Halal Guys", "longitude": -118.298889584893, "latitude": 34.061444884923198, "type": "restaurant" }, "geometry": { "type": "Point", "coordinates": [ -118.298889584893146, 34.061444884923212 ] } },
{ "type": "Feature", "properties": { "_uid_": 28378, "osm_id": 5112097122, "name": "Tarboosh middle East kitchen", "longitude": -118.298730493256, "latitude": 34.0619429007523, "type": "restaurant" }, "geometry": { "type": "Point", "coordinates": [ -118.298730493256329, 34.061942900752314 ] } },
{ "type": "Feature", "properties": { "_uid_": 28379, "osm_id": 5112097125, "name": "Bongchu", "longitude": -118.29775007195499, "latitude": 34.0619685010087, "type": "restaurant" }, "geometry": { "type": "Point", "coordinates": [ -118.297750071955249, 34.061968501008735 ] } },
{ "type": "Feature", "properties": { "_uid_": 28380, "osm_id": 5112103521, "name": "Neris Filipino Dining", "longitude": -118.297766331462, "latitude": 34.062036817934199, "type": "restaurant" }, "geometry": { "type": "Point", "coordinates": [ -118.297766331461872, 34.062036817934242 ] } },
{ "type": "Feature", "properties": { "_uid_": 28381, "osm_id": 5112204724, "name": "Zan ResPub", "longitude": -118.297658713291, "latitude": 34.062040985413802, "type": "restaurant" }, "geometry": { "type": "Point", "coordinates": [ -118.297658713290858, 34.062040985413752 ] } },
{ "type": "Feature", "properties": { "_uid_": 28382, "osm_id": 5112100823, "name": "Bayou Smokehouse", "longitude": -118.297766870451, "latitude": 34.062151795642002, "type": "restaurant" }, "geometry": { "type": "Point", "coordinates": [ -118.297766870451042, 34.062151795642031 ] } },
{ "type": "Feature", "properties": { "_uid_": 28383, "osm_id": 5112103522, "name": "Korean Bbq", "longitude": -118.297767589103, "latitude": 34.062251814958103, "type": "restaurant" }, "geometry": { "type": "Point", "coordinates": [ -118.297767589103273, 34.062251814958053 ] } },
{ "type": "Feature", "properties": { "_uid_": 28384, "osm_id": 5112100824, "name": "The Boiling Crab", "longitude": -118.29775932460301, "latitude": 34.062326457272498, "type": "restaurant" }, "geometry": { "type": "Point", "coordinates": [ -118.297759324602666, 34.062326457272476 ] } },
{ "type": "Feature", "properties": { "_uid_": 28385, "osm_id": 5112101621, "name": "Koko Pizza", "longitude": -118.297740729476, "latitude": 34.062470606800296, "type": "restaurant" }, "geometry": { "type": "Point", "coordinates": [ -118.297740729476288, 34.062470606800304 ] } },
{ "type": "Feature", "properties": { "_uid_": 28386, "osm_id": 4973275121, "name": "Gwang Yang BBQ", "longitude": -118.297686740728, "latitude": 34.062490178968197, "type": "restaurant" }, "geometry": { "type": "Point", "coordinates": [ -118.297686740727698, 34.062490178968197 ] } },
{ "type": "Feature", "properties": { "_uid_": 28387, "osm_id": 5112100826, "name": "Wako", "longitude": -118.297630685854, "latitude": 34.062477081244197, "type": "restaurant" }, "geometry": { "type": "Point", "coordinates": [ -118.297630685853989, 34.062477081244168 ] } },
{ "type": "Feature", "properties": { "_uid_": 28388, "osm_id": 4917827021, "name": "Sun Nong Dan", "longitude": -118.297478960402, "latitude": 34.062980374717696, "type": "restaurant" }, "geometry": { "type": "Point", "coordinates": [ -118.297478960402472, 34.062980374717682 ] } },
{ "type": "Feature", "properties": { "_uid_": 28389, "osm_id": 4679024595, "name": "KoBaWoo Restaurant", "longitude": -118.290931140297, "latitude": 34.0600337249532, "type": "restaurant" }, "geometry": { "type": "Point", "coordinates": [ -118.29093114029655, 34.060033724953236 ] } },
{ "type": "Feature", "properties": { "_uid_": 28390, "osm_id": 5112204727, "name": "Holy Crab", "longitude": -118.293414802394, "latitude": 34.061621185242799, "type": "restaurant" }, "geometry": { "type": "Point", "coordinates": [ -118.293414802394082, 34.061621185242771 ] } },
{ "type": "Feature", "properties": { "_uid_": 28391, "osm_id": 3796064169, "name": "Subway", "longitude": -118.295148910219, "latitude": 34.061948482204201, "type": "restaurant" }, "geometry": { "type": "Point", "coordinates": [ -118.295148910218543, 34.06194848220423 ] } },
{ "type": "Feature", "properties": { "_uid_": 28392, "osm_id": 5116079021, "name": "Chipotle", "longitude": -118.291377513161, "latitude": 34.062165563188799, "type": "restaurant" }, "geometry": { "type": "Point", "coordinates": [ -118.291377513161223, 34.06216556318882 ] } },
{ "type": "Feature", "properties": { "_uid_": 28393, "osm_id": 2165018886, "name": "Yang San Bak", "longitude": -118.30057715998601, "latitude": 34.063983455071799, "type": "restaurant" }, "geometry": { "type": "Point", "coordinates": [ -118.300577159985878, 34.063983455071821 ] } },
{ "type": "Feature", "properties": { "_uid_": 28394, "osm_id": 2611795243, "name": "Los Molcajetes Restaurant", "longitude": -118.284662786076, "latitude": 34.060064460836202, "type": "restaurant" }, "geometry": { "type": "Point", "coordinates": [ -118.284662786075501, 34.060064460836244 ] } },
{ "type": "Feature", "properties": { "_uid_": 28395, "osm_id": 2247888337, "name": "All' Angolo", "longitude": -118.300735083813, "latitude": 34.068852084676003, "type": "restaurant" }, "geometry": { "type": "Point", "coordinates": [ -118.300735083812839, 34.068852084676045 ] } },
{ "type": "Feature", "properties": { "_uid_": 28396, "osm_id": 4113535399, "name": "Ocha", "longitude": -118.29528913723399, "latitude": 34.075983554557403, "type": "restaurant" }, "geometry": { "type": "Point", "coordinates": [ -118.295289137234391, 34.075983554557396 ] } },
{ "type": "Feature", "properties": { "_uid_": 28410, "osm_id": 4399334442, "name": "The Home Depot", "longitude": -118.271318402361, "latitude": 34.056965364446498, "type": "retail" }, "geometry": { "type": "Point", "coordinates": [ -118.271318402361402, 34.056965364446498 ] } },
{ "type": "Feature", "properties": { "_uid_": 28411, "osm_id": 610178494, "name": "Miramar Car Wash", "longitude": -118.27187374087001, "latitude": 34.063606305991001, "type": "retail" }, "geometry": { "type": "Point", "coordinates": [ -118.271873740870063, 34.063606305991016 ] } },
{ "type": "Feature", "properties": { "_uid_": 28413, "osm_id": 358826470, "name": "Dockweller Station Los Angeles Post Office", "longitude": -118.292019179769, "latitude": 34.0258459205889, "type": "retail" }, "geometry": { "type": "Point", "coordinates": [ -118.292019179768687, 34.025845920588935 ] } },
{ "type": "Feature", "properties": { "_uid_": 28414, "osm_id": 2514541198, "name": null, "longitude": -118.275253921621, "latitude": 34.0335395660993, "type": "retail" }, "geometry": { "type": "Point", "coordinates": [ -118.275253921621143, 34.033539566099321 ] } },
{ "type": "Feature", "properties": { "_uid_": 28415, "osm_id": 358826545, "name": "Pico Heights Station Los Angeles Post Office", "longitude": -118.290630474171, "latitude": 34.046956121245003, "type": "retail" }, "geometry": { "type": "Point", "coordinates": [ -118.290630474170953, 34.046956121245032 ] } },
{ "type": "Feature", "properties": { "_uid_": 28416, "osm_id": 3333393024, "name": null, "longitude": -118.29112544589201, "latitude": 34.0548735108, "type": "retail" }, "geometry": { "type": "Point", "coordinates": [ -118.29112544589249, 34.05487351080005 ] } },
{ "type": "Feature", "properties": { "_uid_": 28417, "osm_id": 2514541758, "name": null, "longitude": -118.276616486244, "latitude": 34.052866676013103, "type": "retail" }, "geometry": { "type": "Point", "coordinates": [ -118.276616486244109, 34.052866676013089 ] } },
{ "type": "Feature", "properties": { "_uid_": 28418, "osm_id": 358826619, "name": "Foy Station Los Angeles Post Office", "longitude": -118.27368573263, "latitude": 34.054733813892597, "type": "retail" }, "geometry": { "type": "Point", "coordinates": [ -118.273685732629659, 34.054733813892611 ] } },
{ "type": "Feature", "properties": { "_uid_": 28419, "osm_id": 3795950075, "name": "Philippine Consulate General", "longitude": -118.298589008599, "latitude": 34.062375201719497, "type": "retail" }, "geometry": { "type": "Point", "coordinates": [ -118.298589008599066, 34.062375201719497 ] } },
{ "type": "Feature", "properties": { "_uid_": 28420, "osm_id": 5112114621, "name": null, "longitude": -118.29492720600599, "latitude": 34.061981077876098, "type": "retail" }, "geometry": { "type": "Point", "coordinates": [ -118.29492720600642, 34.061981077876062 ] } },
{ "type": "Feature", "properties": { "_uid_": 28421, "osm_id": 4763661325, "name": null, "longitude": -118.29017978939299, "latitude": 34.064797653786698, "type": "retail" }, "geometry": { "type": "Point", "coordinates": [ -118.290179789392894, 34.064797653786691 ] } },
{ "type": "Feature", "properties": { "_uid_": 28422, "osm_id": 2118239695, "name": "Los Angeles County Superior Court", "longitude": -118.285182910625, "latitude": 34.063204597211602, "type": "retail" }, "geometry": { "type": "Point", "coordinates": [ -118.285182910624997, 34.063204597211623 ] } },
{ "type": "Feature", "properties": { "_uid_": 28424, "osm_id": 3884275116, "name": "Lucky 98", "longitude": -118.304314510894, "latitude": 34.043701273578897, "type": "retail" }, "geometry": { "type": "Point", "coordinates": [ -118.30431451089396, 34.043701273578883 ] } },
{ "type": "Feature", "properties": { "_uid_": 28426, "osm_id": 609065230, "name": "7-Eleven", "longitude": -118.303368045911, "latitude": 34.069229359234299, "type": "retail" }, "geometry": { "type": "Point", "coordinates": [ -118.303368045910602, 34.069229359234299 ] } },
{ "type": "Feature", "properties": { "_uid_": 28429, "osm_id": 2578244375, "name": "Ralphs", "longitude": -118.29083376292, "latitude": 34.031765316682801, "type": "retail" }, "geometry": { "type": "Point", "coordinates": [ -118.29083376291976, 34.03176531668278 ] } },
{ "type": "Feature", "properties": { "_uid_": 28430, "osm_id": 2578618942, "name": "Ralphs", "longitude": -118.290774833437, "latitude": 34.031867456329003, "type": "retail" }, "geometry": { "type": "Point", "coordinates": [ -118.290774833437112, 34.031867456328989 ] } },
{ "type": "Feature", "properties": { "_uid_": 28431, "osm_id": 2643391588, "name": "Lee's Market", "longitude": -118.280894173796, "latitude": 34.033678553482801, "type": "retail" }, "geometry": { "type": "Point", "coordinates": [ -118.280894173795559, 34.033678553482765 ] } },
{ "type": "Feature", "properties": { "_uid_": 28432, "osm_id": 4250315820, "name": "Numero Uno Markets", "longitude": -118.283693773379, "latitude": 34.0463800115892, "type": "retail" }, "geometry": { "type": "Point", "coordinates": [ -118.283693773378502, 34.046380011589164 ] } },
{ "type": "Feature", "properties": { "_uid_": 28433, "osm_id": 4399334440, "name": "Food 4 Less", "longitude": -118.27061663846099, "latitude": 34.057179406829398, "type": "retail" }, "geometry": { "type": "Point", "coordinates": [ -118.270616638461462, 34.057179406829441 ] } },
{ "type": "Feature", "properties": { "_uid_": 28434, "osm_id": 5116063525, "name": "Metro Fresh", "longitude": -118.29097884083799, "latitude": 34.0626745143352, "type": "retail" }, "geometry": { "type": "Point", "coordinates": [ -118.290978840838122, 34.062674514335235 ] } },
{ "type": "Feature", "properties": { "_uid_": 28435, "osm_id": 2163515963, "name": "Zion Market", "longitude": -118.29854184704701, "latitude": 34.063376354366298, "type": "retail" }, "geometry": { "type": "Point", "coordinates": [ -118.29854184704665, 34.063376354366277 ] } },
{ "type": "Feature", "properties": { "_uid_": 28436, "osm_id": 2026766420, "name": "Galleria Market", "longitude": -118.290933925074, "latitude": 34.065579399235503, "type": "retail" }, "geometry": { "type": "Point", "coordinates": [ -118.290933925073915, 34.065579399235489 ] } },
{ "type": "Feature", "properties": { "_uid_": 28437, "osm_id": 608957448, "name": null, "longitude": -118.291986121766, "latitude": 34.069252501662397, "type": "retail" }, "geometry": { "type": "Point", "coordinates": [ -118.291986121766229, 34.069252501662369 ] } },
{ "type": "Feature", "properties": { "_uid_": 28438, "osm_id": 3356903653, "name": "Smart & Final", "longitude": -118.278304690158, "latitude": 34.069829199998999, "type": "retail" }, "geometry": { "type": "Point", "coordinates": [ -118.278304690157555, 34.069829199998956 ] } },
{ "type": "Feature", "properties": { "_uid_": 28440, "osm_id": 4980785868, "name": "WSS Store", "longitude": -118.271526901339, "latitude": 34.053666170627899, "type": "retail" }, "geometry": { "type": "Point", "coordinates": [ -118.271526901338873, 34.053666170627899 ] } },
{ "type": "Feature", "properties": { "_uid_": 28441, "osm_id": 5116063526, "name": "Shiloh", "longitude": -118.291299090237, "latitude": 34.0623609132738, "type": "retail" }, "geometry": { "type": "Point", "coordinates": [ -118.291299090236905, 34.062360913273814 ] } },
{ "type": "Feature", "properties": { "_uid_": 28442, "osm_id": 3884274486, "name": "cricket", "longitude": -118.29103830931, "latitude": 34.045083378381598, "type": "retail" }, "geometry": { "type": "Point", "coordinates": [ -118.29103830930994, 34.045083378381605 ] } },
{ "type": "Feature", "properties": { "_uid_": 28443, "osm_id": 4436043427, "name": "3rd St Wireless Services", "longitude": -118.29459581749801, "latitude": 34.069167224388103, "type": "retail" }, "geometry": { "type": "Point", "coordinates": [ -118.29459581749812, 34.069167224388089 ] } },
{ "type": "Feature", "properties": { "_uid_": 28445, "osm_id": 5112097124, "name": "Big 5", "longitude": -118.298424167744, "latitude": 34.061590822022701, "type": "retail" }, "geometry": { "type": "Point", "coordinates": [ -118.298424167744429, 34.061590822022659 ] } },
{ "type": "Feature", "properties": { "_uid_": 28447, "osm_id": 3884274790, "name": null, "longitude": -118.304989774493, "latitude": 34.0437274748273, "type": "retail" }, "geometry": { "type": "Point", "coordinates": [ -118.304989774493023, 34.043727474827257 ] } },
{ "type": "Feature", "properties": { "_uid_": 28449, "osm_id": 4547472585, "name": null, "longitude": -118.287560481687, "latitude": 34.019064276240499, "type": "retail" }, "geometry": { "type": "Point", "coordinates": [ -118.287560481687464, 34.019064276240535 ] } },
{ "type": "Feature", "properties": { "_uid_": 28450, "osm_id": 4547472584, "name": null, "longitude": -118.28754359336, "latitude": 34.0190580218528, "type": "retail" }, "geometry": { "type": "Point", "coordinates": [ -118.287543593360141, 34.019058021852828 ] } },
{ "type": "Feature", "properties": { "_uid_": 28451, "osm_id": 4547472582, "name": null, "longitude": -118.28752320160299, "latitude": 34.019571996963101, "type": "retail" }, "geometry": { "type": "Point", "coordinates": [ -118.287523201603165, 34.019571996963052 ] } },
{ "type": "Feature", "properties": { "_uid_": 28452, "osm_id": 4547472583, "name": null, "longitude": -118.28754449167501, "latitude": 34.019583761096897, "type": "retail" }, "geometry": { "type": "Point", "coordinates": [ -118.287544491675419, 34.019583761096889 ] } },