{
"type": "FeatureCollection",
"name": "Healthcare",
"crs": { "type": "name", "properties": { "name": "urn:ogc:def:crs:OGC:1.3:CRS84" } },
"features": [
{ "type": "Feature", "properties": { "_uid_": 15, "osm_id": 1658040639, "name": null, "longitude": -112.128776111454, "latitude": 33.458943697686202, "type": "healthcare" }, "geometry": { "type": "Point", "coordinates": [ -112.128776111453661, 33.458943697686244 ] } },
{ "type": "Feature", "properties": { "_uid_": 216, "osm_id": 4507505198, "name": "Cornerstone dental care", "longitude": -112.130430628544, "latitude": 33.5257904225736, "type": "healthcare" }, "geometry": { "type": "Point", "coordinates": [ -112.130430628543948, 33.525790422573593 ] } },
{ "type": "Feature", "properties": { "_uid_": 217, "osm_id": 3221565467, "name": "Adult & Pediatric Allergy Associates", "longitude": -112.10794894108599, "latitude": 33.524406276695203, "type": "healthcare" }, "geometry": { "type": "Point", "coordinates": [ -112.107948941085922, 33.524406276695245 ] } },
{ "type": "Feature", "properties": { "_uid_": 218, "osm_id": 4784983218, "name": "Bright Now Dental", "longitude": -112.097893199796, "latitude": 33.522121485138598, "type": "healthcare" }, "geometry": { "type": "Point", "coordinates": [ -112.097893199795507, 33.522121485138612 ] } },
{ "type": "Feature", "properties": { "_uid_": 219, "osm_id": 3009696464, "name": null, "longitude": -112.10858899072601, "latitude": 33.538954689372702, "type": "healthcare" }, "geometry": { "type": "Point", "coordinates": [ -112.108588990725863, 33.538954689372687 ] } },
{ "type": "Feature", "properties": { "_uid_": 220, "osm_id": 4154616849, "name": null, "longitude": -112.13385222162999, "latitude": 33.568312058201798, "type": "healthcare" }, "geometry": { "type": "Point", "coordinates": [ -112.133852221629638, 33.568312058201847 ] } },
{ "type": "Feature", "properties": { "_uid_": 221, "osm_id": 366219662, "name": "John C Lincoln Community Health Center", "longitude": -112.073616947894, "latitude": 33.569800962962702, "type": "healthcare" }, "geometry": { "type": "Point", "coordinates": [ -112.073616947894394, 33.569800962962702 ] } },
{ "type": "Feature", "properties": { "_uid_": 222, "osm_id": 3009696468, "name": null, "longitude": -112.056575727292, "latitude": 33.538444411259903, "type": "healthcare" }, "geometry": { "type": "Point", "coordinates": [ -112.056575727291587, 33.538444411259938 ] } },
{ "type": "Feature", "properties": { "_uid_": 223, "osm_id": 2871576522, "name": "Risas Dental", "longitude": -112.1337276253, "latitude": 33.582699886940603, "type": "healthcare" }, "geometry": { "type": "Point", "coordinates": [ -112.133727625299741, 33.58269988694061 ] } },
{ "type": "Feature", "properties": { "_uid_": 814, "osm_id": 4584768309, "name": "North Valley Surgery Center", "longitude": -111.888279502915, "latitude": 33.617994755706, "type": "healthcare" }, "geometry": { "type": "Point", "coordinates": [ -111.888279502915296, 33.617994755706015 ] } },
{ "type": "Feature", "properties": { "_uid_": 815, "osm_id": 3027719247, "name": "Mayo Clinic Specialty Building", "longitude": -111.955291577322, "latitude": 33.658833120450197, "type": "healthcare" }, "geometry": { "type": "Point", "coordinates": [ -111.955291577322399, 33.658833120450232 ] } },
{ "type": "Feature", "properties": { "_uid_": 816, "osm_id": 3798855111, "name": "MCB-Phoenix", "longitude": -111.95444823893401, "latitude": 33.6585329123428, "type": "healthcare" }, "geometry": { "type": "Point", "coordinates": [ -111.954448238933679, 33.6585329123428 ] } },
{ "type": "Feature", "properties": { "_uid_": 817, "osm_id": 2707931039, "name": "Enamor Dentistry", "longitude": -111.922823229019, "latitude": 33.6266654947364, "type": "healthcare" }, "geometry": { "type": "Point", "coordinates": [ -111.922823229019286, 33.626665494736443 ] } },
{ "type": "Feature", "properties": { "_uid_": 818, "osm_id": 3916169534, "name": "Michael L. Bleeker, DMD", "longitude": -111.91719240915501, "latitude": 33.699531188939503, "type": "healthcare" }, "geometry": { "type": "Point", "coordinates": [ -111.917192409155376, 33.699531188939467 ] } },
{ "type": "Feature", "properties": { "_uid_": 1393, "osm_id": 5138299191, "name": "All in One Benso Family Dental", "longitude": -112.111532590249, "latitude": 33.710557197624503, "type": "healthcare" }, "geometry": { "type": "Point", "coordinates": [ -112.111532590248871, 33.710557197624453 ] } },
{ "type": "Feature", "properties": { "_uid_": 1595, "osm_id": 3769899533, "name": "Banfield Pet Hospital", "longitude": -111.888061212301, "latitude": 33.577533318921603, "type": "healthcare" }, "geometry": { "type": "Point", "coordinates": [ -111.888061212301253, 33.577533318921603 ] } },
{ "type": "Feature", "properties": { "_uid_": 2055, "osm_id": 3244466658, "name": "Union Hills Family Dentistry", "longitude": -112.15409117514901, "latitude": 33.655175818984397, "type": "healthcare" }, "geometry": { "type": "Point", "coordinates": [ -112.154091175149318, 33.655175818984354 ] } },
{ "type": "Feature", "properties": { "_uid_": 2321, "osm_id": 3215298518, "name": "Union Hills Family Dentistry", "longitude": -112.233609864437, "latitude": 33.653854166353199, "type": "healthcare" }, "geometry": { "type": "Point", "coordinates": [ -112.233609864436531, 33.65385416635322 ] } },
{ "type": "Feature", "properties": { "_uid_": 3116, "osm_id": 4452508380, "name": "Ingleside Animal Hospital", "longitude": -111.976129976631, "latitude": 33.479469457779302, "type": "healthcare" }, "geometry": { "type": "Point", "coordinates": [ -111.976129976631171, 33.479469457779309 ] } },
{ "type": "Feature", "properties": { "_uid_": 3592, "osm_id": 359292618, "name": "The Muhammad Ali Parkinson Center", "longitude": -112.07999013550899, "latitude": 33.481096781994097, "type": "healthcare" }, "geometry": { "type": "Point", "coordinates": [ -112.079990135509107, 33.481096781994111 ] } },
{ "type": "Feature", "properties": { "_uid_": 3593, "osm_id": 3130176066, "name": "Willo MediSpa", "longitude": -112.070911222259, "latitude": 33.485092396729598, "type": "healthcare" }, "geometry": { "type": "Point", "coordinates": [ -112.07091122225863, 33.485092396729627 ] } },
{ "type": "Feature", "properties": { "_uid_": 3594, "osm_id": 4510278503, "name": "Savon Dental", "longitude": -112.00975481603101, "latitude": 33.4802791151509, "type": "healthcare" }, "geometry": { "type": "Point", "coordinates": [ -112.009754816031048, 33.48027911515095 ] } },
{ "type": "Feature", "properties": { "_uid_": 3595, "osm_id": 722562733, "name": "Southwest Fertility Center", "longitude": -112.012489916577, "latitude": 33.485297982826303, "type": "healthcare" }, "geometry": { "type": "Point", "coordinates": [ -112.012489916576612, 33.485297982826253 ] } },
{ "type": "Feature", "properties": { "_uid_": 3596, "osm_id": 366219571, "name": "Osborn Ambulatory Surgical Center", "longitude": -112.071426406074, "latitude": 33.487100661296402, "type": "healthcare" }, "geometry": { "type": "Point", "coordinates": [ -112.071426406074067, 33.487100661296395 ] } },
{ "type": "Feature", "properties": { "_uid_": 3597, "osm_id": 4270807084, "name": "Christown Animal Hospital and Boarding", "longitude": -112.099595417427, "latitude": 33.511698553272403, "type": "healthcare" }, "geometry": { "type": "Point", "coordinates": [ -112.099595417427381, 33.511698553272375 ] } },
{ "type": "Feature", "properties": { "_uid_": 3598, "osm_id": 4197787551, "name": "Schneider Meditation", "longitude": -112.05398848944201, "latitude": 33.486876199491398, "type": "healthcare" }, "geometry": { "type": "Point", "coordinates": [ -112.053988489441807, 33.486876199491427 ] } },
{ "type": "Feature", "properties": { "_uid_": 3599, "osm_id": 4197787515, "name": "Solis Mammography", "longitude": -112.053951209358, "latitude": 33.486954416554902, "type": "healthcare" }, "geometry": { "type": "Point", "coordinates": [ -112.053951209357507, 33.48695441655493 ] } },
{ "type": "Feature", "properties": { "_uid_": 3600, "osm_id": 4197787554, "name": "Central Phoenix Women's Health Care", "longitude": -112.054254839924, "latitude": 33.487020271671398, "type": "healthcare" }, "geometry": { "type": "Point", "coordinates": [ -112.054254839923544, 33.487020271671433 ] } },
{ "type": "Feature", "properties": { "_uid_": 3601, "osm_id": 4197787512, "name": "Arizona Urology Specialist", "longitude": -112.054209025844, "latitude": 33.4870805826273, "type": "healthcare" }, "geometry": { "type": "Point", "coordinates": [ -112.05420902584406, 33.48708058262725 ] } },
{ "type": "Feature", "properties": { "_uid_": 3602, "osm_id": 4999515581, "name": "Arizona Biltmore Dentistry", "longitude": -112.01329768168, "latitude": 33.502150112286202, "type": "healthcare" }, "geometry": { "type": "Point", "coordinates": [ -112.013297681680086, 33.502150112286166 ] } },
{ "type": "Feature", "properties": { "_uid_": 6207, "osm_id": 359292535, "name": "Abrazo Health Care", "longitude": -112.06472272826601, "latitude": 33.437153323266799, "type": "healthcare" }, "geometry": { "type": "Point", "coordinates": [ -112.064722728266318, 33.437153323266777 ] } },
{ "type": "Feature", "properties": { "_uid_": 6208, "osm_id": 2469618371, "name": "CMG Care Today", "longitude": -112.07401130830399, "latitude": 33.449476685062201, "type": "healthcare" }, "geometry": { "type": "Point", "coordinates": [ -112.074011308304122, 33.449476685062173 ] } },
{ "type": "Feature", "properties": { "_uid_": 6209, "osm_id": 3736492018, "name": "Arizona Burn Foundation", "longitude": -112.065366191504, "latitude": 33.464725417176901, "type": "healthcare" }, "geometry": { "type": "Point", "coordinates": [ -112.065366191504353, 33.464725417176851 ] } },
{ "type": "Feature", "properties": { "_uid_": 6210, "osm_id": 3651779442, "name": "Western Dental", "longitude": -112.065466712985, "latitude": 33.466364184113097, "type": "healthcare" }, "geometry": { "type": "Point", "coordinates": [ -112.06546671298463, 33.466364184113132 ] } },
{ "type": "Feature", "properties": { "_uid_": 6211, "osm_id": 359292628, "name": "Prentice Eye Institute", "longitude": -112.04315858004, "latitude": 33.451883390235899, "type": "healthcare" }, "geometry": { "type": "Point", "coordinates": [ -112.043158580039503, 33.451883390235864 ] } },
{ "type": "Feature", "properties": { "_uid_": 6212, "osm_id": 3986118330, "name": "Boys and Girls Club of Metropolitan Phoenix", "longitude": -112.050304139136, "latitude": 33.4640490833049, "type": "healthcare" }, "geometry": { "type": "Point", "coordinates": [ -112.05030413913552, 33.464049083304921 ] } },
{ "type": "Feature", "properties": { "_uid_": 6213, "osm_id": 359292601, "name": "Comprehensive Health Center", "longitude": -112.028333233748, "latitude": 33.457534799938799, "type": "healthcare" }, "geometry": { "type": "Point", "coordinates": [ -112.028333233748043, 33.457534799938799 ] } },
{ "type": "Feature", "properties": { "_uid_": 6214, "osm_id": 3483473045, "name": "Arizona Pain Treatment Centers", "longitude": -112.053680007973, "latitude": 33.4653893058695, "type": "healthcare" }, "geometry": { "type": "Point", "coordinates": [ -112.053680007973227, 33.465389305869508 ] } },
{ "type": "Feature", "properties": { "_uid_": 8196, "osm_id": 3818264322, "name": "Dr Joe Gerard", "longitude": -112.01676652614999, "latitude": 33.597142408725702, "type": "healthcare" }, "geometry": { "type": "Point", "coordinates": [ -112.016766526149723, 33.597142408725702 ] } },
{ "type": "Feature", "properties": { "_uid_": 8197, "osm_id": 2477138619, "name": "Urgent Care Extra", "longitude": -112.01173209780301, "latitude": 33.640219209560399, "type": "healthcare" }, "geometry": { "type": "Point", "coordinates": [ -112.011732097802948, 33.640219209560371 ] } },
{ "type": "Feature", "properties": { "_uid_": 8980, "osm_id": 4739201369, "name": "The Little Clinic", "longitude": -112.150437906552, "latitude": 33.597811716356198, "type": "healthcare" }, "geometry": { "type": "Point", "coordinates": [ -112.150437906551872, 33.597811716356176 ] } }
]
}
