{
"type": "FeatureCollection",
"name": "Healthcare-Full",
"crs": { "type": "name", "properties": { "name": "urn:ogc:def:crs:OGC:1.3:CRS84" } },
"features": [
{ "type": "Feature", "properties": { "name": "Just 4 Kids", "reach": null }, "geometry": { "type": "Point", "coordinates": [ -112.099598, 33.516978 ] } },
{ "type": "Feature", "properties": { "name": "Otteson Family & Cosmetic Dentistry", "reach": "outside" }, "geometry": { "type": "Point", "coordinates": [ -111.855023, 33.349367 ] } },
{ "type": "Feature", "properties": { "name": "Gilbert Pediatrics", "reach": "outside" }, "geometry": { "type": "Point", "coordinates": [ -111.696689, 33.290619 ] } },
{ "type": "Feature", "properties": { "name": "Walgreens", "reach": "outside" }, "geometry": { "type": "Point", "coordinates": [ -111.726348, 33.610039 ] } },
{ "type": "Feature", "properties": { "name": "ADIO Chiropractic", "reach": "outside" }, "geometry": { "type": "Point", "coordinates": [ -112.230589, 33.610244 ] } },
{ "type": "Feature", "properties": { "name": "First Medical Plus", "reach": "outside" }, "geometry": { "type": "Point", "coordinates": [ -112.046982, 33.393051 ] } },
{ "type": "Feature", "properties": { "name": "Healthsource of Fountain Hills", "reach": "outside" }, "geometry": { "type": "Point", "coordinates": [ -111.716983, 33.608384 ] } },
{ "type": "Feature", "properties": { "name": "Brannon Reed, DDS", "reach": null }, "geometry": { "type": "Point", "coordinates": [ -111.89503, 33.639327 ] } },
{ "type": "Feature", "properties": { "name": "Encourage Empowerment", "reach": "outside" }, "geometry": { "type": "Point", "coordinates": [ -111.876064, 33.381437 ] } },
{ "type": "Feature", "properties": { "name": "Clear Vision", "reach": "outside" }, "geometry": { "type": "Point", "coordinates": [ -112.241562, 33.480489 ] } },
{ "type": "Feature", "properties": { "name": "Mesa Valley Modern Dentistry", "reach": "outside" }, "geometry": { "type": "Point", "coordinates": [ -111.840408, 33.384098 ] } },
{ "type": "Feature", "properties": { "name": "Sonora Quest Laboratories", "reach": "outside" }, "geometry": { "type": "Point", "coordinates": [ -112.260342, 33.478019 ] } },
{ "type": "Feature", "properties": { "name": "OneAccord Physical Therapy Gilbert", "reach": "outside" }, "geometry": { "type": "Point", "coordinates": [ -111.69615, 33.289734 ] } },
{ "type": "Feature", "properties": { "name": "CVS Pharmacy", "reach": "outside" }, "geometry": { "type": "Point", "coordinates": [ -112.271651, 33.709738 ] } },
{ "type": "Feature", "properties": { "name": "Valley Endodontic Specialty Group", "reach": null }, "geometry": { "type": "Point", "coordinates": [ -112.14556, 33.638773 ] } },
{ "type": "Feature", "properties": { "name": "AZ Premier Chiropractic and Rehab", "reach": "outside" }, "geometry": { "type": "Point", "coordinates": [ -111.63417, 33.24545 ] } },
{ "type": "Feature", "properties": { "name": "Ahwatukee Dentistry", "reach": "outside" }, "geometry": { "type": "Point", "coordinates": [ -111.979181, 33.308151 ] } },
{ "type": "Feature", "properties": { "name": "Ahwatukee Dental", "reach": "outside" }, "geometry": { "type": "Point", "coordinates": [ -111.976348, 33.349726 ] } },
{ "type": "Feature", "properties": { "name": "Brookstone Dental Care", "reach": null }, "geometry": { "type": "Point", "coordinates": [ -111.977285, 33.63589 ] } },
{ "type": "Feature", "properties": { "name": "Kool Smiles", "reach": null }, "geometry": { "type": "Point", "coordinates": [ -112.136836, 33.538844 ] } },
{ "type": "Feature", "properties": { "name": "Chiropractic Solutions", "reach": "outside" }, "geometry": { "type": "Point", "coordinates": [ -112.35909, 33.465348 ] } },
{ "type": "Feature", "properties": { "name": "Scottsdale Dentistry", "reach": null }, "geometry": { "type": "Point", "coordinates": [ -111.899044, 33.582839 ] } },
{ "type": "Feature", "properties": { "name": "Aesthetic Surgery Institute", "reach": null }, "geometry": { "type": "Point", "coordinates": [ -112.128635, 33.581132 ] } },
{ "type": "Feature", "properties": { "name": "Cactus Foot & Ankle", "reach": "outside" }, "geometry": { "type": "Point", "coordinates": [ -111.873973, 33.298522 ] } },
{ "type": "Feature", "properties": { "name": "Injury Chiropractic South", "reach": "outside" }, "geometry": { "type": "Point", "coordinates": [ -112.073734, 33.39193 ] } },
{ "type": "Feature", "properties": { "name": "My Family Doctor In The Valley", "reach": null }, "geometry": { "type": "Point", "coordinates": [ -111.978243, 33.586952 ] } },
{ "type": "Feature", "properties": { "name": "Center For MicroSurgical Endodontics", "reach": null }, "geometry": { "type": "Point", "coordinates": [ -111.888626, 33.584362 ] } },
{ "type": "Feature", "properties": { "name": "Phoenix Interfaith Counseling", "reach": "outside" }, "geometry": { "type": "Point", "coordinates": [ -111.926836, 33.387303 ] } },
{ "type": "Feature", "properties": { "name": "Desert View Vision North", "reach": null }, "geometry": { "type": "Point", "coordinates": [ -112.133309, 33.609244 ] } },
{ "type": "Feature", "properties": { "name": "Right at Home of Phoenix \/ West Valley, AZ", "reach": "outside" }, "geometry": { "type": "Point", "coordinates": [ -112.357092, 33.447988 ] } },
{ "type": "Feature", "properties": { "name": "Deseret Family Medicine", "reach": "outside" }, "geometry": { "type": "Point", "coordinates": [ -111.73561, 33.38959 ] } },
{ "type": "Feature", "properties": { "name": "Liu, Amy C, DDS - Modern Dental Care Pc", "reach": null }, "geometry": { "type": "Point", "coordinates": [ -112.178472, 33.637826 ] } },
{ "type": "Feature", "properties": { "name": "Gilbert Chiropractic & Wellness", "reach": "outside" }, "geometry": { "type": "Point", "coordinates": [ -111.78035, 33.37867 ] } },
{ "type": "Feature", "properties": { "name": "Comfort Dental", "reach": "outside" }, "geometry": { "type": "Point", "coordinates": [ -111.840576, 33.394728 ] } },
{ "type": "Feature", "properties": { "name": "Natural Health Chiropractic", "reach": "outside" }, "geometry": { "type": "Point", "coordinates": [ -111.859512, 33.382296 ] } },
{ "type": "Feature", "properties": { "name": "Joseph Stanley Reidhead", "reach": "outside" }, "geometry": { "type": "Point", "coordinates": [ -111.897171, 33.39307 ] } },
{ "type": "Feature", "properties": { "name": "Admire Plastic Surgery", "reach": null }, "geometry": { "type": "Point", "coordinates": [ -111.922177, 33.646694 ] } },
{ "type": "Feature", "properties": { "name": "HonorHealth Medical Group - Seventh Street", "reach": null }, "geometry": { "type": "Point", "coordinates": [ -112.063372, 33.514957 ] } },
{ "type": "Feature", "properties": { "name": "Eyesite", "reach": "outside" }, "geometry": { "type": "Point", "coordinates": [ -112.201707, 33.582743 ] } },
{ "type": "Feature", "properties": { "name": "Tru-value Denture And Dental Center", "reach": "outside" }, "geometry": { "type": "Point", "coordinates": [ -111.793872, 33.42274 ] } },
{ "type": "Feature", "properties": { "name": "Chick, Russell P, Md - Phoenix Orthopedic Group", "reach": null }, "geometry": { "type": "Point", "coordinates": [ -111.875743, 33.576902 ] } },
{ "type": "Feature", "properties": { "name": "Further Chiropractic", "reach": "outside" }, "geometry": { "type": "Point", "coordinates": [ -111.744305, 33.288289 ] } },
{ "type": "Feature", "properties": { "name": "Angela Marie Derosa", "reach": null }, "geometry": { "type": "Point", "coordinates": [ -111.882064, 33.637688 ] } },
{ "type": "Feature", "properties": { "name": "Cardiovascular Consultants, Princess Office", "reach": null }, "geometry": { "type": "Point", "coordinates": [ -111.89381, 33.644918 ] } },
{ "type": "Feature", "properties": { "name": "Sun Cities CareGivers", "reach": "outside" }, "geometry": { "type": "Point", "coordinates": [ -112.281458, 33.603031 ] } },
{ "type": "Feature", "properties": { "name": "Donald J Gass Jr, DDS", "reach": "outside" }, "geometry": { "type": "Point", "coordinates": [ -111.858144, 33.307075 ] } },
{ "type": "Feature", "properties": { "name": "Pivonka Health and Wellness", "reach": "outside" }, "geometry": { "type": "Point", "coordinates": [ -111.720525, 33.325703 ] } },
{ "type": "Feature", "properties": { "name": "Banner Good Samaritan Medical Center", "reach": null }, "geometry": { "type": "Point", "coordinates": [ -112.058066, 33.465302 ] } },
{ "type": "Feature", "properties": { "name": "District Medical Group", "reach": null }, "geometry": { "type": "Point", "coordinates": [ -112.018076, 33.480068 ] } },
{ "type": "Feature", "properties": { "name": "Laveen Urgent Care", "reach": "outside" }, "geometry": { "type": "Point", "coordinates": [ -112.167059, 33.375926 ] } },
{ "type": "Feature", "properties": { "name": "Mark Kenneth Mcalister", "reach": null }, "geometry": { "type": "Point", "coordinates": [ -112.065049, 33.640672 ] } },
{ "type": "Feature", "properties": { "name": "Moretsky Cassidy Lasik Vision Correction", "reach": "outside" }, "geometry": { "type": "Point", "coordinates": [ -111.836199, 33.422685 ] } },
{ "type": "Feature", "properties": { "name": "Trichak James S, DDS", "reach": null }, "geometry": { "type": "Point", "coordinates": [ -112.124776, 33.638541 ] } },
{ "type": "Feature", "properties": { "name": "Rajesh Daulat", "reach": "outside" }, "geometry": { "type": "Point", "coordinates": [ -112.201198, 33.609434 ] } },
{ "type": "Feature", "properties": { "name": "Synergy Dental Group", "reach": "outside" }, "geometry": { "type": "Point", "coordinates": [ -111.753934, 33.436983 ] } },
{ "type": "Feature", "properties": { "name": "Ronald Jones", "reach": "outside" }, "geometry": { "type": "Point", "coordinates": [ -111.822649, 33.319163 ] } },
{ "type": "Feature", "properties": { "name": "Lucius Nelson Butler", "reach": "outside" }, "geometry": { "type": "Point", "coordinates": [ -112.175038, 33.539937 ] } },
{ "type": "Feature", "properties": { "name": "Integrated Chiropractic", "reach": null }, "geometry": { "type": "Point", "coordinates": [ -111.927403, 33.616902 ] } },
{ "type": "Feature", "properties": { "name": "Tatum Eyecare", "reach": null }, "geometry": { "type": "Point", "coordinates": [ -111.977605, 33.636957 ] } },
{ "type": "Feature", "properties": { "name": "Paza Del Rio Eye Clinic, PC", "reach": "outside" }, "geometry": { "type": "Point", "coordinates": [ -112.263045, 33.605252 ] } },
{ "type": "Feature", "properties": { "name": "Arizona Sports Chiropractic & Wellness", "reach": null }, "geometry": { "type": "Point", "coordinates": [ -111.982277, 33.640974 ] } },
{ "type": "Feature", "properties": { "name": "Sobel Larry R, MD", "reach": null }, "geometry": { "type": "Point", "coordinates": [ -111.980325, 33.583187 ] } },
{ "type": "Feature", "properties": { "name": "Walgreens", "reach": "outside" }, "geometry": { "type": "Point", "coordinates": [ -112.36999, 33.659689 ] } },
{ "type": "Feature", "properties": { "name": "Gilbert Family Eye Center", "reach": "outside" }, "geometry": { "type": "Point", "coordinates": [ -111.725651, 33.377885 ] } },
{ "type": "Feature", "properties": { "name": "Desert Valley Advanced Pain Management", "reach": null }, "geometry": { "type": "Point", "coordinates": [ -112.122386, 33.586919 ] } },
{ "type": "Feature", "properties": { "name": "Gentle Dental Seville", "reach": "outside" }, "geometry": { "type": "Point", "coordinates": [ -111.717711, 33.234378 ] } },
{ "type": "Feature", "properties": { "name": "Ironcare Sports Therapy", "reach": null }, "geometry": { "type": "Point", "coordinates": [ -111.884911, 33.585562 ] } },
{ "type": "Feature", "properties": { "name": "Icon Orthodontics", "reach": "outside" }, "geometry": { "type": "Point", "coordinates": [ -112.359083, 33.608817 ] } },
{ "type": "Feature", "properties": { "name": "Arthritis Health", "reach": null }, "geometry": { "type": "Point", "coordinates": [ -111.884652, 33.584804 ] } },
{ "type": "Feature", "properties": { "name": "Matthew T Pagani", "reach": null }, "geometry": { "type": "Point", "coordinates": [ -111.933915, 33.480061 ] } },
{ "type": "Feature", "properties": { "name": "Phoenix Indian Center", "reach": null }, "geometry": { "type": "Point", "coordinates": [ -112.074096, 33.502705 ] } },
{ "type": "Feature", "properties": { "name": "Bodywise Chiropractic", "reach": "outside" }, "geometry": { "type": "Point", "coordinates": [ -111.940993, 33.381319 ] } },
{ "type": "Feature", "properties": { "name": "Total Medical Care", "reach": "outside" }, "geometry": { "type": "Point", "coordinates": [ -112.167868, 33.553622 ] } },
{ "type": "Feature", "properties": { "name": "Joel J. Ackerman, OD, PC", "reach": null }, "geometry": { "type": "Point", "coordinates": [ -112.064033, 33.613273 ] } },
{ "type": "Feature", "properties": { "name": "Absolutely Chiropractic", "reach": "outside" }, "geometry": { "type": "Point", "coordinates": [ -111.86258, 33.33463 ] } },
{ "type": "Feature", "properties": { "name": "CVS Pharmacy", "reach": "outside" }, "geometry": { "type": "Point", "coordinates": [ -111.842362, 33.233609 ] } },
{ "type": "Feature", "properties": { "name": "SimonMed Imaging", "reach": "outside" }, "geometry": { "type": "Point", "coordinates": [ -112.292031, 33.462951 ] } },
{ "type": "Feature", "properties": { "name": "Accucare Dental Centers PC", "reach": null }, "geometry": { "type": "Point", "coordinates": [ -111.93414, 33.583195 ] } },
{ "type": "Feature", "properties": { "name": "Valley Bone & Joint", "reach": "outside" }, "geometry": { "type": "Point", "coordinates": [ -111.728224, 33.379746 ] } },
{ "type": "Feature", "properties": { "name": "Joshua Steinberg, DMD - Jawman Dental Group", "reach": null }, "geometry": { "type": "Point", "coordinates": [ -111.92948, 33.580852 ] } },
{ "type": "Feature", "properties": { "name": "Fusion Rehabilitation", "reach": null }, "geometry": { "type": "Point", "coordinates": [ -112.030095, 33.642103 ] } },
{ "type": "Feature", "properties": { "name": "Lam, Kenny D, DDS", "reach": null }, "geometry": { "type": "Point", "coordinates": [ -112.106999, 33.712435 ] } },
{ "type": "Feature", "properties": { "name": "East Scottsdale Medical Care", "reach": "outside" }, "geometry": { "type": "Point", "coordinates": [ -111.833279, 33.581869 ] } },
{ "type": "Feature", "properties": { "name": "Fxrx", "reach": null }, "geometry": { "type": "Point", "coordinates": [ -111.937854, 33.430618 ] } },
{ "type": "Feature", "properties": { "name": "Sonora Quest Laboratories", "reach": null }, "geometry": { "type": "Point", "coordinates": [ -111.977719, 33.587954 ] } },
{ "type": "Feature", "properties": { "name": "Desert Mountain Medical", "reach": null }, "geometry": { "type": "Point", "coordinates": [ -111.98163, 33.402849 ] } },
{ "type": "Feature", "properties": { "name": "Reynaldo Perez", "reach": "outside" }, "geometry": { "type": "Point", "coordinates": [ -111.939417, 33.406141 ] } },
{ "type": "Feature", "properties": { "name": "Power Nutrition", "reach": "outside" }, "geometry": { "type": "Point", "coordinates": [ -112.339641, 33.479859 ] } },
{ "type": "Feature", "properties": { "name": "Sage Counseling", "reach": "outside" }, "geometry": { "type": "Point", "coordinates": [ -111.859021, 33.381978 ] } },
{ "type": "Feature", "properties": { "name": "West Valley Periodontics", "reach": "outside" }, "geometry": { "type": "Point", "coordinates": [ -112.337905, 33.464105 ] } },
{ "type": "Feature", "properties": { "name": "Wild West Children's Dentistry", "reach": null }, "geometry": { "type": "Point", "coordinates": [ -112.031025, 33.495364 ] } },
{ "type": "Feature", "properties": { "name": "Zen Medicinals", "reach": null }, "geometry": { "type": "Point", "coordinates": [ -111.918074, 33.497968 ] } },
{ "type": "Feature", "properties": { "name": "Marketplace Smiles Dentistry and Orthodontics", "reach": null }, "geometry": { "type": "Point", "coordinates": [ -111.97552, 33.679394 ] } },
{ "type": "Feature", "properties": { "name": "Roher Daniela PhD", "reach": "outside" }, "geometry": { "type": "Point", "coordinates": [ -111.922355, 33.826962 ] } },
{ "type": "Feature", "properties": { "name": "Pinnacle Peak Assisted Living", "reach": null }, "geometry": { "type": "Point", "coordinates": [ -111.910508, 33.698268 ] } },
{ "type": "Feature", "properties": { "name": "ATI Physical Therapy", "reach": null }, "geometry": { "type": "Point", "coordinates": [ -112.186163, 33.652982 ] } },
{ "type": "Feature", "properties": { "name": "Eye Institute At Boswell - Chrysanne Rinderknecht MD", "reach": "outside" }, "geometry": { "type": "Point", "coordinates": [ -112.287157, 33.604554 ] } },
{ "type": "Feature", "properties": { "name": "Suncrest Healthcare", "reach": "outside" }, "geometry": { "type": "Point", "coordinates": [ -112.033503, 33.392477 ] } },
{ "type": "Feature", "properties": { "name": "Rita Peck, DMD", "reach": "outside" }, "geometry": { "type": "Point", "coordinates": [ -111.777053, 33.378469 ] } },
{ "type": "Feature", "properties": { "name": "Barnet Dulaney Perkins Eye Center", "reach": "outside" }, "geometry": { "type": "Point", "coordinates": [ -111.718019, 33.394424 ] } },
{ "type": "Feature", "properties": { "name": "Wellsprings Therapy Of Gilbert", "reach": "outside" }, "geometry": { "type": "Point", "coordinates": [ -111.747457, 33.290306 ] } },
{ "type": "Feature", "properties": { "name": "IMS Urgent Care", "reach": "outside" }, "geometry": { "type": "Point", "coordinates": [ -112.00521, 33.378858 ] } },
{ "type": "Feature", "properties": { "name": "Southwest Kidney Institute", "reach": null }, "geometry": { "type": "Point", "coordinates": [ -112.169715, 33.671667 ] } },
{ "type": "Feature", "properties": { "name": "Arizona Kidney Disease & Hypertension Center", "reach": "outside" }, "geometry": { "type": "Point", "coordinates": [ -112.263296, 33.602175 ] } },
{ "type": "Feature", "properties": { "name": "Urgent Home Care", "reach": null }, "geometry": { "type": "Point", "coordinates": [ -111.994845, 33.639754 ] } },
{ "type": "Feature", "properties": { "name": "Sonora Quest Laboratories", "reach": "outside" }, "geometry": { "type": "Point", "coordinates": [ -111.699689, 33.438181 ] } },
{ "type": "Feature", "properties": { "name": "Riviera Opticare", "reach": null }, "geometry": { "type": "Point", "coordinates": [ -111.892916, 33.583173 ] } },
{ "type": "Feature", "properties": { "name": "Valley Oral Surgery", "reach": null }, "geometry": { "type": "Point", "coordinates": [ -112.065049, 33.640672 ] } },
{ "type": "Feature", "properties": { "name": "Arcadia Endodontics", "reach": null }, "geometry": { "type": "Point", "coordinates": [ -111.995914, 33.511884 ] } },
{ "type": "Feature", "properties": { "name": "Global Chiropractic", "reach": "outside" }, "geometry": { "type": "Point", "coordinates": [ -111.926018, 33.384237 ] } },
{ "type": "Feature", "properties": { "name": "North Scottsdale Pediatric Dentistry", "reach": null }, "geometry": { "type": "Point", "coordinates": [ -111.892369, 33.61463 ] } },
{ "type": "Feature", "properties": { "name": "CVS Pharmacy", "reach": "outside" }, "geometry": { "type": "Point", "coordinates": [ -111.619524, 33.365179 ] } },
{ "type": "Feature", "properties": { "name": "Arizona Institute of Foot Care Physicians", "reach": "outside" }, "geometry": { "type": "Point", "coordinates": [ -111.808415, 33.38483 ] } },
{ "type": "Feature", "properties": { "name": "Safeway Pharmacy", "reach": "outside" }, "geometry": { "type": "Point", "coordinates": [ -112.184537, 33.6128 ] } },
{ "type": "Feature", "properties": { "name": "Pediatrix", "reach": null }, "geometry": { "type": "Point", "coordinates": [ -112.117337, 33.629316 ] } },
{ "type": "Feature", "properties": { "name": "Stetson Chiropractic Clinic", "reach": null }, "geometry": { "type": "Point", "coordinates": [ -111.898799, 33.557048 ] } },
{ "type": "Feature", "properties": { "name": "Sun City Endoscopy Center", "reach": "outside" }, "geometry": { "type": "Point", "coordinates": [ -112.268549, 33.608278 ] } },
{ "type": "Feature", "properties": { "name": "Swell Farmacy", "reach": null }, "geometry": { "type": "Point", "coordinates": [ -112.013153, 33.465457 ] } },
{ "type": "Feature", "properties": { "name": "Premier Orthodontics", "reach": null }, "geometry": { "type": "Point", "coordinates": [ -112.123738, 33.581326 ] } },
{ "type": "Feature", "properties": { "name": "Opie Chiropractic Office", "reach": "outside" }, "geometry": { "type": "Point", "coordinates": [ -111.823225, 33.412501 ] } },
{ "type": "Feature", "properties": { "name": "Harris Dental - Chandler Office", "reach": "outside" }, "geometry": { "type": "Point", "coordinates": [ -111.858957, 33.259344 ] } },
{ "type": "Feature", "properties": { "name": "Cas Chiropractic Center", "reach": null }, "geometry": { "type": "Point", "coordinates": [ -112.029983, 33.504183 ] } },
{ "type": "Feature", "properties": { "name": "Scottsdale Children's Group", "reach": null }, "geometry": { "type": "Point", "coordinates": [ -111.921096, 33.581866 ] } },
{ "type": "Feature", "properties": { "name": "Premier Dentistry & Implant Center", "reach": "outside" }, "geometry": { "type": "Point", "coordinates": [ -112.256894, 33.608444 ] } },
{ "type": "Feature", "properties": { "name": "Douglas Paul Bernard", "reach": "outside" }, "geometry": { "type": "Point", "coordinates": [ -111.860075, 33.337391 ] } },
{ "type": "Feature", "properties": { "name": "CVS Pharmacy", "reach": null }, "geometry": { "type": "Point", "coordinates": [ -112.185604, 33.653782 ] } },
{ "type": "Feature", "properties": { "name": "Fountain Hills Dental Care", "reach": "outside" }, "geometry": { "type": "Point", "coordinates": [ -111.721757, 33.607793 ] } },
{ "type": "Feature", "properties": { "name": "Arizona Behavioral Health Center", "reach": null }, "geometry": { "type": "Point", "coordinates": [ -111.988801, 33.509842 ] } },
{ "type": "Feature", "properties": { "name": "Hansen Chiropractic", "reach": "outside" }, "geometry": { "type": "Point", "coordinates": [ -112.010736, 33.37892 ] } },
{ "type": "Feature", "properties": { "name": "Dr Kent Howell Dmd, Ms Prosthodontist", "reach": "outside" }, "geometry": { "type": "Point", "coordinates": [ -111.735431, 33.418 ] } },
{ "type": "Feature", "properties": { "name": "North Mesa Chiropractic", "reach": "outside" }, "geometry": { "type": "Point", "coordinates": [ -111.789669, 33.43661 ] } },
{ "type": "Feature", "properties": { "name": "Couple & Family Communication", "reach": "outside" }, "geometry": { "type": "Point", "coordinates": [ -111.915631, 33.363262 ] } },
{ "type": "Feature", "properties": { "name": "Dignity Health", "reach": null }, "geometry": { "type": "Point", "coordinates": [ -112.078559, 33.482707 ] } },
{ "type": "Feature", "properties": { "name": "Mission of Mercy", "reach": null }, "geometry": { "type": "Point", "coordinates": [ -112.065953, 33.46773 ] } },
{ "type": "Feature", "properties": { "name": "Scottsdale Healthcare", "reach": null }, "geometry": { "type": "Point", "coordinates": [ -111.898066, 33.555494 ] } },
{ "type": "Feature", "properties": { "name": "Sonora Quest Laboratories", "reach": "outside" }, "geometry": { "type": "Point", "coordinates": [ -112.172531, 33.503221 ] } },
{ "type": "Feature", "properties": { "name": "Scottsdale Eye Physicians & Surgeons", "reach": null }, "geometry": { "type": "Point", "coordinates": [ -111.917825, 33.491499 ] } },
{ "type": "Feature", "properties": { "name": "Briggs Family Dentistry", "reach": null }, "geometry": { "type": "Point", "coordinates": [ -111.931645, 33.582569 ] } },
{ "type": "Feature", "properties": { "name": "Vein Care of Arizona", "reach": "outside" }, "geometry": { "type": "Point", "coordinates": [ -112.35666, 33.654025 ] } },
{ "type": "Feature", "properties": { "name": "Walgreens", "reach": null }, "geometry": { "type": "Point", "coordinates": [ -112.111934, 33.611566 ] } },
{ "type": "Feature", "properties": { "name": "New Hope Behavioral Health Center", "reach": "outside" }, "geometry": { "type": "Point", "coordinates": [ -111.681915, 33.411499 ] } },
{ "type": "Feature", "properties": { "name": "Fry's & Fry's Marketplace", "reach": "outside" }, "geometry": { "type": "Point", "coordinates": [ -112.288435, 33.49235 ] } },
{ "type": "Feature", "properties": { "name": "Stieg & Wachtel Orthodontics", "reach": null }, "geometry": { "type": "Point", "coordinates": [ -111.924226, 33.491159 ] } },
{ "type": "Feature", "properties": { "name": "Eye Care Professionals", "reach": "outside" }, "geometry": { "type": "Point", "coordinates": [ -111.860503, 33.26397 ] } },
{ "type": "Feature", "properties": { "name": "Parkside Dental Health", "reach": "outside" }, "geometry": { "type": "Point", "coordinates": [ -111.907368, 33.320778 ] } },
{ "type": "Feature", "properties": { "name": "Hearing Solutions of Arizona", "reach": "outside" }, "geometry": { "type": "Point", "coordinates": [ -111.88583, 33.392861 ] } },
{ "type": "Feature", "properties": { "name": "Rejuvena Health & Aesthetics", "reach": null }, "geometry": { "type": "Point", "coordinates": [ -111.875573, 33.577584 ] } },
{ "type": "Feature", "properties": { "name": "Dr. Gregory T. Evangelista, MD", "reach": null }, "geometry": { "type": "Point", "coordinates": [ -111.9361, 33.5023 ] } },
{ "type": "Feature", "properties": { "name": "Banner Urgent Care", "reach": "outside" }, "geometry": { "type": "Point", "coordinates": [ -111.858835, 33.262566 ] } },
{ "type": "Feature", "properties": { "name": "Interim HealthCare of Phoenix", "reach": null }, "geometry": { "type": "Point", "coordinates": [ -112.048892, 33.551254 ] } },
{ "type": "Feature", "properties": { "name": "Carla Irene Warner", "reach": "outside" }, "geometry": { "type": "Point", "coordinates": [ -112.200209, 33.596686 ] } },
{ "type": "Feature", "properties": { "name": "CVS Pharmacy", "reach": null }, "geometry": { "type": "Point", "coordinates": [ -111.996299, 33.509309 ] } },
{ "type": "Feature", "properties": { "name": "Eye Tech Eye Associates", "reach": null }, "geometry": { "type": "Point", "coordinates": [ -112.254837, 33.651052 ] } },
{ "type": "Feature", "properties": { "name": "Weight Loss Wellness Solutions", "reach": null }, "geometry": { "type": "Point", "coordinates": [ -112.118454, 33.654249 ] } },
{ "type": "Feature", "properties": { "name": "Advanced Laser and Eye", "reach": "outside" }, "geometry": { "type": "Point", "coordinates": [ -111.761741, 33.378755 ] } },
{ "type": "Feature", "properties": { "name": "Rejuvent Medical Spa & Surgery", "reach": null }, "geometry": { "type": "Point", "coordinates": [ -111.884381, 33.639202 ] } },
{ "type": "Feature", "properties": { "name": "Arizona Natural Selections", "reach": null }, "geometry": { "type": "Point", "coordinates": [ -111.921407, 33.623232 ] } },
{ "type": "Feature", "properties": { "name": "Surgery Center of Peoria", "reach": "outside" }, "geometry": { "type": "Point", "coordinates": [ -112.263288, 33.604468 ] } },
{ "type": "Feature", "properties": { "name": "AZ Integrated Medicine", "reach": null }, "geometry": { "type": "Point", "coordinates": [ -111.915579, 33.697469 ] } },
{ "type": "Feature", "properties": { "name": "Christopher Stalberg", "reach": "outside" }, "geometry": { "type": "Point", "coordinates": [ -112.36999, 33.659689 ] } },
{ "type": "Feature", "properties": { "name": "Arise Dental", "reach": "outside" }, "geometry": { "type": "Point", "coordinates": [ -112.20129, 33.508849 ] } },
{ "type": "Feature", "properties": { "name": "Ideal Physician Weight Loss", "reach": null }, "geometry": { "type": "Point", "coordinates": [ -111.999007, 33.6401 ] } },
{ "type": "Feature", "properties": { "name": "Optima Chiropractic Center", "reach": null }, "geometry": { "type": "Point", "coordinates": [ -112.008386, 33.495351 ] } },
{ "type": "Feature", "properties": { "name": "FastMed Urgent Care", "reach": null }, "geometry": { "type": "Point", "coordinates": [ -112.111601, 33.566886 ] } },
{ "type": "Feature", "properties": { "name": "Eagle Eye Wholesalers", "reach": null }, "geometry": { "type": "Point", "coordinates": [ -112.088959, 33.457394 ] } },
{ "type": "Feature", "properties": { "name": "Scottsdale Healthcare Endocrinology Institute-Diabetes Center", "reach": null }, "geometry": { "type": "Point", "coordinates": [ -111.883782, 33.573624 ] } },
{ "type": "Feature", "properties": { "name": "Estrella Pkwy Medical Center", "reach": "outside" }, "geometry": { "type": "Point", "coordinates": [ -112.394276, 33.452361 ] } },
{ "type": "Feature", "properties": { "name": "Walgreens", "reach": "outside" }, "geometry": { "type": "Point", "coordinates": [ -111.772271, 33.307495 ] } },
{ "type": "Feature", "properties": { "name": "Daisy Mountain Dentistry", "reach": "outside" }, "geometry": { "type": "Point", "coordinates": [ -112.15051, 33.870733 ] } },
{ "type": "Feature", "properties": { "name": "Palo Verde Cancer Center - Thunderbird", "reach": "outside" }, "geometry": { "type": "Point", "coordinates": [ -112.181303, 33.606657 ] } },
{ "type": "Feature", "properties": { "name": "Arizona Pain Specialists", "reach": "outside" }, "geometry": { "type": "Point", "coordinates": [ -111.87584, 33.294715 ] } },
{ "type": "Feature", "properties": { "name": "Banner Health Center", "reach": "outside" }, "geometry": { "type": "Point", "coordinates": [ -111.856776, 33.284584 ] } },
{ "type": "Feature", "properties": { "name": "Arizona Family Vision Center", "reach": "outside" }, "geometry": { "type": "Point", "coordinates": [ -112.03111, 33.379411 ] } },
{ "type": "Feature", "properties": { "name": "Wellness Dental", "reach": "outside" }, "geometry": { "type": "Point", "coordinates": [ -111.891214, 33.320858 ] } },
{ "type": "Feature", "properties": { "name": "Bloom Reproductive Institute", "reach": null }, "geometry": { "type": "Point", "coordinates": [ -111.891164, 33.55732 ] } },
{ "type": "Feature", "properties": { "name": "Quati Makeeta", "reach": null }, "geometry": { "type": "Point", "coordinates": [ -112.03873, 33.494982 ] } },
{ "type": "Feature", "properties": { "name": "Ledesma, Paul Dr-Ledesma Foot & Ankle", "reach": null }, "geometry": { "type": "Point", "coordinates": [ -111.99551, 33.63737 ] } },
{ "type": "Feature", "properties": { "name": "Desert Run Podiatry", "reach": null }, "geometry": { "type": "Point", "coordinates": [ -112.100145, 33.499817 ] } },
{ "type": "Feature", "properties": { "name": "Banner Health Center: Urology", "reach": "outside" }, "geometry": { "type": "Point", "coordinates": [ -112.25881, 33.607104 ] } },
{ "type": "Feature", "properties": { "name": "Affiliated Arm Shoulder & Hand", "reach": null }, "geometry": { "type": "Point", "coordinates": [ -112.01579, 33.495307 ] } },
{ "type": "Feature", "properties": { "name": "Nationwide Vision", "reach": "outside" }, "geometry": { "type": "Point", "coordinates": [ -112.065294, 33.379174 ] } },
{ "type": "Feature", "properties": { "name": "Envoque MD", "reach": "outside" }, "geometry": { "type": "Point", "coordinates": [ -111.739387, 33.466997 ] } },
{ "type": "Feature", "properties": { "name": "A Cardiovascular & Arrhythmia Institute", "reach": "outside" }, "geometry": { "type": "Point", "coordinates": [ -111.611551, 33.390081 ] } },
{ "type": "Feature", "properties": { "name": "Pearle Vision", "reach": null }, "geometry": { "type": "Point", "coordinates": [ -111.89339, 33.627555 ] } },
{ "type": "Feature", "properties": { "name": "Mountain Vista Health Center", "reach": null }, "geometry": { "type": "Point", "coordinates": [ -111.924804, 33.464308 ] } },
{ "type": "Feature", "properties": { "name": "Happy Kids Pediatrics", "reach": "outside" }, "geometry": { "type": "Point", "coordinates": [ -112.083709, 33.392064 ] } },
{ "type": "Feature", "properties": { "name": "Peoria Eye Care", "reach": null }, "geometry": { "type": "Point", "coordinates": [ -112.225256, 33.680572 ] } },
{ "type": "Feature", "properties": { "name": "Hospice of The Valley", "reach": "outside" }, "geometry": { "type": "Point", "coordinates": [ -111.747147, 33.287212 ] } },
{ "type": "Feature", "properties": { "name": "Matthew Teusink DC", "reach": "outside" }, "geometry": { "type": "Point", "coordinates": [ -111.717428, 33.606236 ] } },
{ "type": "Feature", "properties": { "name": "Valley Radiologists", "reach": "outside" }, "geometry": { "type": "Point", "coordinates": [ -112.36222, 33.657628 ] } },
{ "type": "Feature", "properties": { "name": "Mercado Chiropractic of Scottsdale Ranch", "reach": null }, "geometry": { "type": "Point", "coordinates": [ -111.862561, 33.573544 ] } },
{ "type": "Feature", "properties": { "name": "James Alexander Diamond", "reach": null }, "geometry": { "type": "Point", "coordinates": [ -112.22883, 33.652127 ] } },
{ "type": "Feature", "properties": { "name": "Optical Expressions", "reach": null }, "geometry": { "type": "Point", "coordinates": [ -112.028239, 33.508606 ] } },
{ "type": "Feature", "properties": { "name": "The Natural Detox and Healing Center", "reach": "outside" }, "geometry": { "type": "Point", "coordinates": [ -111.73824, 33.366159 ] } },
{ "type": "Feature", "properties": { "name": "Pearson Dental Supply", "reach": "outside" }, "geometry": { "type": "Point", "coordinates": [ -111.976102, 33.375707 ] } },
{ "type": "Feature", "properties": { "name": "AIA Hospitalists", "reach": "outside" }, "geometry": { "type": "Point", "coordinates": [ -111.986051, 33.302691 ] } },
{ "type": "Feature", "properties": { "name": "Estrella Ear, Nose & Throat P.C.", "reach": "outside" }, "geometry": { "type": "Point", "coordinates": [ -112.370108, 33.660443 ] } },
{ "type": "Feature", "properties": { "name": "Galati Orthodontics", "reach": null }, "geometry": { "type": "Point", "coordinates": [ -111.89431, 33.64503 ] } },
{ "type": "Feature", "properties": { "name": "Acupuncture Healing Center of Az", "reach": "outside" }, "geometry": { "type": "Point", "coordinates": [ -111.755945, 33.3009 ] } },
{ "type": "Feature", "properties": { "name": "Matthew D Jones", "reach": "outside" }, "geometry": { "type": "Point", "coordinates": [ -111.757257, 33.322465 ] } },
{ "type": "Feature", "properties": { "name": "Advanced Ankle and Foot", "reach": "outside" }, "geometry": { "type": "Point", "coordinates": [ -111.686915, 33.28183 ] } },
{ "type": "Feature", "properties": { "name": "Express Urgent Care Central", "reach": null }, "geometry": { "type": "Point", "coordinates": [ -112.079374, 33.480049 ] } },
{ "type": "Feature", "properties": { "name": "East Valley Family Practice", "reach": "outside" }, "geometry": { "type": "Point", "coordinates": [ -111.754614, 33.279812 ] } },
{ "type": "Feature", "properties": { "name": "Desert Winds Retirement", "reach": "outside" }, "geometry": { "type": "Point", "coordinates": [ -112.27708, 33.66865 ] } },
{ "type": "Feature", "properties": { "name": "Valley Bone And Joint", "reach": "outside" }, "geometry": { "type": "Point", "coordinates": [ -111.748175, 33.378457 ] } },
{ "type": "Feature", "properties": { "name": "EVU Center", "reach": "outside" }, "geometry": { "type": "Point", "coordinates": [ -111.698578, 33.41358 ] } },
{ "type": "Feature", "properties": { "name": "Topical Solutions Pharmacy", "reach": null }, "geometry": { "type": "Point", "coordinates": [ -112.032471, 33.67339 ] } },
{ "type": "Feature", "properties": { "name": "Deborah Bash, MD, FACS", "reach": null }, "geometry": { "type": "Point", "coordinates": [ -111.928674, 33.621376 ] } },
{ "type": "Feature", "properties": { "name": "Pema Dental Center", "reach": "outside" }, "geometry": { "type": "Point", "coordinates": [ -111.719066, 33.389714 ] } },
{ "type": "Feature", "properties": { "name": "Precision Eyecare", "reach": null }, "geometry": { "type": "Point", "coordinates": [ -111.909869, 33.671392 ] } },
{ "type": "Feature", "properties": { "name": "Arrowhead Pediatrics", "reach": "outside" }, "geometry": { "type": "Point", "coordinates": [ -112.371735, 33.661253 ] } },
{ "type": "Feature", "properties": { "name": "Adult & Pediatric Allergy Associates, PC", "reach": null }, "geometry": { "type": "Point", "coordinates": [ -112.108027, 33.524401 ] } },
{ "type": "Feature", "properties": { "name": "Scottsdale Neurofeedback Institute", "reach": null }, "geometry": { "type": "Point", "coordinates": [ -111.907868, 33.596832 ] } },
{ "type": "Feature", "properties": { "name": "Valley Rehabilitation", "reach": "outside" }, "geometry": { "type": "Point", "coordinates": [ -112.26329, 33.606488 ] } },
{ "type": "Feature", "properties": { "name": "Paradise Valley", "reach": null }, "geometry": { "type": "Point", "coordinates": [ -112.026358, 33.593054 ] } },
{ "type": "Feature", "properties": { "name": "Hospice of the Valley", "reach": null }, "geometry": { "type": "Point", "coordinates": [ -111.925033, 33.511727 ] } },
{ "type": "Feature", "properties": { "name": "Arizona Family Health Centre", "reach": "outside" }, "geometry": { "type": "Point", "coordinates": [ -111.883965, 33.320827 ] } },
{ "type": "Feature", "properties": { "name": "Gentle Dental Deer Valley", "reach": null }, "geometry": { "type": "Point", "coordinates": [ -112.132667, 33.655232 ] } },
{ "type": "Feature", "properties": { "name": "Arizona Behavioral Counseling", "reach": null }, "geometry": { "type": "Point", "coordinates": [ -112.10023, 33.485501 ] } },
{ "type": "Feature", "properties": { "name": "Barbara's Mastectomy Boutique", "reach": null }, "geometry": { "type": "Point", "coordinates": [ -112.047959, 33.515793 ] } },
{ "type": "Feature", "properties": { "name": "Lincoln Laser Co.", "reach": null }, "geometry": { "type": "Point", "coordinates": [ -112.07064, 33.431663 ] } },
{ "type": "Feature", "properties": { "name": "Kierland Dental Arts", "reach": null }, "geometry": { "type": "Point", "coordinates": [ -111.940403, 33.625247 ] } },
{ "type": "Feature", "properties": { "name": "Southwest Diagnostic Imaging", "reach": null }, "geometry": { "type": "Point", "coordinates": [ -112.109408, 33.675626 ] } },
{ "type": "Feature", "properties": { "name": "Mesa Pediatrics Professional Association", "reach": "outside" }, "geometry": { "type": "Point", "coordinates": [ -111.9111, 33.364631 ] } },
{ "type": "Feature", "properties": { "name": "Walgreens", "reach": "outside" }, "geometry": { "type": "Point", "coordinates": [ -111.600817, 33.378269 ] } },
{ "type": "Feature", "properties": { "name": "Central Ohio Compounding Pharmacy", "reach": "outside" }, "geometry": { "type": "Point", "coordinates": [ -111.878217, 33.324113 ] } },
{ "type": "Feature", "properties": { "name": "Desert Hand Therapy", "reach": "outside" }, "geometry": { "type": "Point", "coordinates": [ -112.254626, 33.4668 ] } },
{ "type": "Feature", "properties": { "name": "Evolution Physical Therapy", "reach": null }, "geometry": { "type": "Point", "coordinates": [ -111.881425, 33.620253 ] } },
{ "type": "Feature", "properties": { "name": "Mosharrafa Plastic Surgery", "reach": null }, "geometry": { "type": "Point", "coordinates": [ -111.981866, 33.582358 ] } },
{ "type": "Feature", "properties": { "name": "Barrow Neurosurgical Associates", "reach": null }, "geometry": { "type": "Point", "coordinates": [ -112.078492, 33.480582 ] } },
{ "type": "Feature", "properties": { "name": "Arizona Dermatology Specialists", "reach": "outside" }, "geometry": { "type": "Point", "coordinates": [ -112.379825, 33.655963 ] } },
{ "type": "Feature", "properties": { "name": "Valley Eyecare Center", "reach": null }, "geometry": { "type": "Point", "coordinates": [ -112.058337, 33.552509 ] } },
{ "type": "Feature", "properties": { "name": "Arizona Biomechanics", "reach": "outside" }, "geometry": { "type": "Point", "coordinates": [ -111.945139, 33.335728 ] } },
{ "type": "Feature", "properties": { "name": "Time 4 Health", "reach": null }, "geometry": { "type": "Point", "coordinates": [ -111.878666, 33.619174 ] } },
{ "type": "Feature", "properties": { "name": "Ocotillo Foot & Ankle Centers", "reach": "outside" }, "geometry": { "type": "Point", "coordinates": [ -111.844447, 33.233477 ] } },
{ "type": "Feature", "properties": { "name": "EleMental Healing & Coaching", "reach": "outside" }, "geometry": { "type": "Point", "coordinates": [ -111.890819, 33.36354 ] } },
{ "type": "Feature", "properties": { "name": "Mission Family Medical Center", "reach": "outside" }, "geometry": { "type": "Point", "coordinates": [ -111.638354, 33.377601 ] } },
{ "type": "Feature", "properties": { "name": "Vision Wellness", "reach": "outside" }, "geometry": { "type": "Point", "coordinates": [ -112.291241, 33.465062 ] } },
{ "type": "Feature", "properties": { "name": "Artificial Limb Specialists", "reach": null }, "geometry": { "type": "Point", "coordinates": [ -112.051226, 33.548383 ] } },
{ "type": "Feature", "properties": { "name": "Scottsdale Center for Dental Health", "reach": null }, "geometry": { "type": "Point", "coordinates": [ -111.882668, 33.574529 ] } },
{ "type": "Feature", "properties": { "name": "Anantuni Family Dental", "reach": "outside" }, "geometry": { "type": "Point", "coordinates": [ -111.938287, 33.305465 ] } },
{ "type": "Feature", "properties": { "name": "Accurate Dental Care", "reach": "outside" }, "geometry": { "type": "Point", "coordinates": [ -111.871943, 33.378378 ] } },
{ "type": "Feature", "properties": { "name": "In Touch Coaching", "reach": "outside" }, "geometry": { "type": "Point", "coordinates": [ -111.744667, 33.379965 ] } },
{ "type": "Feature", "properties": { "name": "Arizona Oncology", "reach": null }, "geometry": { "type": "Point", "coordinates": [ -112.118267, 33.665436 ] } },
{ "type": "Feature", "properties": { "name": "Banner Urgent Care", "reach": null }, "geometry": { "type": "Point", "coordinates": [ -111.940262, 33.625176 ] } },
{ "type": "Feature", "properties": { "name": "The Power Company", "reach": "outside" }, "geometry": { "type": "Point", "coordinates": [ -111.887346, 33.392649 ] } },
{ "type": "Feature", "properties": { "name": "Miracle-Ear", "reach": "outside" }, "geometry": { "type": "Point", "coordinates": [ -112.375665, 33.65563 ] } },
{ "type": "Feature", "properties": { "name": "Family Planning Associates Medical Group", "reach": null }, "geometry": { "type": "Point", "coordinates": [ -112.064384, 33.463456 ] } },
{ "type": "Feature", "properties": { "name": "North Scottsdale Family Medical Center", "reach": null }, "geometry": { "type": "Point", "coordinates": [ -111.924708, 33.684559 ] } },
{ "type": "Feature", "properties": { "name": "Family First Doula Care", "reach": null }, "geometry": { "type": "Point", "coordinates": [ -112.03935, 33.701701 ] } },
{ "type": "Feature", "properties": { "name": "Amable Dental", "reach": "outside" }, "geometry": { "type": "Point", "coordinates": [ -112.218862, 33.478986 ] } },
{ "type": "Feature", "properties": { "name": "Abrazo Medical Group Parkway", "reach": null }, "geometry": { "type": "Point", "coordinates": [ -111.93977, 33.624859 ] } },
{ "type": "Feature", "properties": { "name": "Accident Chiropractic", "reach": "outside" }, "geometry": { "type": "Point", "coordinates": [ -112.071928, 33.380349 ] } },
{ "type": "Feature", "properties": { "name": "Total Sports Therapy", "reach": "outside" }, "geometry": { "type": "Point", "coordinates": [ -112.129325, 33.802368 ] } },
{ "type": "Feature", "properties": { "name": "Maricopa Ear Nose & Throat PC", "reach": "outside" }, "geometry": { "type": "Point", "coordinates": [ -111.89548, 33.392216 ] } },
{ "type": "Feature", "properties": { "name": "Arizona Vein & Laser Institute - Glendale", "reach": "outside" }, "geometry": { "type": "Point", "coordinates": [ -112.180117, 33.611704 ] } },
{ "type": "Feature", "properties": { "name": "Mondell House", "reach": "outside" }, "geometry": { "type": "Point", "coordinates": [ -112.38667, 33.640595 ] } },
{ "type": "Feature", "properties": { "name": "Academic Urology & Urogynecology of Arizona", "reach": "outside" }, "geometry": { "type": "Point", "coordinates": [ -112.362056, 33.50936 ] } },
{ "type": "Feature", "properties": { "name": "Phoenix Orthopaedic Surgeons", "reach": null }, "geometry": { "type": "Point", "coordinates": [ -112.112825, 33.624759 ] } },
{ "type": "Feature", "properties": { "name": "Banner Urgent Care", "reach": null }, "geometry": { "type": "Point", "coordinates": [ -111.926559, 33.580081 ] } },
{ "type": "Feature", "properties": { "name": "Enriqueta Porras", "reach": null }, "geometry": { "type": "Point", "coordinates": [ -112.082007, 33.480744 ] } },
{ "type": "Feature", "properties": { "name": "My Dental Assisting", "reach": "outside" }, "geometry": { "type": "Point", "coordinates": [ -111.751992, 33.38004 ] } },
{ "type": "Feature", "properties": { "name": "New Life Recovery", "reach": "outside" }, "geometry": { "type": "Point", "coordinates": [ -111.808823, 33.413325 ] } },
{ "type": "Feature", "properties": { "name": "Diagnostic X-Ray Consultation Services", "reach": "outside" }, "geometry": { "type": "Point", "coordinates": [ -112.115215, 33.798039 ] } },
{ "type": "Feature", "properties": { "name": "Arches Foot Institute", "reach": "outside" }, "geometry": { "type": "Point", "coordinates": [ -112.374581, 33.65363 ] } },
{ "type": "Feature", "properties": { "name": "Twin Pediatrics PC", "reach": "outside" }, "geometry": { "type": "Point", "coordinates": [ -112.147521, 33.867644 ] } },
{ "type": "Feature", "properties": { "name": "St Joseph's Hospital and Medical Center", "reach": null }, "geometry": { "type": "Point", "coordinates": [ -112.082418, 33.481299 ] } },
{ "type": "Feature", "properties": { "name": "William Bartel", "reach": null }, "geometry": { "type": "Point", "coordinates": [ -111.890316, 33.69705 ] } },
{ "type": "Feature", "properties": { "name": "McLaughlin, Mark Dr-Phoenix Cyber Knife Radiation Oncology", "reach": null }, "geometry": { "type": "Point", "coordinates": [ -111.981866, 33.582358 ] } },
{ "type": "Feature", "properties": { "name": "Family Care Assisted Living", "reach": null }, "geometry": { "type": "Point", "coordinates": [ -112.15339, 33.667336 ] } },
{ "type": "Feature", "properties": { "name": "Gunzy Todd R DPM", "reach": "outside" }, "geometry": { "type": "Point", "coordinates": [ -111.698578, 33.41358 ] } },
{ "type": "Feature", "properties": { "name": "Arizona Arthritis And Rheumatology", "reach": null }, "geometry": { "type": "Point", "coordinates": [ -111.982494, 33.640944 ] } },
{ "type": "Feature", "properties": { "name": "Bettina I Lehnert", "reach": null }, "geometry": { "type": "Point", "coordinates": [ -111.879372, 33.577961 ] } },
{ "type": "Feature", "properties": { "name": "Alan Lee Noelck", "reach": "outside" }, "geometry": { "type": "Point", "coordinates": [ -112.350475, 33.486524 ] } },
{ "type": "Feature", "properties": { "name": "Desert Valley Pediatrics", "reach": "outside" }, "geometry": { "type": "Point", "coordinates": [ -112.388708, 33.639871 ] } },
{ "type": "Feature", "properties": { "name": "Davis Nathan T DDS PC", "reach": "outside" }, "geometry": { "type": "Point", "coordinates": [ -111.875742, 33.31241 ] } },
{ "type": "Feature", "properties": { "name": "Klingert Chiropractic Center", "reach": null }, "geometry": { "type": "Point", "coordinates": [ -112.134377, 33.637635 ] } },
{ "type": "Feature", "properties": { "name": "Parkland Memory Care", "reach": "outside" }, "geometry": { "type": "Point", "coordinates": [ -111.842384, 33.255567 ] } },
{ "type": "Feature", "properties": { "name": "James Douglas Reade", "reach": "outside" }, "geometry": { "type": "Point", "coordinates": [ -111.883892, 33.32086 ] } },
{ "type": "Feature", "properties": { "name": "Bailey Orthodontics", "reach": "outside" }, "geometry": { "type": "Point", "coordinates": [ -112.382847, 33.636675 ] } },
{ "type": "Feature", "properties": { "name": "Nationwide Vision", "reach": "outside" }, "geometry": { "type": "Point", "coordinates": [ -111.754507, 33.365311 ] } },
{ "type": "Feature", "properties": { "name": "Eicon Dental Care", "reach": "outside" }, "geometry": { "type": "Point", "coordinates": [ -111.940272, 33.404409 ] } },
{ "type": "Feature", "properties": { "name": "Emergency Chiropractic", "reach": "outside" }, "geometry": { "type": "Point", "coordinates": [ -111.938034, 33.304979 ] } },
{ "type": "Feature", "properties": { "name": "Jane Marie Thomason", "reach": null }, "geometry": { "type": "Point", "coordinates": [ -112.199543, 33.654342 ] } },
{ "type": "Feature", "properties": { "name": "Donald J Johnson", "reach": null }, "geometry": { "type": "Point", "coordinates": [ -112.14556, 33.638773 ] } },
{ "type": "Feature", "properties": { "name": "Laveen Total Eyecare", "reach": "outside" }, "geometry": { "type": "Point", "coordinates": [ -112.16649, 33.377802 ] } },
{ "type": "Feature", "properties": { "name": "Dr. David L. Elliott, MD", "reach": null }, "geometry": { "type": "Point", "coordinates": [ -111.97848, 33.654052 ] } },
{ "type": "Feature", "properties": { "name": "Family Freedom Chiropractic", "reach": null }, "geometry": { "type": "Point", "coordinates": [ -112.030148, 33.621088 ] } },
{ "type": "Feature", "properties": { "name": "Alba Family Dental", "reach": null }, "geometry": { "type": "Point", "coordinates": [ -112.099265, 33.534153 ] } },
{ "type": "Feature", "properties": { "name": "Red Mountain Weight Loss", "reach": "outside" }, "geometry": { "type": "Point", "coordinates": [ -111.743698, 33.300145 ] } },
{ "type": "Feature", "properties": { "name": "Rock Star Acupuncture", "reach": null }, "geometry": { "type": "Point", "coordinates": [ -112.012643, 33.492958 ] } },
{ "type": "Feature", "properties": { "name": "CVS Pharmacy", "reach": "outside" }, "geometry": { "type": "Point", "coordinates": [ -111.940419, 33.421564 ] } },
{ "type": "Feature", "properties": { "name": "CVS Caremark", "reach": null }, "geometry": { "type": "Point", "coordinates": [ -111.878912, 33.576823 ] } },
{ "type": "Feature", "properties": { "name": "Perfect Teeth", "reach": null }, "geometry": { "type": "Point", "coordinates": [ -111.943303, 33.640018 ] } },
{ "type": "Feature", "properties": { "name": "Sono Bello Body Contouring & Facial Aesthetics", "reach": null }, "geometry": { "type": "Point", "coordinates": [ -111.882226, 33.63732 ] } },
{ "type": "Feature", "properties": { "name": "Michael W Harper, DDS", "reach": null }, "geometry": { "type": "Point", "coordinates": [ -112.145489, 33.638738 ] } },
{ "type": "Feature", "properties": { "name": "Northwest Clinic For Children", "reach": null }, "geometry": { "type": "Point", "coordinates": [ -112.129388, 33.626294 ] } },
{ "type": "Feature", "properties": { "name": "Source Of Health", "reach": null }, "geometry": { "type": "Point", "coordinates": [ -111.8854, 33.574578 ] } },
{ "type": "Feature", "properties": { "name": "Phoenix Va Health Care System", "reach": null }, "geometry": { "type": "Point", "coordinates": [ -112.066257, 33.494935 ] } },
{ "type": "Feature", "properties": { "name": "Camelback Pediatric Dentistry & Orthodontics", "reach": null }, "geometry": { "type": "Point", "coordinates": [ -111.986286, 33.50788 ] } },
{ "type": "Feature", "properties": { "name": "Terros", "reach": "outside" }, "geometry": { "type": "Point", "coordinates": [ -111.80454, 33.38825 ] } },
{ "type": "Feature", "properties": { "name": "Westside Endodontic Professinals", "reach": null }, "geometry": { "type": "Point", "coordinates": [ -112.229307, 33.650834 ] } },
{ "type": "Feature", "properties": { "name": "Bright Now! Dental", "reach": null }, "geometry": { "type": "Point", "coordinates": [ -112.111664, 33.567126 ] } },
{ "type": "Feature", "properties": { "name": "Sun Valley Assisted Living", "reach": null }, "geometry": { "type": "Point", "coordinates": [ -111.958133, 33.64377 ] } },
{ "type": "Feature", "properties": { "name": "HonorHealth Pulmonology", "reach": null }, "geometry": { "type": "Point", "coordinates": [ -112.07219, 33.569006 ] } },
{ "type": "Feature", "properties": { "name": "Woolaver Clearsmiles Orthodontics", "reach": "outside" }, "geometry": { "type": "Point", "coordinates": [ -111.986556, 33.320249 ] } },
{ "type": "Feature", "properties": { "name": "Chamberlain Orthodontics", "reach": "outside" }, "geometry": { "type": "Point", "coordinates": [ -111.859122, 33.261745 ] } },
{ "type": "Feature", "properties": { "name": "West Valley Vision Center", "reach": "outside" }, "geometry": { "type": "Point", "coordinates": [ -112.358718, 33.47637 ] } },
{ "type": "Feature", "properties": { "name": "Az Tech Radiology", "reach": "outside" }, "geometry": { "type": "Point", "coordinates": [ -111.885835, 33.392724 ] } },
{ "type": "Feature", "properties": { "name": "RadiX Nutrition & Wellness", "reach": null }, "geometry": { "type": "Point", "coordinates": [ -112.000772, 33.491313 ] } },
{ "type": "Feature", "properties": { "name": "Smile Today", "reach": null }, "geometry": { "type": "Point", "coordinates": [ -111.983417, 33.583207 ] } },
{ "type": "Feature", "properties": { "name": "Banner Health Clinic: Vascular Surgery", "reach": "outside" }, "geometry": { "type": "Point", "coordinates": [ -111.6854, 33.410609 ] } },
{ "type": "Feature", "properties": { "name": "Caring Quality Dentistry, Dr Tom Greco", "reach": "outside" }, "geometry": { "type": "Point", "coordinates": [ -111.702226, 33.450364 ] } },
{ "type": "Feature", "properties": { "name": "McAuliffe Timothy, OD", "reach": null }, "geometry": { "type": "Point", "coordinates": [ -112.01343, 33.600297 ] } },
{ "type": "Feature", "properties": { "name": "Casalino Chiropractic - John D Casalino DC", "reach": null }, "geometry": { "type": "Point", "coordinates": [ -112.060409, 33.509496 ] } },
{ "type": "Feature", "properties": { "name": "Sonoran Desert Eye Center", "reach": "outside" }, "geometry": { "type": "Point", "coordinates": [ -111.803547, 33.291394 ] } },
{ "type": "Feature", "properties": { "name": "Men's Vitality Center Tempe", "reach": "outside" }, "geometry": { "type": "Point", "coordinates": [ -111.922678, 33.381365 ] } },
{ "type": "Feature", "properties": { "name": "CVS Pharmacy", "reach": "outside" }, "geometry": { "type": "Point", "coordinates": [ -111.925886, 33.392243 ] } },
{ "type": "Feature", "properties": { "name": "North Scottsdale Family Dentistry", "reach": null }, "geometry": { "type": "Point", "coordinates": [ -111.884984, 33.585529 ] } },
{ "type": "Feature", "properties": { "name": "Canyon Modern Dentistry and Orthodontics", "reach": "outside" }, "geometry": { "type": "Point", "coordinates": [ -112.426354, 33.623563 ] } },
{ "type": "Feature", "properties": { "name": "Red Wing", "reach": "outside" }, "geometry": { "type": "Point", "coordinates": [ -111.721252, 33.294008 ] } },
{ "type": "Feature", "properties": { "name": "Noel William Korf", "reach": null }, "geometry": { "type": "Point", "coordinates": [ -111.885915, 33.585648 ] } },
{ "type": "Feature", "properties": { "name": "Mark C Waring, DDS", "reach": "outside" }, "geometry": { "type": "Point", "coordinates": [ -111.897169, 33.393138 ] } },
{ "type": "Feature", "properties": { "name": "America's Best Contacts & Eyeglasses", "reach": "outside" }, "geometry": { "type": "Point", "coordinates": [ -112.269022, 33.422248 ] } },
{ "type": "Feature", "properties": { "name": "Albertsons Pharmacy", "reach": "outside" }, "geometry": { "type": "Point", "coordinates": [ -111.752006, 33.423784 ] } },
{ "type": "Feature", "properties": { "name": "Spooner Physical Therapy - Fountain Hills", "reach": "outside" }, "geometry": { "type": "Point", "coordinates": [ -111.716983, 33.608384 ] } },
{ "type": "Feature", "properties": { "name": "Douglas A Clark", "reach": "outside" }, "geometry": { "type": "Point", "coordinates": [ -111.897907, 33.392603 ] } },
{ "type": "Feature", "properties": { "name": "Eddy Ob-Gyn", "reach": "outside" }, "geometry": { "type": "Point", "coordinates": [ -111.875921, 33.3006 ] } },
{ "type": "Feature", "properties": { "name": "North Mountain Dentistry", "reach": null }, "geometry": { "type": "Point", "coordinates": [ -112.048256, 33.531278 ] } },
{ "type": "Feature", "properties": { "name": "W W Orthodontics", "reach": "outside" }, "geometry": { "type": "Point", "coordinates": [ -112.36356, 33.464796 ] } },
{ "type": "Feature", "properties": { "name": "Pain Centers Nationwide", "reach": null }, "geometry": { "type": "Point", "coordinates": [ -112.249538, 33.652443 ] } },
{ "type": "Feature", "properties": { "name": "Rusty Jones Orthodontics", "reach": "outside" }, "geometry": { "type": "Point", "coordinates": [ -112.11439, 33.378053 ] } },
{ "type": "Feature", "properties": { "name": "West Valley Hospital", "reach": "outside" }, "geometry": { "type": "Point", "coordinates": [ -112.353248, 33.461872 ] } },
{ "type": "Feature", "properties": { "name": "Personalized Nutrition Concepts", "reach": null }, "geometry": { "type": "Point", "coordinates": [ -111.916404, 33.56514 ] } },
{ "type": "Feature", "properties": { "name": "Physiotherapy Associates", "reach": null }, "geometry": { "type": "Point", "coordinates": [ -111.874441, 33.577084 ] } },
{ "type": "Feature", "properties": { "name": "Alpha Dentistry", "reach": "outside" }, "geometry": { "type": "Point", "coordinates": [ -111.770583, 33.336133 ] } },
{ "type": "Feature", "properties": { "name": "Fox Steven G PhD - Steven G Fox, PhD", "reach": "outside" }, "geometry": { "type": "Point", "coordinates": [ -111.940738, 33.378538 ] } },
{ "type": "Feature", "properties": { "name": "Az Dermatology", "reach": "outside" }, "geometry": { "type": "Point", "coordinates": [ -111.73576, 33.379928 ] } },
{ "type": "Feature", "properties": { "name": "Jason D. Mccargar", "reach": null }, "geometry": { "type": "Point", "coordinates": [ -111.884992, 33.573955 ] } },
{ "type": "Feature", "properties": { "name": "Smith Dermatology", "reach": "outside" }, "geometry": { "type": "Point", "coordinates": [ -111.725951, 33.379084 ] } },
{ "type": "Feature", "properties": { "name": "Gentle Dental Thunderbird", "reach": "outside" }, "geometry": { "type": "Point", "coordinates": [ -112.176462, 33.611338 ] } },
{ "type": "Feature", "properties": { "name": "Camelback Eyecare", "reach": null }, "geometry": { "type": "Point", "coordinates": [ -112.076862, 33.50967 ] } },
{ "type": "Feature", "properties": { "name": "Perfect Teeth", "reach": "outside" }, "geometry": { "type": "Point", "coordinates": [ -111.912231, 33.347955 ] } },
{ "type": "Feature", "properties": { "name": "Paradise Valley Family Dental", "reach": null }, "geometry": { "type": "Point", "coordinates": [ -111.995337, 33.640071 ] } },
{ "type": "Feature", "properties": { "name": "Arizona Sports Medicine Center", "reach": null }, "geometry": { "type": "Point", "coordinates": [ -111.895452, 33.554248 ] } },
{ "type": "Feature", "properties": { "name": "East Valley Foot & Ankle Specialists", "reach": null }, "geometry": { "type": "Point", "coordinates": [ -111.92404, 33.48653 ] } },
{ "type": "Feature", "properties": { "name": "LensCrafters", "reach": "outside" }, "geometry": { "type": "Point", "coordinates": [ -111.802787, 33.383591 ] } },
{ "type": "Feature", "properties": { "name": "Ironwood Internal Medicine", "reach": null }, "geometry": { "type": "Point", "coordinates": [ -111.875803, 33.577211 ] } },
{ "type": "Feature", "properties": { "name": "Pathfinders Recovery Center", "reach": null }, "geometry": { "type": "Point", "coordinates": [ -111.917054, 33.614629 ] } },
{ "type": "Feature", "properties": { "name": "Therapy With Heart", "reach": null }, "geometry": { "type": "Point", "coordinates": [ -111.893291, 33.551101 ] } },
{ "type": "Feature", "properties": { "name": "Target Pharmacy", "reach": "outside" }, "geometry": { "type": "Point", "coordinates": [ -111.865178, 33.391931 ] } },
{ "type": "Feature", "properties": { "name": "Melody M Jafari", "reach": null }, "geometry": { "type": "Point", "coordinates": [ -112.004529, 33.479114 ] } },
{ "type": "Feature", "properties": { "name": "Simonmed Imaging", "reach": null }, "geometry": { "type": "Point", "coordinates": [ -111.880755, 33.574824 ] } },
{ "type": "Feature", "properties": { "name": "Valley ENT Scottsdale", "reach": null }, "geometry": { "type": "Point", "coordinates": [ -111.925677, 33.488889 ] } },
{ "type": "Feature", "properties": { "name": "Arcadia Health Care", "reach": null }, "geometry": { "type": "Point", "coordinates": [ -112.063446, 33.514924 ] } },
{ "type": "Feature", "properties": { "name": "Natural wellness care center", "reach": "outside" }, "geometry": { "type": "Point", "coordinates": [ -112.222374, 33.610551 ] } },
{ "type": "Feature", "properties": { "name": "Safeway Pharmacy", "reach": null }, "geometry": { "type": "Point", "coordinates": [ -111.910553, 33.510576 ] } },
{ "type": "Feature", "properties": { "name": "Tempe Community Acupuncture", "reach": "outside" }, "geometry": { "type": "Point", "coordinates": [ -111.959068, 33.405019 ] } },
{ "type": "Feature", "properties": { "name": "Vision Care", "reach": "outside" }, "geometry": { "type": "Point", "coordinates": [ -112.186941, 33.626186 ] } },
{ "type": "Feature", "properties": { "name": "Acuity Eye Center", "reach": "outside" }, "geometry": { "type": "Point", "coordinates": [ -111.847817, 33.378203 ] } },
{ "type": "Feature", "properties": { "name": "Suzanne Bennett", "reach": null }, "geometry": { "type": "Point", "coordinates": [ -112.185606, 33.651695 ] } },
{ "type": "Feature", "properties": { "name": "San Tan Oral Surgery", "reach": "outside" }, "geometry": { "type": "Point", "coordinates": [ -111.773685, 33.291435 ] } },
{ "type": "Feature", "properties": { "name": "Arizona Oncology", "reach": null }, "geometry": { "type": "Point", "coordinates": [ -112.033351, 33.506433 ] } },
{ "type": "Feature", "properties": { "name": "Desert West Chiropractic", "reach": "outside" }, "geometry": { "type": "Point", "coordinates": [ -112.361961, 33.484533 ] } },
{ "type": "Feature", "properties": { "name": "Scp Chiropractic", "reach": null }, "geometry": { "type": "Point", "coordinates": [ -112.038833, 33.507597 ] } },
{ "type": "Feature", "properties": { "name": "Spooner Physical Therapy - Phoenix", "reach": null }, "geometry": { "type": "Point", "coordinates": [ -112.091632, 33.51067 ] } },
{ "type": "Feature", "properties": { "name": "Deer Valley Family Dentistry", "reach": null }, "geometry": { "type": "Point", "coordinates": [ -112.117787, 33.664778 ] } },
{ "type": "Feature", "properties": { "name": "AZ Medical Weight Control", "reach": null }, "geometry": { "type": "Point", "coordinates": [ -112.064702, 33.559396 ] } },
{ "type": "Feature", "properties": { "name": "DC Canyon Health and Wellness", "reach": "outside" }, "geometry": { "type": "Point", "coordinates": [ -112.383671, 33.63785 ] } },
{ "type": "Feature", "properties": { "name": "Kaiser, Peter MD - North Valley Ent", "reach": null }, "geometry": { "type": "Point", "coordinates": [ -112.000016, 33.640049 ] } },
{ "type": "Feature", "properties": { "name": "Brent Cameron", "reach": "outside" }, "geometry": { "type": "Point", "coordinates": [ -111.752893, 33.377212 ] } },
{ "type": "Feature", "properties": { "name": "Sacred Circle Midwifery", "reach": "outside" }, "geometry": { "type": "Point", "coordinates": [ -111.797234, 33.399015 ] } },
{ "type": "Feature", "properties": { "name": "Mirna Demirdjian", "reach": "outside" }, "geometry": { "type": "Point", "coordinates": [ -111.858395, 33.377681 ] } },
{ "type": "Feature", "properties": { "name": "Gregory Lee Ellison", "reach": "outside" }, "geometry": { "type": "Point", "coordinates": [ -111.895943, 33.378067 ] } },
{ "type": "Feature", "properties": { "name": "Carolyn Beth Pace", "reach": "outside" }, "geometry": { "type": "Point", "coordinates": [ -111.883089, 33.393154 ] } },
{ "type": "Feature", "properties": { "name": "Advanced Laser Dentistry - Phoenix", "reach": null }, "geometry": { "type": "Point", "coordinates": [ -112.047259, 33.536912 ] } },
{ "type": "Feature", "properties": { "name": "Eye Styles Optical", "reach": null }, "geometry": { "type": "Point", "coordinates": [ -112.202382, 33.671769 ] } },
{ "type": "Feature", "properties": { "name": "Sonora Quest Laboratories", "reach": "outside" }, "geometry": { "type": "Point", "coordinates": [ -111.87708, 33.388724 ] } },
{ "type": "Feature", "properties": { "name": "Dynamic Living Counseling", "reach": null }, "geometry": { "type": "Point", "coordinates": [ -112.099349, 33.653253 ] } },
{ "type": "Feature", "properties": { "name": "Rauch Family Dentistry", "reach": "outside" }, "geometry": { "type": "Point", "coordinates": [ -111.784751, 33.437407 ] } },
{ "type": "Feature", "properties": { "name": "Sun City Modern Dentistry", "reach": "outside" }, "geometry": { "type": "Point", "coordinates": [ -112.263243, 33.607856 ] } },
{ "type": "Feature", "properties": { "name": "West Coast Ultrasound Institute", "reach": null }, "geometry": { "type": "Point", "coordinates": [ -111.988872, 33.509878 ] } },
{ "type": "Feature", "properties": { "name": "Southwest Jaw Surgeons", "reach": null }, "geometry": { "type": "Point", "coordinates": [ -111.925752, 33.488788 ] } },
{ "type": "Feature", "properties": { "name": "Advanced Foot & Ankle Specialists of Arizona", "reach": "outside" }, "geometry": { "type": "Point", "coordinates": [ -111.875296, 33.312813 ] } },
{ "type": "Feature", "properties": { "name": "Kinfolk Chiropractic", "reach": null }, "geometry": { "type": "Point", "coordinates": [ -111.933259, 33.495637 ] } },
{ "type": "Feature", "properties": { "name": "Noraxon USA", "reach": null }, "geometry": { "type": "Point", "coordinates": [ -111.914429, 33.628858 ] } },
{ "type": "Feature", "properties": { "name": "OSR Physical Therapy - Scottsdale", "reach": null }, "geometry": { "type": "Point", "coordinates": [ -111.881789, 33.639224 ] } },
{ "type": "Feature", "properties": { "name": "Neuromuscular Therapy", "reach": null }, "geometry": { "type": "Point", "coordinates": [ -112.040281, 33.686148 ] } },
{ "type": "Feature", "properties": { "name": "Leslie R. Fish, DDS", "reach": "outside" }, "geometry": { "type": "Point", "coordinates": [ -111.861784, 33.33588 ] } },
{ "type": "Feature", "properties": { "name": "Beljan Psychological Services", "reach": null }, "geometry": { "type": "Point", "coordinates": [ -111.896592, 33.639902 ] } },
{ "type": "Feature", "properties": { "name": "Metro Physical Therapy Scottsdale", "reach": null }, "geometry": { "type": "Point", "coordinates": [ -111.875253, 33.569445 ] } },
{ "type": "Feature", "properties": { "name": "Comprehensive Sleep Solutions", "reach": "outside" }, "geometry": { "type": "Point", "coordinates": [ -111.900684, 33.393237 ] } },
{ "type": "Feature", "properties": { "name": "Gilbert Modern Dentistry and Orthodontics", "reach": "outside" }, "geometry": { "type": "Point", "coordinates": [ -111.72122, 33.232732 ] } },
{ "type": "Feature", "properties": { "name": "Nationwide Vision", "reach": "outside" }, "geometry": { "type": "Point", "coordinates": [ -112.357989, 33.61052 ] } },
{ "type": "Feature", "properties": { "name": "West Valley Ear Nose & Throat", "reach": null }, "geometry": { "type": "Point", "coordinates": [ -112.124728, 33.638522 ] } },
{ "type": "Feature", "properties": { "name": "Allergy Associates & Lab", "reach": "outside" }, "geometry": { "type": "Point", "coordinates": [ -111.689774, 33.410094 ] } },
{ "type": "Feature", "properties": { "name": "Walgreens", "reach": null }, "geometry": { "type": "Point", "coordinates": [ -112.074633, 33.487916 ] } },
{ "type": "Feature", "properties": { "name": "Golden Apple Medicine", "reach": "outside" }, "geometry": { "type": "Point", "coordinates": [ -112.360042, 33.479677 ] } },
{ "type": "Feature", "properties": { "name": "Carlsson Pediatric & Family Practice", "reach": "outside" }, "geometry": { "type": "Point", "coordinates": [ -111.717074, 33.285246 ] } },
{ "type": "Feature", "properties": { "name": "Michael Scott Barnes", "reach": null }, "geometry": { "type": "Point", "coordinates": [ -111.924212, 33.615647 ] } },
{ "type": "Feature", "properties": { "name": "Gentle Dove Homecare Services", "reach": null }, "geometry": { "type": "Point", "coordinates": [ -112.11994, 33.588967 ] } },
{ "type": "Feature", "properties": { "name": "Target Pharmacy", "reach": "outside" }, "geometry": { "type": "Point", "coordinates": [ -111.899845, 33.295674 ] } },
{ "type": "Feature", "properties": { "name": "Rural\/Metro", "reach": "outside" }, "geometry": { "type": "Point", "coordinates": [ -111.725237, 33.610502 ] } },
{ "type": "Feature", "properties": { "name": "Natural Healing Medical Center", "reach": "outside" }, "geometry": { "type": "Point", "coordinates": [ -111.878449, 33.377265 ] } },
{ "type": "Feature", "properties": { "name": "Acupuncture Clinic & Whole", "reach": "outside" }, "geometry": { "type": "Point", "coordinates": [ -111.769333, 33.436527 ] } },
{ "type": "Feature", "properties": { "name": "Feinberg, Michael, DDS - Affiliated Pediatric Dentistry", "reach": null }, "geometry": { "type": "Point", "coordinates": [ -111.923264, 33.68467 ] } },
{ "type": "Feature", "properties": { "name": "Arcadia Personal Physicians", "reach": null }, "geometry": { "type": "Point", "coordinates": [ -111.988584, 33.509873 ] } },
{ "type": "Feature", "properties": { "name": "Douglas George Bailes", "reach": null }, "geometry": { "type": "Point", "coordinates": [ -112.154805, 33.639777 ] } },
{ "type": "Feature", "properties": { "name": "Garden Lakes Chiropractic", "reach": "outside" }, "geometry": { "type": "Point", "coordinates": [ -112.291796, 33.494866 ] } },
{ "type": "Feature", "properties": { "name": "Advanced Care Gastroenterology", "reach": null }, "geometry": { "type": "Point", "coordinates": [ -112.04267, 33.454076 ] } },
{ "type": "Feature", "properties": { "name": "Maricopa Integrated Health System", "reach": null }, "geometry": { "type": "Point", "coordinates": [ -112.026776, 33.458429 ] } },
{ "type": "Feature", "properties": { "name": "The Back Center and Associates", "reach": null }, "geometry": { "type": "Point", "coordinates": [ -111.895122, 33.640697 ] } },
{ "type": "Feature", "properties": { "name": "Scottsdale Gastroenterology Associates", "reach": null }, "geometry": { "type": "Point", "coordinates": [ -111.917364, 33.486307 ] } },
{ "type": "Feature", "properties": { "name": "Associated Dental", "reach": null }, "geometry": { "type": "Point", "coordinates": [ -112.18755, 33.637421 ] } },
{ "type": "Feature", "properties": { "name": "Couser Orthodontics", "reach": "outside" }, "geometry": { "type": "Point", "coordinates": [ -111.73592, 33.37952 ] } },
{ "type": "Feature", "properties": { "name": "Patricia Stamper", "reach": "outside" }, "geometry": { "type": "Point", "coordinates": [ -111.965569, 33.305611 ] } },
{ "type": "Feature", "properties": { "name": "Pinnacle Peak Podiatry", "reach": null }, "geometry": { "type": "Point", "coordinates": [ -111.920055, 33.699089 ] } },
{ "type": "Feature", "properties": { "name": "Michael O'Connell", "reach": null }, "geometry": { "type": "Point", "coordinates": [ -111.918181, 33.485602 ] } },
{ "type": "Feature", "properties": { "name": "Dr Hans Chinese Acupuncture Clinic", "reach": "outside" }, "geometry": { "type": "Point", "coordinates": [ -111.865058, 33.306449 ] } },
{ "type": "Feature", "properties": { "name": "Obstetrics & Gyn-Scottsdale", "reach": null }, "geometry": { "type": "Point", "coordinates": [ -111.924249, 33.486705 ] } },
{ "type": "Feature", "properties": { "name": "Banner Physical Therapy", "reach": null }, "geometry": { "type": "Point", "coordinates": [ -112.083328, 33.481965 ] } },
{ "type": "Feature", "properties": { "name": "CVS Pharmacy", "reach": null }, "geometry": { "type": "Point", "coordinates": [ -111.978611, 33.495954 ] } },
{ "type": "Feature", "properties": { "name": "Walgreens", "reach": null }, "geometry": { "type": "Point", "coordinates": [ -111.99537, 33.641133 ] } },
{ "type": "Feature", "properties": { "name": "Advanced Laser And Eye Center", "reach": "outside" }, "geometry": { "type": "Point", "coordinates": [ -111.859673, 33.234897 ] } },
{ "type": "Feature", "properties": { "name": "Tatum Highlands Medical Associates", "reach": null }, "geometry": { "type": "Point", "coordinates": [ -111.9782, 33.725326 ] } },
{ "type": "Feature", "properties": { "name": "Banner Physical Therapy", "reach": null }, "geometry": { "type": "Point", "coordinates": [ -112.045699, 33.508801 ] } },
{ "type": "Feature", "properties": { "name": "Birth Haven Birth Center", "reach": "outside" }, "geometry": { "type": "Point", "coordinates": [ -111.773355, 33.290709 ] } },
{ "type": "Feature", "properties": { "name": "Eye Doctors of Arizona", "reach": null }, "geometry": { "type": "Point", "coordinates": [ -112.011208, 33.639043 ] } },
{ "type": "Feature", "properties": { "name": "Schwartz Laser Eye Center", "reach": null }, "geometry": { "type": "Point", "coordinates": [ -111.898956, 33.583283 ] } },
{ "type": "Feature", "properties": { "name": "Nice Nice Dental", "reach": "outside" }, "geometry": { "type": "Point", "coordinates": [ -112.270143, 33.718578 ] } },
{ "type": "Feature", "properties": { "name": "Oncall Dental", "reach": "outside" }, "geometry": { "type": "Point", "coordinates": [ -111.940046, 33.393197 ] } },
{ "type": "Feature", "properties": { "name": "Orthotic and Prosthetic Care", "reach": "outside" }, "geometry": { "type": "Point", "coordinates": [ -112.263165, 33.608026 ] } },
{ "type": "Feature", "properties": { "name": "Nationwide Vision", "reach": null }, "geometry": { "type": "Point", "coordinates": [ -111.879891, 33.626699 ] } },
{ "type": "Feature", "properties": { "name": "Michael Bradley Crowley", "reach": null }, "geometry": { "type": "Point", "coordinates": [ -112.229543, 33.646149 ] } },
{ "type": "Feature", "properties": { "name": "Passport Health Gilbert", "reach": "outside" }, "geometry": { "type": "Point", "coordinates": [ -111.750529, 33.298015 ] } },
{ "type": "Feature", "properties": { "name": "NextCare Urgent Care", "reach": null }, "geometry": { "type": "Point", "coordinates": [ -112.184812, 33.653804 ] } },
{ "type": "Feature", "properties": { "name": "Sonora Quest Laboratories", "reach": "outside" }, "geometry": { "type": "Point", "coordinates": [ -111.996072, 33.297013 ] } },
{ "type": "Feature", "properties": { "name": "Villa Ocotillo Assisted Living", "reach": null }, "geometry": { "type": "Point", "coordinates": [ -111.920086, 33.486562 ] } },
{ "type": "Feature", "properties": { "name": "Anil Seetharam, MD", "reach": null }, "geometry": { "type": "Point", "coordinates": [ -112.057212, 33.463129 ] } },
{ "type": "Feature", "properties": { "name": "Sun Valley Medical", "reach": "outside" }, "geometry": { "type": "Point", "coordinates": [ -112.258879, 33.563703 ] } },
{ "type": "Feature", "properties": { "name": "Camelview Physical Therapy", "reach": null }, "geometry": { "type": "Point", "coordinates": [ -111.988945, 33.509845 ] } },
{ "type": "Feature", "properties": { "name": "Copper Heights Assisted Living", "reach": "outside" }, "geometry": { "type": "Point", "coordinates": [ -111.711017, 33.418901 ] } },
{ "type": "Feature", "properties": { "name": "OrthoSports Physical Therapy", "reach": null }, "geometry": { "type": "Point", "coordinates": [ -112.15492, 33.638581 ] } },
{ "type": "Feature", "properties": { "name": "North Valley Pediatrics", "reach": null }, "geometry": { "type": "Point", "coordinates": [ -112.065136, 33.614592 ] } },
{ "type": "Feature", "properties": { "name": "Maria Theresa Reyes", "reach": "outside" }, "geometry": { "type": "Point", "coordinates": [ -111.681035, 33.408328 ] } },
{ "type": "Feature", "properties": { "name": "Peter & Reed PC", "reach": null }, "geometry": { "type": "Point", "coordinates": [ -112.064992, 33.614589 ] } },
{ "type": "Feature", "properties": { "name": "Dynamic Systems Rehabilitation", "reach": null }, "geometry": { "type": "Point", "coordinates": [ -111.8787, 33.5786 ] } },
{ "type": "Feature", "properties": { "name": "Glendale Pediatrics", "reach": "outside" }, "geometry": { "type": "Point", "coordinates": [ -112.166593, 33.538912 ] } },
{ "type": "Feature", "properties": { "name": "Jamie Grusecki", "reach": "outside" }, "geometry": { "type": "Point", "coordinates": [ -112.333977, 33.637925 ] } },
{ "type": "Feature", "properties": { "name": "Semo Automotive", "reach": null }, "geometry": { "type": "Point", "coordinates": [ -112.019882, 33.448545 ] } },
{ "type": "Feature", "properties": { "name": "Nursecore", "reach": null }, "geometry": { "type": "Point", "coordinates": [ -112.048049, 33.538912 ] } },
{ "type": "Feature", "properties": { "name": "Freedom Plaza Care Center", "reach": "outside" }, "geometry": { "type": "Point", "coordinates": [ -112.25894, 33.608591 ] } },
{ "type": "Feature", "properties": { "name": "LasikPlus Vision Center", "reach": "outside" }, "geometry": { "type": "Point", "coordinates": [ -111.859174, 33.34705 ] } },
{ "type": "Feature", "properties": { "name": "Kerry LYNN Taylor", "reach": "outside" }, "geometry": { "type": "Point", "coordinates": [ -111.826783, 33.334808 ] } },
{ "type": "Feature", "properties": { "name": "Path4Change", "reach": "outside" }, "geometry": { "type": "Point", "coordinates": [ -112.20331, 33.63931 ] } },
{ "type": "Feature", "properties": { "name": "Dr Reeferalz", "reach": "outside" }, "geometry": { "type": "Point", "coordinates": [ -111.952788, 33.407786 ] } },
{ "type": "Feature", "properties": { "name": "CVS Pharmacy", "reach": "outside" }, "geometry": { "type": "Point", "coordinates": [ -111.910388, 33.320628 ] } },
{ "type": "Feature", "properties": { "name": "Arizona Arthritis & Rheumatology Associates PC", "reach": "outside" }, "geometry": { "type": "Point", "coordinates": [ -111.876193, 33.387507 ] } },
{ "type": "Feature", "properties": { "name": "Orthopaedic Surgical Oncology", "reach": null }, "geometry": { "type": "Point", "coordinates": [ -111.981337, 33.583068 ] } },
{ "type": "Feature", "properties": { "name": "Pearle Vision", "reach": null }, "geometry": { "type": "Point", "coordinates": [ -111.975936, 33.674029 ] } },
{ "type": "Feature", "properties": { "name": "Gateway Dental Group and Orthodontics", "reach": "outside" }, "geometry": { "type": "Point", "coordinates": [ -112.273106, 33.464068 ] } },
{ "type": "Feature", "properties": { "name": "Quail Run Behavioral Health", "reach": null }, "geometry": { "type": "Point", "coordinates": [ -112.113803, 33.677829 ] } },
{ "type": "Feature", "properties": { "name": "Sun Valley Urology PC", "reach": "outside" }, "geometry": { "type": "Point", "coordinates": [ -112.362085, 33.657353 ] } },
{ "type": "Feature", "properties": { "name": "Collin Nobu Ito", "reach": "outside" }, "geometry": { "type": "Point", "coordinates": [ -111.978402, 33.303988 ] } },
{ "type": "Feature", "properties": { "name": "Banner Health Center: Cardiology", "reach": "outside" }, "geometry": { "type": "Point", "coordinates": [ -112.25874, 33.607069 ] } },
{ "type": "Feature", "properties": { "name": "North Stapley Dental Care", "reach": "outside" }, "geometry": { "type": "Point", "coordinates": [ -111.805051, 33.421685 ] } },
{ "type": "Feature", "properties": { "name": "Desert Orthopedic Specialists", "reach": "outside" }, "geometry": { "type": "Point", "coordinates": [ -111.891293, 33.333959 ] } },
{ "type": "Feature", "properties": { "name": "Ashbrook Dental Care And Orthodontics", "reach": "outside" }, "geometry": { "type": "Point", "coordinates": [ -111.80298, 33.451087 ] } },
{ "type": "Feature", "properties": { "name": "Seville Eye Center", "reach": "outside" }, "geometry": { "type": "Point", "coordinates": [ -111.717782, 33.234414 ] } },
{ "type": "Feature", "properties": { "name": "Amber Creek", "reach": null }, "geometry": { "type": "Point", "coordinates": [ -111.883397, 33.58752 ] } },
{ "type": "Feature", "properties": { "name": "Banner Health Clinic - Sunrise Terrace", "reach": null }, "geometry": { "type": "Point", "coordinates": [ -112.242394, 33.68193 ] } },
{ "type": "Feature", "properties": { "name": "Scottsdales Dentist", "reach": null }, "geometry": { "type": "Point", "coordinates": [ -111.898674, 33.524268 ] } },
{ "type": "Feature", "properties": { "name": "Marc I Dinowitz", "reach": "outside" }, "geometry": { "type": "Point", "coordinates": [ -111.726653, 33.383143 ] } },
{ "type": "Feature", "properties": { "name": "Medcure Internal Medicine", "reach": "outside" }, "geometry": { "type": "Point", "coordinates": [ -112.353404, 33.463621 ] } },
{ "type": "Feature", "properties": { "name": "Nationwide Vision", "reach": "outside" }, "geometry": { "type": "Point", "coordinates": [ -111.857302, 33.259484 ] } },
{ "type": "Feature", "properties": { "name": "SofTouch Dental & Orthodontics", "reach": "outside" }, "geometry": { "type": "Point", "coordinates": [ -111.722933, 33.377276 ] } },
{ "type": "Feature", "properties": { "name": "Banner Urgent Care", "reach": "outside" }, "geometry": { "type": "Point", "coordinates": [ -111.718639, 33.393271 ] } },
{ "type": "Feature", "properties": { "name": "Stellar Physical Medicine", "reach": null }, "geometry": { "type": "Point", "coordinates": [ -111.880614, 33.581237 ] } },
{ "type": "Feature", "properties": { "name": "Bluestone Chiropractic", "reach": "outside" }, "geometry": { "type": "Point", "coordinates": [ -112.219936, 33.493457 ] } },
{ "type": "Feature", "properties": { "name": "CVS Pharmacy", "reach": null }, "geometry": { "type": "Point", "coordinates": [ -112.254376, 33.673731 ] } },
{ "type": "Feature", "properties": { "name": "CVS Pharmacy", "reach": null }, "geometry": { "type": "Point", "coordinates": [ -112.100406, 33.494581 ] } },
{ "type": "Feature", "properties": { "name": "Southwest Smiles", "reach": "outside" }, "geometry": { "type": "Point", "coordinates": [ -111.788956, 33.304902 ] } },
{ "type": "Feature", "properties": { "name": "Arizona Assisted Living Fdrtn", "reach": null }, "geometry": { "type": "Point", "coordinates": [ -112.030734, 33.479806 ] } },
{ "type": "Feature", "properties": { "name": "CVS Pharmacy", "reach": null }, "geometry": { "type": "Point", "coordinates": [ -112.029659, 33.4808 ] } },
{ "type": "Feature", "properties": { "name": "Planned Parenthood", "reach": "outside" }, "geometry": { "type": "Point", "coordinates": [ -111.786997, 33.392511 ] } },
{ "type": "Feature", "properties": { "name": "The Joint Chiropractic", "reach": null }, "geometry": { "type": "Point", "coordinates": [ -111.930104, 33.581184 ] } },
{ "type": "Feature", "properties": { "name": "Aventa Senior Care", "reach": null }, "geometry": { "type": "Point", "coordinates": [ -111.900913, 33.644779 ] } },
{ "type": "Feature", "properties": { "name": "Aquila Dental", "reach": "outside" }, "geometry": { "type": "Point", "coordinates": [ -111.888092, 33.259202 ] } },
{ "type": "Feature", "properties": { "name": "Scottsdale Family Dentistry and Orthodontics", "reach": null }, "geometry": { "type": "Point", "coordinates": [ -111.943232, 33.639982 ] } },
{ "type": "Feature", "properties": { "name": "Trans Zen Dental", "reach": null }, "geometry": { "type": "Point", "coordinates": [ -111.894222, 33.639757 ] } },
{ "type": "Feature", "properties": { "name": "Chandler Drugs", "reach": "outside" }, "geometry": { "type": "Point", "coordinates": [ -111.877011, 33.297892 ] } },
{ "type": "Feature", "properties": { "name": "Foothills Sports Medicine Physical Therapy", "reach": null }, "geometry": { "type": "Point", "coordinates": [ -111.924683, 33.685243 ] } },
{ "type": "Feature", "properties": { "name": "Ronald Day Morgan", "reach": "outside" }, "geometry": { "type": "Point", "coordinates": [ -112.169039, 33.502378 ] } },
{ "type": "Feature", "properties": { "name": "Gail Bass, OD", "reach": null }, "geometry": { "type": "Point", "coordinates": [ -111.953555, 33.640354 ] } },
{ "type": "Feature", "properties": { "name": "Jamie P Coffey", "reach": "outside" }, "geometry": { "type": "Point", "coordinates": [ -111.777243, 33.378552 ] } },
{ "type": "Feature", "properties": { "name": "Dental Arts of Chandler", "reach": "outside" }, "geometry": { "type": "Point", "coordinates": [ -111.860194, 33.307902 ] } },
{ "type": "Feature", "properties": { "name": "Scottsdale Sports Medicine Institute", "reach": null }, "geometry": { "type": "Point", "coordinates": [ -111.879506, 33.578238 ] } },
{ "type": "Feature", "properties": { "name": "Bustillo Physical Therapy", "reach": "outside" }, "geometry": { "type": "Point", "coordinates": [ -111.793778, 33.363945 ] } },
{ "type": "Feature", "properties": { "name": "Smith Chiropractic Center", "reach": null }, "geometry": { "type": "Point", "coordinates": [ -112.185531, 33.651796 ] } },
{ "type": "Feature", "properties": { "name": "Baio Enterprises", "reach": "outside" }, "geometry": { "type": "Point", "coordinates": [ -111.85769, 33.382981 ] } },
{ "type": "Feature", "properties": { "name": "The Compounding Center", "reach": null }, "geometry": { "type": "Point", "coordinates": [ -111.994994, 33.63962 ] } },
{ "type": "Feature", "properties": { "name": "Walgreens", "reach": "outside" }, "geometry": { "type": "Point", "coordinates": [ -111.940465, 33.406949 ] } },
{ "type": "Feature", "properties": { "name": "Center For Natural Healing", "reach": null }, "geometry": { "type": "Point", "coordinates": [ -111.927321, 33.515879 ] } },
{ "type": "Feature", "properties": { "name": "Imagine Wellness Chiropractic Center", "reach": null }, "geometry": { "type": "Point", "coordinates": [ -112.062117, 33.655922 ] } },
{ "type": "Feature", "properties": { "name": "Valley Institutes of Neurology", "reach": "outside" }, "geometry": { "type": "Point", "coordinates": [ -111.685763, 33.410514 ] } },
{ "type": "Feature", "properties": { "name": "Arizona Orthotics", "reach": null }, "geometry": { "type": "Point", "coordinates": [ -112.039176, 33.506361 ] } },
{ "type": "Feature", "properties": { "name": "The Joint ...the chiropractic place", "reach": "outside" }, "geometry": { "type": "Point", "coordinates": [ -111.977292, 33.320393 ] } },
{ "type": "Feature", "properties": { "name": "Union Hills Surgicenter", "reach": null }, "geometry": { "type": "Point", "coordinates": [ -112.229244, 33.648506 ] } },
{ "type": "Feature", "properties": { "name": "Solace Hospice", "reach": null }, "geometry": { "type": "Point", "coordinates": [ -112.124649, 33.638059 ] } },
{ "type": "Feature", "properties": { "name": "George Carr DDS & Associates", "reach": "outside" }, "geometry": { "type": "Point", "coordinates": [ -111.897098, 33.393103 ] } },
{ "type": "Feature", "properties": { "name": "UCR Health Centers", "reach": "outside" }, "geometry": { "type": "Point", "coordinates": [ -111.858344, 33.266022 ] } },
{ "type": "Feature", "properties": { "name": "Desert Mirage Surgery Center", "reach": "outside" }, "geometry": { "type": "Point", "coordinates": [ -112.325878, 33.635001 ] } },
{ "type": "Feature", "properties": { "name": "Wesley G Wilson MD", "reach": "outside" }, "geometry": { "type": "Point", "coordinates": [ -111.874898, 33.387552 ] } },
{ "type": "Feature", "properties": { "name": "Valley Hospital", "reach": null }, "geometry": { "type": "Point", "coordinates": [ -112.00533, 33.482725 ] } },
{ "type": "Feature", "properties": { "name": "Red Mountain Acupuncture", "reach": "outside" }, "geometry": { "type": "Point", "coordinates": [ -111.684644, 33.482128 ] } },
{ "type": "Feature", "properties": { "name": "Egoscue Phoenix", "reach": null }, "geometry": { "type": "Point", "coordinates": [ -112.047384, 33.54474 ] } },
{ "type": "Feature", "properties": { "name": "Stuart Posner", "reach": null }, "geometry": { "type": "Point", "coordinates": [ -112.057212, 33.463129 ] } },
{ "type": "Feature", "properties": { "name": "Scott A Simpson", "reach": null }, "geometry": { "type": "Point", "coordinates": [ -112.064801, 33.615887 ] } },
{ "type": "Feature", "properties": { "name": "Chad M. Cravatta", "reach": "outside" }, "geometry": { "type": "Point", "coordinates": [ -111.878576, 33.39283 ] } },
{ "type": "Feature", "properties": { "name": "Walgreens", "reach": null }, "geometry": { "type": "Point", "coordinates": [ -111.978489, 33.626737 ] } },
{ "type": "Feature", "properties": { "name": "Ente Bella", "reach": null }, "geometry": { "type": "Point", "coordinates": [ -111.89109, 33.557353 ] } },
{ "type": "Feature", "properties": { "name": "Classical Orthodontics", "reach": "outside" }, "geometry": { "type": "Point", "coordinates": [ -111.858769, 33.317032 ] } },
{ "type": "Feature", "properties": { "name": "Arizona Pediatric Eye Specialists", "reach": null }, "geometry": { "type": "Point", "coordinates": [ -111.983423, 33.58307 ] } },
{ "type": "Feature", "properties": { "name": "Arizona Orthodontics Studio", "reach": "outside" }, "geometry": { "type": "Point", "coordinates": [ -111.836434, 33.586896 ] } },
{ "type": "Feature", "properties": { "name": "Smile Dental Clinics", "reach": "outside" }, "geometry": { "type": "Point", "coordinates": [ -112.212341, 33.480597 ] } },
{ "type": "Feature", "properties": { "name": "Harter Acupuncture Center", "reach": null }, "geometry": { "type": "Point", "coordinates": [ -111.908373, 33.583487 ] } },
{ "type": "Feature", "properties": { "name": "Southwest Mobility", "reach": "outside" }, "geometry": { "type": "Point", "coordinates": [ -112.26934, 33.622801 ] } },
{ "type": "Feature", "properties": { "name": "Family & Cosmetic Dental", "reach": null }, "geometry": { "type": "Point", "coordinates": [ -112.168331, 33.651901 ] } },
{ "type": "Feature", "properties": { "name": "Orthopedic & Sports Physical Therapy PC", "reach": "outside" }, "geometry": { "type": "Point", "coordinates": [ -111.874914, 33.387141 ] } },
{ "type": "Feature", "properties": { "name": "Dr. Regina M. Wright, MD", "reach": "outside" }, "geometry": { "type": "Point", "coordinates": [ -111.908326, 33.384875 ] } },
{ "type": "Feature", "properties": { "name": "Integrative Health Institute", "reach": null }, "geometry": { "type": "Point", "coordinates": [ -111.916026, 33.6959 ] } },
{ "type": "Feature", "properties": { "name": "All American Eyeglass Repair", "reach": null }, "geometry": { "type": "Point", "coordinates": [ -112.25135, 33.639639 ] } },
{ "type": "Feature", "properties": { "name": "Guy Thomas Mcdougal", "reach": "outside" }, "geometry": { "type": "Point", "coordinates": [ -111.787911, 33.39486 ] } },
{ "type": "Feature", "properties": { "name": "Rebound Physical Therapy & Sports Rehabilitation", "reach": null }, "geometry": { "type": "Point", "coordinates": [ -111.919509, 33.700208 ] } },
{ "type": "Feature", "properties": { "name": "Legacy Home Care", "reach": "outside" }, "geometry": { "type": "Point", "coordinates": [ -111.891286, 33.362588 ] } },
{ "type": "Feature", "properties": { "name": "Southwest Network", "reach": null }, "geometry": { "type": "Point", "coordinates": [ -112.056009, 33.505962 ] } },
{ "type": "Feature", "properties": { "name": "Foothills Neurology", "reach": "outside" }, "geometry": { "type": "Point", "coordinates": [ -111.985977, 33.302922 ] } },
{ "type": "Feature", "properties": { "name": "Bennett Family Medicine", "reach": null }, "geometry": { "type": "Point", "coordinates": [ -112.185438, 33.652376 ] } },
{ "type": "Feature", "properties": { "name": "Pinnacle Care Internal Medicine", "reach": "outside" }, "geometry": { "type": "Point", "coordinates": [ -112.261765, 33.608997 ] } },
{ "type": "Feature", "properties": { "name": "Arizona Neurosurgery and Spine Specialists", "reach": "outside" }, "geometry": { "type": "Point", "coordinates": [ -112.255685, 33.608049 ] } },
{ "type": "Feature", "properties": { "name": "AZMulticare", "reach": null }, "geometry": { "type": "Point", "coordinates": [ -111.86144, 33.63796 ] } },
{ "type": "Feature", "properties": { "name": "Tinnitus & Hyperacusis Center of Arizona", "reach": "outside" }, "geometry": { "type": "Point", "coordinates": [ -111.899299, 33.393794 ] } },
{ "type": "Feature", "properties": { "name": "Somer Dental", "reach": "outside" }, "geometry": { "type": "Point", "coordinates": [ -112.224485, 33.420907 ] } },
{ "type": "Feature", "properties": { "name": "Thompson Peak Medical Plaza", "reach": null }, "geometry": { "type": "Point", "coordinates": [ -111.920486, 33.670521 ] } },
{ "type": "Feature", "properties": { "name": "McDowell Mountain Ranch Dentistry", "reach": null }, "geometry": { "type": "Point", "coordinates": [ -111.854894, 33.627229 ] } },
{ "type": "Feature", "properties": { "name": "Michael W. Golding, DDS", "reach": null }, "geometry": { "type": "Point", "coordinates": [ -111.996126, 33.511991 ] } },
{ "type": "Feature", "properties": { "name": "Frederick M. Nester", "reach": "outside" }, "geometry": { "type": "Point", "coordinates": [ -112.236493, 33.609878 ] } },
{ "type": "Feature", "properties": { "name": "A To Z Dental", "reach": "outside" }, "geometry": { "type": "Point", "coordinates": [ -112.204945, 33.523426 ] } },
{ "type": "Feature", "properties": { "name": "Poff Spine and Joint", "reach": "outside" }, "geometry": { "type": "Point", "coordinates": [ -111.975026, 33.350525 ] } },
{ "type": "Feature", "properties": { "name": "Eye Consultants of Arizona", "reach": "outside" }, "geometry": { "type": "Point", "coordinates": [ -111.884969, 33.320846 ] } },
{ "type": "Feature", "properties": { "name": "Entegrity Ear Nose & Throat Specialists", "reach": null }, "geometry": { "type": "Point", "coordinates": [ -111.930684, 33.652083 ] } },
{ "type": "Feature", "properties": { "name": "Palm Valley Oral Surgery", "reach": "outside" }, "geometry": { "type": "Point", "coordinates": [ -112.359161, 33.465383 ] } },
{ "type": "Feature", "properties": { "name": "Arizona Pain Specialists", "reach": null }, "geometry": { "type": "Point", "coordinates": [ -111.882739, 33.574564 ] } },
{ "type": "Feature", "properties": { "name": "Wexler Scott DDS", "reach": null }, "geometry": { "type": "Point", "coordinates": [ -111.878669, 33.619105 ] } },
{ "type": "Feature", "properties": { "name": "Phoenix Dental Design", "reach": null }, "geometry": { "type": "Point", "coordinates": [ -112.050803, 33.516663 ] } },
{ "type": "Feature", "properties": { "name": "Banner Urgent Care", "reach": "outside" }, "geometry": { "type": "Point", "coordinates": [ -111.908747, 33.394652 ] } },
{ "type": "Feature", "properties": { "name": "Dawn Cohen", "reach": null }, "geometry": { "type": "Point", "coordinates": [ -112.098892, 33.516613 ] } },
{ "type": "Feature", "properties": { "name": "Classic Dental Care", "reach": "outside" }, "geometry": { "type": "Point", "coordinates": [ -111.738436, 33.335506 ] } },
{ "type": "Feature", "properties": { "name": "The Little Clinic", "reach": "outside" }, "geometry": { "type": "Point", "coordinates": [ -112.35564, 33.510055 ] } },
{ "type": "Feature", "properties": { "name": "The Little Clinic", "reach": "outside" }, "geometry": { "type": "Point", "coordinates": [ -112.339281, 33.462969 ] } },
{ "type": "Feature", "properties": { "name": "Phoenix Neurology & Sleep Medicine", "reach": "outside" }, "geometry": { "type": "Point", "coordinates": [ -112.360352, 33.478996 ] } },
{ "type": "Feature", "properties": { "name": "Albertsons Pharmacy", "reach": "outside" }, "geometry": { "type": "Point", "coordinates": [ -111.687705, 33.265515 ] } },
{ "type": "Feature", "properties": { "name": "Activator Methods International", "reach": null }, "geometry": { "type": "Point", "coordinates": [ -111.998432, 33.422404 ] } },
{ "type": "Feature", "properties": { "name": "CVS Pharmacy", "reach": "outside" }, "geometry": { "type": "Point", "coordinates": [ -112.136222, 33.843544 ] } },
{ "type": "Feature", "properties": { "name": "Walman Eye Centers", "reach": "outside" }, "geometry": { "type": "Point", "coordinates": [ -112.288083, 33.604807 ] } },
{ "type": "Feature", "properties": { "name": "Simon Dental Care", "reach": "outside" }, "geometry": { "type": "Point", "coordinates": [ -111.864453, 33.390238 ] } },
{ "type": "Feature", "properties": { "name": "Brett F. Sperbeck", "reach": "outside" }, "geometry": { "type": "Point", "coordinates": [ -111.857163, 33.306439 ] } },
{ "type": "Feature", "properties": { "name": "Southeast Valley Urology PC", "reach": "outside" }, "geometry": { "type": "Point", "coordinates": [ -111.74753, 33.37841 ] } },
{ "type": "Feature", "properties": { "name": "Encompass Health Rehabilitation Hospital of Scottsdale", "reach": null }, "geometry": { "type": "Point", "coordinates": [ -111.872839, 33.583253 ] } },
{ "type": "Feature", "properties": { "name": "Krasemann Mark OD", "reach": "outside" }, "geometry": { "type": "Point", "coordinates": [ -111.658559, 33.415041 ] } },
{ "type": "Feature", "properties": { "name": "Banner Urgent Care", "reach": null }, "geometry": { "type": "Point", "coordinates": [ -112.152027, 33.552306 ] } },
{ "type": "Feature", "properties": { "name": "Mbi", "reach": "outside" }, "geometry": { "type": "Point", "coordinates": [ -112.186209, 33.624498 ] } },
{ "type": "Feature", "properties": { "name": "Market Street Dental", "reach": null }, "geometry": { "type": "Point", "coordinates": [ -111.887909, 33.675138 ] } },
{ "type": "Feature", "properties": { "name": "Implants & Periodental Art", "reach": "outside" }, "geometry": { "type": "Point", "coordinates": [ -111.90736, 33.320984 ] } },
{ "type": "Feature", "properties": { "name": "Madeira Villa Assisted Living", "reach": "outside" }, "geometry": { "type": "Point", "coordinates": [ -111.899988, 33.326129 ] } },
{ "type": "Feature", "properties": { "name": "Grand Canyon Family Medicine", "reach": "outside" }, "geometry": { "type": "Point", "coordinates": [ -111.774102, 33.219705 ] } },
{ "type": "Feature", "properties": { "name": "Eye Institute at Boswell", "reach": "outside" }, "geometry": { "type": "Point", "coordinates": [ -112.287016, 33.604483 ] } },
{ "type": "Feature", "properties": { "name": "ADL Solutions", "reach": "outside" }, "geometry": { "type": "Point", "coordinates": [ -111.952664, 33.399558 ] } },
{ "type": "Feature", "properties": { "name": "Tatum Ridge Internal Medicine", "reach": null }, "geometry": { "type": "Point", "coordinates": [ -111.97848, 33.654052 ] } },
{ "type": "Feature", "properties": { "name": "Weight Watchers", "reach": "outside" }, "geometry": { "type": "Point", "coordinates": [ -112.166558, 33.596565 ] } },
{ "type": "Feature", "properties": { "name": "Fry's Pharmacy", "reach": "outside" }, "geometry": { "type": "Point", "coordinates": [ -111.825197, 33.217294 ] } },
{ "type": "Feature", "properties": { "name": "Rightsource-Humana Pharmacy", "reach": "outside" }, "geometry": { "type": "Point", "coordinates": [ -112.154292, 33.438256 ] } },
{ "type": "Feature", "properties": { "name": "CVS Pharmacy", "reach": "outside" }, "geometry": { "type": "Point", "coordinates": [ -111.964317, 33.799927 ] } },
{ "type": "Feature", "properties": { "name": "Talus Inmotion Foot And Ankle", "reach": null }, "geometry": { "type": "Point", "coordinates": [ -111.925033, 33.511727 ] } },
{ "type": "Feature", "properties": { "name": "Align Chiropractic & Massage", "reach": "outside" }, "geometry": { "type": "Point", "coordinates": [ -112.389238, 33.639092 ] } },
{ "type": "Feature", "properties": { "name": "Apex Endodontics", "reach": "outside" }, "geometry": { "type": "Point", "coordinates": [ -111.809235, 33.384057 ] } },
{ "type": "Feature", "properties": { "name": "Az Perio", "reach": null }, "geometry": { "type": "Point", "coordinates": [ -112.07418, 33.514249 ] } },
{ "type": "Feature", "properties": { "name": "Heart & Vascular Center of Arizona", "reach": null }, "geometry": { "type": "Point", "coordinates": [ -112.064384, 33.463456 ] } },
{ "type": "Feature", "properties": { "name": "Daniel A Meline", "reach": null },