{
"type": "FeatureCollection",
"name": "Healthcare",
"crs": { "type": "name", "properties": { "name": "urn:ogc:def:crs:OGC:1.3:CRS84" } },
"features": [
{ "type": "Feature", "properties": { "_uid_": 2, "osm_id": 3333031408, "name": "King Chiropractic", "longitude": -122.676484797801, "latitude": 45.490566091488198, "type": "healthcare", "layer": "2813 Southeast Colt Drive", "path": "\/Users\/jasonsankovic\/Downloads\/2813 Southeast Colt Drive.geojson" }, "geometry": { "type": "Point", "coordinates": [ -122.676484797801251, 45.490566091488169 ] } },
{ "type": "Feature", "properties": { "_uid_": 3, "osm_id": 3343277819, "name": "Jackie Paris", "longitude": -122.67565574262601, "latitude": 45.490602175750098, "type": "healthcare", "layer": "2813 Southeast Colt Drive", "path": "\/Users\/jasonsankovic\/Downloads\/2813 Southeast Colt Drive.geojson" }, "geometry": { "type": "Point", "coordinates": [ -122.675655742625523, 45.490602175750134 ] } },
{ "type": "Feature", "properties": { "_uid_": 4, "osm_id": 3343277811, "name": "Dino Paris", "longitude": -122.675654035826, "latitude": 45.490645564997898, "type": "healthcare", "layer": "2813 Southeast Colt Drive", "path": "\/Users\/jasonsankovic\/Downloads\/2813 Southeast Colt Drive.geojson" }, "geometry": { "type": "Point", "coordinates": [ -122.675654035826469, 45.490645564997855 ] } },
{ "type": "Feature", "properties": { "_uid_": 5, "osm_id": 3343277821, "name": "Jennifer Fletcher", "longitude": -122.67565071206, "latitude": 45.490732406367201, "type": "healthcare", "layer": "2813 Southeast Colt Drive", "path": "\/Users\/jasonsankovic\/Downloads\/2813 Southeast Colt Drive.geojson" }, "geometry": { "type": "Point", "coordinates": [ -122.675650712059934, 45.490732406367151 ] } },
{ "type": "Feature", "properties": { "_uid_": 6, "osm_id": 4850594695, "name": "Invisible Grace", "longitude": -122.676016595875, "latitude": 45.491060374594703, "type": "healthcare", "layer": "2813 Southeast Colt Drive", "path": "\/Users\/jasonsankovic\/Downloads\/2813 Southeast Colt Drive.geojson" }, "geometry": { "type": "Point", "coordinates": [ -122.67601659587514, 45.491060374594717 ] } },
{ "type": "Feature", "properties": { "_uid_": 7, "osm_id": 3343277818, "name": "Cascade Nutrition Therapy", "longitude": -122.676351667476, "latitude": 45.492645086634901, "type": "healthcare", "layer": "2813 Southeast Colt Drive", "path": "\/Users\/jasonsankovic\/Downloads\/2813 Southeast Colt Drive.geojson" }, "geometry": { "type": "Point", "coordinates": [ -122.676351667476112, 45.492645086634909 ] } },
{ "type": "Feature", "properties": { "_uid_": 8, "osm_id": 3343277820, "name": "Jeff W. Ryder", "longitude": -122.674794078605, "latitude": 45.494197072540601, "type": "healthcare", "layer": "2813 Southeast Colt Drive", "path": "\/Users\/jasonsankovic\/Downloads\/2813 Southeast Colt Drive.geojson" }, "geometry": { "type": "Point", "coordinates": [ -122.67479407860499, 45.494197072540601 ] } },
{ "type": "Feature", "properties": { "_uid_": 9, "osm_id": 3343277815, "name": "Hamburg Chiropractic", "longitude": -122.674817165308, "latitude": 45.494242159213997, "type": "healthcare", "layer": "2813 Southeast Colt Drive", "path": "\/Users\/jasonsankovic\/Downloads\/2813 Southeast Colt Drive.geojson" }, "geometry": { "type": "Point", "coordinates": [ -122.6748171653078, 45.494242159213982 ] } },
{ "type": "Feature", "properties": { "_uid_": 10, "osm_id": 3343277831, "name": "Susan Kiley", "longitude": -122.67468367565699, "latitude": 45.494204314117702, "type": "healthcare", "layer": "2813 Southeast Colt Drive", "path": "\/Users\/jasonsankovic\/Downloads\/2813 Southeast Colt Drive.geojson" }, "geometry": { "type": "Point", "coordinates": [ -122.674683675656581, 45.494204314117667 ] } },
{ "type": "Feature", "properties": { "_uid_": 11, "osm_id": 3343277826, "name": "Nina A. Meledandri", "longitude": -122.67470550471801, "latitude": 45.494235862194699, "type": "healthcare", "layer": "2813 Southeast Colt Drive", "path": "\/Users\/jasonsankovic\/Downloads\/2813 Southeast Colt Drive.geojson" }, "geometry": { "type": "Point", "coordinates": [ -122.674705504717977, 45.494235862194728 ] } },
{ "type": "Feature", "properties": { "_uid_": 12, "osm_id": 3343277814, "name": "Gudmestad", "longitude": -122.67539693799201, "latitude": 45.494745981442598, "type": "healthcare", "layer": "2813 Southeast Colt Drive", "path": "\/Users\/jasonsankovic\/Downloads\/2813 Southeast Colt Drive.geojson" }, "geometry": { "type": "Point", "coordinates": [ -122.675396937992176, 45.494745981442584 ] } },
{ "type": "Feature", "properties": { "_uid_": 13, "osm_id": 3343277829, "name": "Rain & Shine", "longitude": -122.675394332878, "latitude": 45.494900886508702, "type": "healthcare", "layer": "2813 Southeast Colt Drive", "path": "\/Users\/jasonsankovic\/Downloads\/2813 Southeast Colt Drive.geojson" }, "geometry": { "type": "Point", "coordinates": [ -122.675394332877829, 45.494900886508653 ] } },
{ "type": "Feature", "properties": { "_uid_": 14, "osm_id": 3343277822, "name": "Jessica Shurtman", "longitude": -122.675212693527, "latitude": 45.49531157178, "type": "healthcare", "layer": "2813 Southeast Colt Drive", "path": "\/Users\/jasonsankovic\/Downloads\/2813 Southeast Colt Drive.geojson" }, "geometry": { "type": "Point", "coordinates": [ -122.675212693527399, 45.495311571779993 ] } },
{ "type": "Feature", "properties": { "_uid_": 15, "osm_id": 3343277825, "name": "Michal D. Drabanski", "longitude": -122.675211705381, "latitude": 45.495344315647003, "type": "healthcare", "layer": "2813 Southeast Colt Drive", "path": "\/Users\/jasonsankovic\/Downloads\/2813 Southeast Colt Drive.geojson" }, "geometry": { "type": "Point", "coordinates": [ -122.675211705380562, 45.495344315646953 ] } },
{ "type": "Feature", "properties": { "_uid_": 16, "osm_id": 3343277823, "name": "John Benassu", "longitude": -122.67521071723399, "latitude": 45.495377059494899, "type": "healthcare", "layer": "2813 Southeast Colt Drive", "path": "\/Users\/jasonsankovic\/Downloads\/2813 Southeast Colt Drive.geojson" }, "geometry": { "type": "Point", "coordinates": [ -122.675210717233782, 45.495377059494871 ] } },
{ "type": "Feature", "properties": { "_uid_": 17, "osm_id": 3352534682, "name": "Hormone Synergy", "longitude": -122.671807719274, "latitude": 45.489331277891303, "type": "healthcare", "layer": "2813 Southeast Colt Drive", "path": "\/Users\/jasonsankovic\/Downloads\/2813 Southeast Colt Drive.geojson" }, "geometry": { "type": "Point", "coordinates": [ -122.671807719274454, 45.489331277891282 ] } },
{ "type": "Feature", "properties": { "_uid_": 18, "osm_id": 3380424292, "name": "OHSU Dental Clinics", "longitude": -122.672480737085, "latitude": 45.503301392326001, "type": "healthcare", "layer": "2813 Southeast Colt Drive", "path": "\/Users\/jasonsankovic\/Downloads\/2813 Southeast Colt Drive.geojson" }, "geometry": { "type": "Point", "coordinates": [ -122.672480737085323, 45.50330139232598 ] } },
{ "type": "Feature", "properties": { "_uid_": 248, "osm_id": 3750146192, "name": "Tai Ji Acupuncture", "longitude": -122.679546166458, "latitude": 45.508159558569197, "type": "healthcare", "layer": "2813 Southeast Colt Drive", "path": "\/Users\/jasonsankovic\/Downloads\/2813 Southeast Colt Drive.geojson" }, "geometry": { "type": "Point", "coordinates": [ -122.679546166457982, 45.508159558569183 ] } },
{ "type": "Feature", "properties": { "_uid_": 249, "osm_id": 3750146184, "name": "Bravo Smile", "longitude": -122.67941842602499, "latitude": 45.508126885109199, "type": "healthcare", "layer": "2813 Southeast Colt Drive", "path": "\/Users\/jasonsankovic\/Downloads\/2813 Southeast Colt Drive.geojson" }, "geometry": { "type": "Point", "coordinates": [ -122.679418426024583, 45.508126885109199 ] } },
{ "type": "Feature", "properties": { "_uid_": 250, "osm_id": 3750146191, "name": "Michael K. Setter", "longitude": -122.679283409237, "latitude": 45.508197897922898, "type": "healthcare", "layer": "2813 Southeast Colt Drive", "path": "\/Users\/jasonsankovic\/Downloads\/2813 Southeast Colt Drive.geojson" }, "geometry": { "type": "Point", "coordinates": [ -122.679283409237385, 45.508197897922884 ] } },
{ "type": "Feature", "properties": { "_uid_": 251, "osm_id": 3750146193, "name": "Thomas J. Flath", "longitude": -122.67923292391799, "latitude": 45.508183481321701, "type": "healthcare", "layer": "2813 Southeast Colt Drive", "path": "\/Users\/jasonsankovic\/Downloads\/2813 Southeast Colt Drive.geojson" }, "geometry": { "type": "Point", "coordinates": [ -122.679232923918406, 45.508183481321673 ] } },
{ "type": "Feature", "properties": { "_uid_": 252, "osm_id": 2544119225, "name": "Northwest Fertility Center", "longitude": -122.675067795272, "latitude": 45.509969411992699, "type": "healthcare", "layer": "2813 Southeast Colt Drive", "path": "\/Users\/jasonsankovic\/Downloads\/2813 Southeast Colt Drive.geojson" }, "geometry": { "type": "Point", "coordinates": [ -122.675067795272057, 45.509969411992664 ] } },
{ "type": "Feature", "properties": { "_uid_": 253, "osm_id": 4139603155, "name": "Northwest Pilot Project", "longitude": -122.68223123084201, "latitude": 45.514163409814898, "type": "healthcare", "layer": "2813 Southeast Colt Drive", "path": "\/Users\/jasonsankovic\/Downloads\/2813 Southeast Colt Drive.geojson" }, "geometry": { "type": "Point", "coordinates": [ -122.682231230842206, 45.514163409814948 ] } },
{ "type": "Feature", "properties": { "_uid_": 254, "osm_id": 4039392746, "name": "Bridgetown Physical Therapy", "longitude": -122.67631232126701, "latitude": 45.512209095068698, "type": "healthcare", "layer": "2813 Southeast Colt Drive", "path": "\/Users\/jasonsankovic\/Downloads\/2813 Southeast Colt Drive.geojson" }, "geometry": { "type": "Point", "coordinates": [ -122.676312321266678, 45.512209095068712 ] } },
{ "type": "Feature", "properties": { "_uid_": 255, "osm_id": 3991558399, "name": "Blyss Chiropractic", "longitude": -122.67656124443199, "latitude": 45.513493073529098, "type": "healthcare", "layer": "2813 Southeast Colt Drive", "path": "\/Users\/jasonsankovic\/Downloads\/2813 Southeast Colt Drive.geojson" }, "geometry": { "type": "Point", "coordinates": [ -122.676561244431909, 45.513493073529119 ] } },
{ "type": "Feature", "properties": { "_uid_": 418, "osm_id": 4363641690, "name": "Willamette Dental Group", "longitude": -122.694368638141, "latitude": 45.518609874503497, "type": "healthcare", "layer": "2813 Southeast Colt Drive", "path": "\/Users\/jasonsankovic\/Downloads\/2813 Southeast Colt Drive.geojson" }, "geometry": { "type": "Point", "coordinates": [ -122.694368638140531, 45.518609874503547 ] } },
{ "type": "Feature", "properties": { "_uid_": 419, "osm_id": 4216694651, "name": "Two Rivers", "longitude": -122.694007964554, "latitude": 45.524683288268399, "type": "healthcare", "layer": "2813 Southeast Colt Drive", "path": "\/Users\/jasonsankovic\/Downloads\/2813 Southeast Colt Drive.geojson" }, "geometry": { "type": "Point", "coordinates": [ -122.694007964553961, 45.524683288268385 ] } },
{ "type": "Feature", "properties": { "_uid_": 420, "osm_id": 4277839456, "name": "Wise Counsel & Comfort", "longitude": -122.69429731190699, "latitude": 45.5269261617834, "type": "healthcare", "layer": "2813 Southeast Colt Drive", "path": "\/Users\/jasonsankovic\/Downloads\/2813 Southeast Colt Drive.geojson" }, "geometry": { "type": "Point", "coordinates": [ -122.694297311906965, 45.526926161783436 ] } },
{ "type": "Feature", "properties": { "_uid_": 421, "osm_id": 3840020974, "name": "Integrative Primary Care Associates", "longitude": -122.693508680919, "latitude": 45.529771759874997, "type": "healthcare", "layer": "2813 Southeast Colt Drive", "path": "\/Users\/jasonsankovic\/Downloads\/2813 Southeast Colt Drive.geojson" }, "geometry": { "type": "Point", "coordinates": [ -122.693508680919052, 45.529771759875004 ] } },
{ "type": "Feature", "properties": { "_uid_": 615, "osm_id": 3722402133, "name": "Roseway Veterinary Hospital", "longitude": -122.591702070781, "latitude": 45.547122657589803, "type": "healthcare", "layer": "2813 Southeast Colt Drive", "path": "\/Users\/jasonsankovic\/Downloads\/2813 Southeast Colt Drive.geojson" }, "geometry": { "type": "Point", "coordinates": [ -122.591702070780613, 45.547122657589824 ] } },
{ "type": "Feature", "properties": { "_uid_": 616, "osm_id": 4906804417, "name": "Portland Family Therapy", "longitude": -122.58847729857401, "latitude": 45.5483591603465, "type": "healthcare", "layer": "2813 Southeast Colt Drive", "path": "\/Users\/jasonsankovic\/Downloads\/2813 Southeast Colt Drive.geojson" }, "geometry": { "type": "Point", "coordinates": [ -122.588477298573665, 45.548359160346507 ] } },
{ "type": "Feature", "properties": { "_uid_": 617, "osm_id": 4284534789, "name": "Companion Pet Clinic", "longitude": -122.57913428063, "latitude": 45.5470539586996, "type": "healthcare", "layer": "2813 Southeast Colt Drive", "path": "\/Users\/jasonsankovic\/Downloads\/2813 Southeast Colt Drive.geojson" }, "geometry": { "type": "Point", "coordinates": [ -122.579134280629674, 45.547053958699628 ] } },
{ "type": "Feature", "properties": { "_uid_": 851, "osm_id": 3921293248, "name": "EPIC Imaging", "longitude": -122.55884088920401, "latitude": 45.524414109745202, "type": "healthcare", "layer": "2813 Southeast Colt Drive", "path": "\/Users\/jasonsankovic\/Downloads\/2813 Southeast Colt Drive.geojson" }, "geometry": { "type": "Point", "coordinates": [ -122.558840889203751, 45.52441410974518 ] } },
{ "type": "Feature", "properties": { "_uid_": 852, "osm_id": 4469424296, "name": "Apex Dental", "longitude": -122.558647392092, "latitude": 45.532667492871603, "type": "healthcare", "layer": "2813 Southeast Colt Drive", "path": "\/Users\/jasonsankovic\/Downloads\/2813 Southeast Colt Drive.geojson" }, "geometry": { "type": "Point", "coordinates": [ -122.558647392091586, 45.532667492871617 ] } },
{ "type": "Feature", "properties": { "_uid_": 1043, "osm_id": 4484537602, "name": "Laurelwood Dental", "longitude": -122.636907272171, "latitude": 45.531981204542397, "type": "healthcare", "layer": "2813 Southeast Colt Drive", "path": "\/Users\/jasonsankovic\/Downloads\/2813 Southeast Colt Drive.geojson" }, "geometry": { "type": "Point", "coordinates": [ -122.636907272171143, 45.531981204542433 ] } },
{ "type": "Feature", "properties": { "_uid_": 1044, "osm_id": 4550248025, "name": "Alvis Chiropractic", "longitude": -122.635534736249, "latitude": 45.534864868082998, "type": "healthcare", "layer": "2813 Southeast Colt Drive", "path": "\/Users\/jasonsankovic\/Downloads\/2813 Southeast Colt Drive.geojson" }, "geometry": { "type": "Point", "coordinates": [ -122.635534736248516, 45.534864868082956 ] } },
{ "type": "Feature", "properties": { "_uid_": 1045, "osm_id": 3686312576, "name": "ZOOM+Prime", "longitude": -122.632195159348, "latitude": 45.535008713878298, "type": "healthcare", "layer": "2813 Southeast Colt Drive", "path": "\/Users\/jasonsankovic\/Downloads\/2813 Southeast Colt Drive.geojson" }, "geometry": { "type": "Point", "coordinates": [ -122.632195159348285, 45.535008713878312 ] } },
{ "type": "Feature", "properties": { "_uid_": 1046, "osm_id": 3702279470, "name": "Grant Park Dentistry", "longitude": -122.631144669455, "latitude": 45.534989396025999, "type": "healthcare", "layer": "2813 Southeast Colt Drive", "path": "\/Users\/jasonsankovic\/Downloads\/2813 Southeast Colt Drive.geojson" }, "geometry": { "type": "Point", "coordinates": [ -122.631144669455026, 45.534989396026049 ] } },
{ "type": "Feature", "properties": { "_uid_": 1047, "osm_id": 3696523910, "name": "Dental Care Today", "longitude": -122.628174839126, "latitude": 45.534861092597801, "type": "healthcare", "layer": "2813 Southeast Colt Drive", "path": "\/Users\/jasonsankovic\/Downloads\/2813 Southeast Colt Drive.geojson" }, "geometry": { "type": "Point", "coordinates": [ -122.628174839125748, 45.534861092597815 ] } },
{ "type": "Feature", "properties": { "_uid_": 1048, "osm_id": 3696523911, "name": "Broadway Foot Clinic", "longitude": -122.62804530206201, "latitude": 45.534859582403698, "type": "healthcare", "layer": "2813 Southeast Colt Drive", "path": "\/Users\/jasonsankovic\/Downloads\/2813 Southeast Colt Drive.geojson" }, "geometry": { "type": "Point", "coordinates": [ -122.628045302061764, 45.534859582403683 ] } },
{ "type": "Feature", "properties": { "_uid_": 1226, "osm_id": 475360431, "name": "Columbia Clinic Urgent Care: Mall 205", "longitude": -122.563869298838, "latitude": 45.518010906334403, "type": "healthcare", "layer": "2813 Southeast Colt Drive", "path": "\/Users\/jasonsankovic\/Downloads\/2813 Southeast Colt Drive.geojson" }, "geometry": { "type": "Point", "coordinates": [ -122.563869298838142, 45.51801090633441 ] } },
{ "type": "Feature", "properties": { "_uid_": 1227, "osm_id": 495995616, "name": "East Portland Dental", "longitude": -122.56330632465, "latitude": 45.517214789970701, "type": "healthcare", "layer": "2813 Southeast Colt Drive", "path": "\/Users\/jasonsankovic\/Downloads\/2813 Southeast Colt Drive.geojson" }, "geometry": { "type": "Point", "coordinates": [ -122.563306324649602, 45.51721478997073 ] } },
{ "type": "Feature", "properties": { "_uid_": 1228, "osm_id": 3468296268, "name": "Labor's Community Service Agency", "longitude": -122.56094043168601, "latitude": 45.5185240832161, "type": "healthcare", "layer": "2813 Southeast Colt Drive", "path": "\/Users\/jasonsankovic\/Downloads\/2813 Southeast Colt Drive.geojson" }, "geometry": { "type": "Point", "coordinates": [ -122.560940431685808, 45.518524083216057 ] } },
{ "type": "Feature", "properties": { "_uid_": 1229, "osm_id": 3468296271, "name": "Portland Wellness Professionals", "longitude": -122.56083326267201, "latitude": 45.518578214197703, "type": "healthcare", "layer": "2813 Southeast Colt Drive", "path": "\/Users\/jasonsankovic\/Downloads\/2813 Southeast Colt Drive.geojson" }, "geometry": { "type": "Point", "coordinates": [ -122.560833262672418, 45.518578214197717 ] } },
{ "type": "Feature", "properties": { "_uid_": 1416, "osm_id": 3863062371, "name": "Northwest Primary Care", "longitude": -122.6310561854, "latitude": 45.445538107849202, "type": "healthcare", "layer": "2813 Southeast Colt Drive", "path": "\/Users\/jasonsankovic\/Downloads\/2813 Southeast Colt Drive.geojson" }, "geometry": { "type": "Point", "coordinates": [ -122.631056185399558, 45.445538107849153 ] } },
{ "type": "Feature", "properties": { "_uid_": 1705, "osm_id": 3686007672, "name": "Hands On Medicine", "longitude": -122.668841572038, "latitude": 45.561825873594501, "type": "healthcare", "layer": "2813 Southeast Colt Drive", "path": "\/Users\/jasonsankovic\/Downloads\/2813 Southeast Colt Drive.geojson" }, "geometry": { "type": "Point", "coordinates": [ -122.66884157203782, 45.561825873594458 ] } },
{ "type": "Feature", "properties": { "_uid_": 1706, "osm_id": 3058673735, "name": "Lombard Animal Hospital", "longitude": -122.65912090234799, "latitude": 45.577424958526798, "type": "healthcare", "layer": "2813 Southeast Colt Drive", "path": "\/Users\/jasonsankovic\/Downloads\/2813 Southeast Colt Drive.geojson" }, "geometry": { "type": "Point", "coordinates": [ -122.659120902348391, 45.577424958526819 ] } },
{ "type": "Feature", "properties": { "_uid_": 1855, "osm_id": 4851044888, "name": "North Lake Physical Therapy", "longitude": -122.663381971067, "latitude": 45.414958216717899, "type": "healthcare", "layer": "2813 Southeast Colt Drive", "path": "\/Users\/jasonsankovic\/Downloads\/2813 Southeast Colt Drive.geojson" }, "geometry": { "type": "Point", "coordinates": [ -122.663381971067068, 45.414958216717942 ] } },
{ "type": "Feature", "properties": { "_uid_": 1856, "osm_id": 4851044904, "name": "Banfield Pet Hospital", "longitude": -122.663188923113, "latitude": 45.4165330878158, "type": "healthcare", "layer": "2813 Southeast Colt Drive", "path": "\/Users\/jasonsankovic\/Downloads\/2813 Southeast Colt Drive.geojson" }, "geometry": { "type": "Point", "coordinates": [ -122.6631889231125, 45.416533087815793 ] } },
{ "type": "Feature", "properties": { "_uid_": 1857, "osm_id": 4712538319, "name": "Sessions Orthodontics", "longitude": -122.663458777024, "latitude": 45.418389392989504, "type": "healthcare", "layer": "2813 Southeast Colt Drive", "path": "\/Users\/jasonsankovic\/Downloads\/2813 Southeast Colt Drive.geojson" }, "geometry": { "type": "Point", "coordinates": [ -122.663458777023848, 45.418389392989482 ] } },
{ "type": "Feature", "properties": { "_uid_": 1858, "osm_id": 4712538318, "name": "Lake Oswego Dentistry", "longitude": -122.66341053749299, "latitude": 45.418597410885098, "type": "healthcare", "layer": "2813 Southeast Colt Drive", "path": "\/Users\/jasonsankovic\/Downloads\/2813 Southeast Colt Drive.geojson" }, "geometry": { "type": "Point", "coordinates": [ -122.663410537493107, 45.418597410885056 ] } },
{ "type": "Feature", "properties": { "_uid_": 1859, "osm_id": 2018972591, "name": "Oswego Veterinarian Hospital", "longitude": -122.66638548822, "latitude": 45.422053460275997, "type": "healthcare", "layer": "2813 Southeast Colt Drive", "path": "\/Users\/jasonsankovic\/Downloads\/2813 Southeast Colt Drive.geojson" }, "geometry": { "type": "Point", "coordinates": [ -122.666385488219532, 45.42205346027599 ] } },
{ "type": "Feature", "properties": { "_uid_": 1981, "osm_id": 4168814186, "name": "Bridgeport Family Dental", "longitude": -122.753725988349, "latitude": 45.393414805818402, "type": "healthcare", "layer": "2813 Southeast Colt Drive", "path": "\/Users\/jasonsankovic\/Downloads\/2813 Southeast Colt Drive.geojson" }, "geometry": { "type": "Point", "coordinates": [ -122.753725988348606, 45.393414805818388 ] } },
{ "type": "Feature", "properties": { "_uid_": 1982, "osm_id": 3608487853, "name": "InTouch Physical Therapy", "longitude": -122.75354937956401, "latitude": 45.395672999953199, "type": "healthcare", "layer": "2813 Southeast Colt Drive", "path": "\/Users\/jasonsankovic\/Downloads\/2813 Southeast Colt Drive.geojson" }, "geometry": { "type": "Point", "coordinates": [ -122.753549379563736, 45.395672999953192 ] } },
{ "type": "Feature", "properties": { "_uid_": 1983, "osm_id": 3608487857, "name": "ZoomCare", "longitude": -122.75340753558, "latitude": 45.395671359864998, "type": "healthcare", "layer": "2813 Southeast Colt Drive", "path": "\/Users\/jasonsankovic\/Downloads\/2813 Southeast Colt Drive.geojson" }, "geometry": { "type": "Point", "coordinates": [ -122.753407535580379, 45.395671359865048 ] } },
{ "type": "Feature", "properties": { "_uid_": 1984, "osm_id": 3608487852, "name": "Bridgeport Smiles", "longitude": -122.75288678221, "latitude": 45.395633700905002, "type": "healthcare", "layer": "2813 Southeast Colt Drive", "path": "\/Users\/jasonsankovic\/Downloads\/2813 Southeast Colt Drive.geojson" }, "geometry": { "type": "Point", "coordinates": [ -122.752886782210183, 45.395633700905023 ] } },
{ "type": "Feature", "properties": { "_uid_": 1985, "osm_id": 4533584503, "name": "Orthopedics Northwest", "longitude": -122.747649693935, "latitude": 45.406190978398897, "type": "healthcare", "layer": "2813 Southeast Colt Drive", "path": "\/Users\/jasonsankovic\/Downloads\/2813 Southeast Colt Drive.geojson" }, "geometry": { "type": "Point", "coordinates": [ -122.747649693935287, 45.406190978398918 ] } },
{ "type": "Feature", "properties": { "_uid_": 1986, "osm_id": 4533584504, "name": "North Lake Physical Therapy", "longitude": -122.747724793093, "latitude": 45.406322791556903, "type": "healthcare", "layer": "2813 Southeast Colt Drive", "path": "\/Users\/jasonsankovic\/Downloads\/2813 Southeast Colt Drive.geojson" }, "geometry": { "type": "Point", "coordinates": [ -122.747724793093042, 45.406322791556917 ] } },
{ "type": "Feature", "properties": { "_uid_": 1987, "osm_id": 4533584505, "name": "Clearview MRI", "longitude": -122.74777572757, "latitude": 45.406428304930202, "type": "healthcare", "layer": "2813 Southeast Colt Drive", "path": "\/Users\/jasonsankovic\/Downloads\/2813 Southeast Colt Drive.geojson" }, "geometry": { "type": "Point", "coordinates": [ -122.747775727569646, 45.406428304930181 ] } },
{ "type": "Feature", "properties": { "_uid_": 1988, "osm_id": 4533584498, "name": "Dental Professionals", "longitude": -122.74738406210599, "latitude": 45.4079235085226, "type": "healthcare", "layer": "2813 Southeast Colt Drive", "path": "\/Users\/jasonsankovic\/Downloads\/2813 Southeast Colt Drive.geojson" }, "geometry": { "type": "Point", "coordinates": [ -122.747384062105766, 45.407923508522586 ] } },
{ "type": "Feature", "properties": { "_uid_": 1989, "osm_id": 4533584499, "name": "Acceleration Chiropractic", "longitude": -122.747429696522, "latitude": 45.408390515030803, "type": "healthcare", "layer": "2813 Southeast Colt Drive", "path": "\/Users\/jasonsankovic\/Downloads\/2813 Southeast Colt Drive.geojson" }, "geometry": { "type": "Point", "coordinates": [ -122.747429696522204, 45.40839051503076 ] } },
{ "type": "Feature", "properties": { "_uid_": 1990, "osm_id": 4533584496, "name": "Jessica Conwell", "longitude": -122.746225415052, "latitude": 45.409022181701303, "type": "healthcare", "layer": "2813 Southeast Colt Drive", "path": "\/Users\/jasonsankovic\/Downloads\/2813 Southeast Colt Drive.geojson" }, "geometry": { "type": "Point", "coordinates": [ -122.746225415052322, 45.409022181701253 ] } },
{ "type": "Feature", "properties": { "_uid_": 1991, "osm_id": 4544564889, "name": "Aspire Dental Laboratory", "longitude": -122.734064382062, "latitude": 45.397767605979602, "type": "healthcare", "layer": "2813 Southeast Colt Drive", "path": "\/Users\/jasonsankovic\/Downloads\/2813 Southeast Colt Drive.geojson" }, "geometry": { "type": "Point", "coordinates": [ -122.73406438206203, 45.397767605979617 ] } },
{ "type": "Feature", "properties": { "_uid_": 2338, "osm_id": 4532936866, "name": "Recovery Works Northwest", "longitude": -122.772838095176, "latitude": 45.429499905954103, "type": "healthcare", "layer": "2813 Southeast Colt Drive", "path": "\/Users\/jasonsankovic\/Downloads\/2813 Southeast Colt Drive.geojson" }, "geometry": { "type": "Point", "coordinates": [ -122.772838095175885, 45.429499905954096 ] } },
{ "type": "Feature", "properties": { "_uid_": 2339, "osm_id": 4444509307, "name": "Banfield Pet Hospital", "longitude": -122.75237896458, "latitude": 45.435050906976102, "type": "healthcare", "layer": "2813 Southeast Colt Drive", "path": "\/Users\/jasonsankovic\/Downloads\/2813 Southeast Colt Drive.geojson" }, "geometry": { "type": "Point", "coordinates": [ -122.75237896458006, 45.435050906976144 ] } },
{ "type": "Feature", "properties": { "_uid_": 2340, "osm_id": 4044768202, "name": "Advantage Medical Group", "longitude": -122.765005594382, "latitude": 45.448206570394497, "type": "healthcare", "layer": "2813 Southeast Colt Drive", "path": "\/Users\/jasonsankovic\/Downloads\/2813 Southeast Colt Drive.geojson" }, "geometry": { "type": "Point", "coordinates": [ -122.765005594382131, 45.448206570394461 ] } },
{ "type": "Feature", "properties": { "_uid_": 2341, "osm_id": 4044768205, "name": "Legacy Laboratory Services", "longitude": -122.76490228812401, "latitude": 45.448169891785703, "type": "healthcare", "layer": "2813 Southeast Colt Drive", "path": "\/Users\/jasonsankovic\/Downloads\/2813 Southeast Colt Drive.geojson" }, "geometry": { "type": "Point", "coordinates": [ -122.76490228812446, 45.448169891785724 ] } },
{ "type": "Feature", "properties": { "_uid_": 2342, "osm_id": 4044768218, "name": "Westside Foot & Ankle Specialists", "longitude": -122.76489564059101, "latitude": 45.448343012088699, "type": "healthcare", "layer": "2813 Southeast Colt Drive", "path": "\/Users\/jasonsankovic\/Downloads\/2813 Southeast Colt Drive.geojson" }, "geometry": { "type": "Point", "coordinates": [ -122.764895640591362, 45.448343012088692 ] } },
{ "type": "Feature", "properties": { "_uid_": 2343, "osm_id": 4044768204, "name": "Creekside Physical Therapy", "longitude": -122.76479772422501, "latitude": 45.448316606077597, "type": "healthcare", "layer": "2813 Southeast Colt Drive", "path": "\/Users\/jasonsankovic\/Downloads\/2813 Southeast Colt Drive.geojson" }, "geometry": { "type": "Point", "coordinates": [ -122.76479772422536, 45.448316606077555 ] } },
{ "type": "Feature", "properties": { "_uid_": 2344, "osm_id": 4044768206, "name": "Lesley Alter", "longitude": -122.764536494141, "latitude": 45.448744961729702, "type": "healthcare", "layer": "2813 Southeast Colt Drive", "path": "\/Users\/jasonsankovic\/Downloads\/2813 Southeast Colt Drive.geojson" }, "geometry": { "type": "Point", "coordinates": [ -122.764536494140742, 45.448744961729687 ] } },
{ "type": "Feature", "properties": { "_uid_": 2345, "osm_id": 4044768207, "name": "Shelby Taylor Goalby", "longitude": -122.76453793144501, "latitude": 45.448779812355397, "type": "healthcare", "layer": "2813 Southeast Colt Drive", "path": "\/Users\/jasonsankovic\/Downloads\/2813 Southeast Colt Drive.geojson" }, "geometry": { "type": "Point", "coordinates": [ -122.764537931445204, 45.448779812355397 ] } },
{ "type": "Feature", "properties": { "_uid_": 2603, "osm_id": 4415978054, "name": "Total Health Wellness Center", "longitude": -122.782942614986, "latitude": 45.507623371472299, "type": "healthcare", "layer": "2813 Southeast Colt Drive", "path": "\/Users\/jasonsankovic\/Downloads\/2813 Southeast Colt Drive.geojson" }, "geometry": { "type": "Point", "coordinates": [ -122.782942614986254, 45.507623371472341 ] } },
{ "type": "Feature", "properties": { "_uid_": 2604, "osm_id": 2625568247, "name": "CDL Chiropractic Clinic", "longitude": -122.782507381231, "latitude": 45.509401010088197, "type": "healthcare", "layer": "2813 Southeast Colt Drive", "path": "\/Users\/jasonsankovic\/Downloads\/2813 Southeast Colt Drive.geojson" }, "geometry": { "type": "Point", "coordinates": [ -122.782507381231085, 45.509401010088176 ] } },
{ "type": "Feature", "properties": { "_uid_": 2605, "osm_id": 4493824182, "name": "Cedar Hills Physical Therapy", "longitude": -122.781644639232, "latitude": 45.508260915424501, "type": "healthcare", "layer": "2813 Southeast Colt Drive", "path": "\/Users\/jasonsankovic\/Downloads\/2813 Southeast Colt Drive.geojson" }, "geometry": { "type": "Point", "coordinates": [ -122.78164463923224, 45.508260915424543 ] } },
{ "type": "Feature", "properties": { "_uid_": 2696, "osm_id": 4743938009, "name": "Bridge Chiropractic", "longitude": -122.670342297551, "latitude": 45.628953859868702, "type": "healthcare", "layer": "2813 Southeast Colt Drive", "path": "\/Users\/jasonsankovic\/Downloads\/2813 Southeast Colt Drive.geojson" }, "geometry": { "type": "Point", "coordinates": [ -122.670342297551485, 45.628953859868659 ] } },
{ "type": "Feature", "properties": { "_uid_": 2697, "osm_id": 4059237675, "name": null, "longitude": -122.66499777076901, "latitude": 45.628841098958503, "type": "healthcare", "layer": "2813 Southeast Colt Drive", "path": "\/Users\/jasonsankovic\/Downloads\/2813 Southeast Colt Drive.geojson" }, "geometry": { "type": "Point", "coordinates": [ -122.664997770768622, 45.628841098958461 ] } },
{ "type": "Feature", "properties": { "_uid_": 3042, "osm_id": 5148923480, "name": "Heartfelt Veterinary Hospital", "longitude": -122.65415519512101, "latitude": 45.535193397245003, "type": "healthcare", "layer": "2813 Southeast Colt Drive", "path": "\/Users\/jasonsankovic\/Downloads\/2813 Southeast Colt Drive.geojson" }, "geometry": { "type": "Point", "coordinates": [ -122.654155195120822, 45.53519339724496 ] } },
{ "type": "Feature", "properties": { "_uid_": 3269, "osm_id": 4999084828, "name": "Town Center Foot Clinic", "longitude": -122.577668858907, "latitude": 45.438744400493597, "type": "healthcare", "layer": "2813 Southeast Colt Drive", "path": "\/Users\/jasonsankovic\/Downloads\/2813 Southeast Colt Drive.geojson" }, "geometry": { "type": "Point", "coordinates": [ -122.577668858906677, 45.438744400493597 ] } },
{ "type": "Feature", "properties": { "_uid_": 3270, "osm_id": 4563087154, "name": "Banfield Pet Hospital", "longitude": -122.576549917389, "latitude": 45.454714314076497, "type": "healthcare", "layer": "2813 Southeast Colt Drive", "path": "\/Users\/jasonsankovic\/Downloads\/2813 Southeast Colt Drive.geojson" }, "geometry": { "type": "Point", "coordinates": [ -122.576549917388789, 45.454714314076455 ] } },
{ "type": "Feature", "properties": { "_uid_": 3523, "osm_id": 5124932221, "name": "Working Class Acupuncture", "longitude": -122.604326275131, "latitude": 45.548811101449999, "type": "healthcare", "layer": "2813 Southeast Colt Drive", "path": "\/Users\/jasonsankovic\/Downloads\/2813 Southeast Colt Drive.geojson" }, "geometry": { "type": "Point", "coordinates": [ -122.604326275131399, 45.548811101450042 ] } },
{ "type": "Feature", "properties": { "_uid_": 3651, "osm_id": 4136619924, "name": "Gift Of Life Clinic", "longitude": -122.61908442744, "latitude": 45.535308989217299, "type": "healthcare", "layer": "2813 Southeast Colt Drive", "path": "\/Users\/jasonsankovic\/Downloads\/2813 Southeast Colt Drive.geojson" }, "geometry": { "type": "Point", "coordinates": [ -122.619084427439603, 45.535308989217285 ] } },
{ "type": "Feature", "properties": { "_uid_": 3652, "osm_id": 3980755241, "name": "Hollywood Senior Center", "longitude": -122.62182851113801, "latitude": 45.536146819410099, "type": "healthcare", "layer": "2813 Southeast Colt Drive", "path": "\/Users\/jasonsankovic\/Downloads\/2813 Southeast Colt Drive.geojson" }, "geometry": { "type": "Point", "coordinates": [ -122.62182851113802, 45.536146819410085 ] } },
{ "type": "Feature", "properties": { "_uid_": 3653, "osm_id": 3715631257, "name": "Hollywood Children's Dentistry", "longitude": -122.623318726363, "latitude": 45.537890460383899, "type": "healthcare", "layer": "2813 Southeast Colt Drive", "path": "\/Users\/jasonsankovic\/Downloads\/2813 Southeast Colt Drive.geojson" }, "geometry": { "type": "Point", "coordinates": [ -122.623318726362839, 45.537890460383885 ] } },
{ "type": "Feature", "properties": { "_uid_": 3654, "osm_id": 3980934176, "name": "Portland Urgent Care", "longitude": -122.620169502471, "latitude": 45.535844472064298, "type": "healthcare", "layer": "2813 Southeast Colt Drive", "path": "\/Users\/jasonsankovic\/Downloads\/2813 Southeast Colt Drive.geojson" }, "geometry": { "type": "Point", "coordinates": [ -122.620169502471313, 45.535844472064312 ] } },
{ "type": "Feature", "properties": { "_uid_": 3655, "osm_id": 3722684455, "name": "Denderah Healing Arts Studio", "longitude": -122.61872007076001, "latitude": 45.537892599710197, "type": "healthcare", "layer": "2813 Southeast Colt Drive", "path": "\/Users\/jasonsankovic\/Downloads\/2813 Southeast Colt Drive.geojson" }, "geometry": { "type": "Point", "coordinates": [ -122.618720070760375, 45.537892599710247 ] } },
{ "type": "Feature", "properties": { "_uid_": 3656, "osm_id": 3722684451, "name": "Portland Dental Center", "longitude": -122.61867623297501, "latitude": 45.537893669373403, "type": "healthcare", "layer": "2813 Southeast Colt Drive", "path": "\/Users\/jasonsankovic\/Downloads\/2813 Southeast Colt Drive.geojson" }, "geometry": { "type": "Point", "coordinates": [ -122.618676232974522, 45.537893669373403 ] } },
{ "type": "Feature", "properties": { "_uid_": 3657, "osm_id": 3722684457, "name": "Northeast Portland Chiropractic Center", "longitude": -122.61863778508, "latitude": 45.537894801957897, "type": "healthcare", "layer": "2813 Southeast Colt Drive", "path": "\/Users\/jasonsankovic\/Downloads\/2813 Southeast Colt Drive.geojson" }, "geometry": { "type": "Point", "coordinates": [ -122.618637785080367, 45.537894801957883 ] } },
{ "type": "Feature", "properties": { "_uid_": 3658, "osm_id": 3980934167, "name": "Cascade Spine and Injury Center", "longitude": -122.61860023550101, "latitude": 45.537892599710197, "type": "healthcare", "layer": "2813 Southeast Colt Drive", "path": "\/Users\/jasonsankovic\/Downloads\/2813 Southeast Colt Drive.geojson" }, "geometry": { "type": "Point", "coordinates": [ -122.618600235501489, 45.537892599710247 ] } },
{ "type": "Feature", "properties": { "_uid_": 3659, "osm_id": 4048612605, "name": "Center For Vibrant Health", "longitude": -122.613178902762, "latitude": 45.538877058728602, "type": "healthcare", "layer": "2813 Southeast Colt Drive", "path": "\/Users\/jasonsankovic\/Downloads\/2813 Southeast Colt Drive.geojson" }, "geometry": { "type": "Point", "coordinates": [ -122.613178902761831, 45.538877058728644 ] } },
{ "type": "Feature", "properties": { "_uid_": 3997, "osm_id": 4242208713, "name": "The Untattoo Parlor", "longitude": -122.684767713878, "latitude": 45.526900484855403, "type": "healthcare", "layer": "2813 Southeast Colt Drive", "path": "\/Users\/jasonsankovic\/Downloads\/2813 Southeast Colt Drive.geojson" }, "geometry": { "type": "Point", "coordinates": [ -122.684767713878443, 45.526900484855432 ] } },
{ "type": "Feature", "properties": { "_uid_": 3998, "osm_id": 3697905247, "name": "Tower Plastics", "longitude": -122.683704917066, "latitude": 45.526626974497901, "type": "healthcare", "layer": "2813 Southeast Colt Drive", "path": "\/Users\/jasonsankovic\/Downloads\/2813 Southeast Colt Drive.geojson" }, "geometry": { "type": "Point", "coordinates": [ -122.68370491706581, 45.52662697449788 ] } },
{ "type": "Feature", "properties": { "_uid_": 3999, "osm_id": 3807892779, "name": "Pearl District Counseling", "longitude": -122.68310115936301, "latitude": 45.527035162729703, "type": "healthcare", "layer": "2813 Southeast Colt Drive", "path": "\/Users\/jasonsankovic\/Downloads\/2813 Southeast Colt Drive.geojson" }, "geometry": { "type": "Point", "coordinates": [ -122.683101159363346, 45.527035162729703 ] } },
{ "type": "Feature", "properties": { "_uid_": 4000, "osm_id": 5052574075, "name": "Create Change", "longitude": -122.681041232585, "latitude": 45.525380616399403, "type": "healthcare", "layer": "2813 Southeast Colt Drive", "path": "\/Users\/jasonsankovic\/Downloads\/2813 Southeast Colt Drive.geojson" }, "geometry": { "type": "Point", "coordinates": [ -122.681041232585329, 45.525380616399445 ] } },
{ "type": "Feature", "properties": { "_uid_": 4001, "osm_id": 3787098634, "name": "Rafia Dental", "longitude": -122.68517581851199, "latitude": 45.529725380115003, "type": "healthcare", "layer": "2813 Southeast Colt Drive", "path": "\/Users\/jasonsankovic\/Downloads\/2813 Southeast Colt Drive.geojson" }, "geometry": { "type": "Point", "coordinates": [ -122.685175818512036, 45.529725380114968 ] } },
{ "type": "Feature", "properties": { "_uid_": 4002, "osm_id": 4173986913, "name": "Portland Dermatology Clinic", "longitude": -122.68596391051101, "latitude": 45.531265394249601, "type": "healthcare", "layer": "2813 Southeast Colt Drive", "path": "\/Users\/jasonsankovic\/Downloads\/2813 Southeast Colt Drive.geojson" }, "geometry": { "type": "Point", "coordinates": [ -122.685963910510793, 45.531265394249637 ] } },
{ "type": "Feature", "properties": { "_uid_": 4003, "osm_id": 3787098633, "name": "Pacific Cataract and Laser Institute", "longitude": -122.685203037465, "latitude": 45.530497406201597, "type": "healthcare", "layer": "2813 Southeast Colt Drive", "path": "\/Users\/jasonsankovic\/Downloads\/2813 Southeast Colt Drive.geojson" }, "geometry": { "type": "Point", "coordinates": [ -122.685203037465143, 45.530497406201555 ] } },
{ "type": "Feature", "properties": { "_uid_": 4004, "osm_id": 3845257212, "name": "North Lake", "longitude": -122.68605571833299, "latitude": 45.534709066185201, "type": "healthcare", "layer": "2813 Southeast Colt Drive", "path": "\/Users\/jasonsankovic\/Downloads\/2813 Southeast Colt Drive.geojson" }, "geometry": { "type": "Point", "coordinates": [ -122.686055718332824, 45.534709066185236 ] } },
{ "type": "Feature", "properties": { "_uid_": 4005, "osm_id": 3736917433, "name": "Pearl Health Center", "longitude": -122.680491283968, "latitude": 45.528583872176, "type": "healthcare", "layer": "2813 Southeast Colt Drive", "path": "\/Users\/jasonsankovic\/Downloads\/2813 Southeast Colt Drive.geojson" }, "geometry": { "type": "Point", "coordinates": [ -122.680491283968408, 45.528583872175979 ] } },
{ "type": "Feature", "properties": { "_uid_": 4155, "osm_id": 4085490883, "name": "Oregon Humane Society", "longitude": -122.652640635552, "latitude": 45.579111611689903, "type": "healthcare", "layer": "2813 Southeast Colt Drive", "path": "\/Users\/jasonsankovic\/Downloads\/2813 Southeast Colt Drive.geojson" }, "geometry": { "type": "Point", "coordinates": [ -122.652640635551776, 45.579111611689925 ] } },
{ "type": "Feature", "properties": { "_uid_": 4280, "osm_id": 4556229983, "name": "Russian Oregon Social Services", "longitude": -122.620830572689, "latitude": 45.479346858568199, "type": "healthcare", "layer": "2813 Southeast Colt Drive", "path": "\/Users\/jasonsankovic\/Downloads\/2813 Southeast Colt Drive.geojson" }, "geometry": { "type": "Point", "coordinates": [ -122.620830572688902, 45.479346858568242 ] } },
{ "type": "Feature", "properties": { "_uid_": 4281, "osm_id": 4553492612, "name": "Essential Hypnotherapy", "longitude": -122.61185056395099, "latitude": 45.478852598649098, "type": "healthcare", "layer": "2813 Southeast Colt Drive", "path": "\/Users\/jasonsankovic\/Downloads\/2813 Southeast Colt Drive.geojson" }, "geometry": { "type": "Point", "coordinates": [ -122.611850563951194, 45.478852598649141 ] } },
{ "type": "Feature", "properties": { "_uid_": 4282, "osm_id": 4553492614, "name": "Elite Acupuncture Center", "longitude": -122.611851282603, "latitude": 45.4789174756284, "type": "healthcare", "layer": "2813 Southeast Colt Drive", "path": "\/Users\/jasonsankovic\/Downloads\/2813 Southeast Colt Drive.geojson" }, "geometry": { "type": "Point", "coordinates": [ -122.611851282603425, 45.478917475628421 ] } },
{ "type": "Feature", "properties": { "_uid_": 4283, "osm_id": 4553492613, "name": "Woodstock Natural Health Clinic", "longitude": -122.611631375022, "latitude": 45.478887871579197, "type": "healthcare", "layer": "2813 Southeast Colt Drive", "path": "\/Users\/jasonsankovic\/Downloads\/2813 Southeast Colt Drive.geojson" }, "geometry": { "type": "Point", "coordinates": [ -122.611631375021872, 45.478887871579175 ] } },
{ "type": "Feature", "properties": { "_uid_": 4458, "osm_id": 3696320125, "name": "Westover Dental", "longitude": -122.69885769927799, "latitude": 45.525944073871997, "type": "healthcare", "layer": "2813 Southeast Colt Drive", "path": "\/Users\/jasonsankovic\/Downloads\/2813 Southeast Colt Drive.geojson" }, "geometry": { "type": "Point", "coordinates": [ -122.698857699278335, 45.525944073872026 ] } },
{ "type": "Feature", "properties": { "_uid_": 4459, "osm_id": 883492222, "name": "Northwest Neighborhood", "longitude": -122.706525898207, "latitude": 45.5350819580527, "type": "healthcare", "layer": "2813 Southeast Colt Drive", "path": "\/Users\/jasonsankovic\/Downloads\/2813 Southeast Colt Drive.geojson" }, "geometry": { "type": "Point", "coordinates": [ -122.706525898206664, 45.535081958052686 ] } },
{ "type": "Feature", "properties": { "_uid_": 4704, "osm_id": 5098863400, "name": "Banfield Pet Hospital", "longitude": -122.748680331061, "latitude": 45.383972472622197, "type": "healthcare", "layer": "2813 Southeast Colt Drive", "path": "\/Users\/jasonsankovic\/Downloads\/2813 Southeast Colt Drive.geojson" }, "geometry": { "type": "Point", "coordinates": [ -122.748680331060754, 45.383972472622155 ] } },
{ "type": "Feature", "properties": { "_uid_": 4726, "osm_id": 5061125308, "name": "Nappy Lam DDS", "longitude": -122.604317291979, "latitude": 45.493198418658999, "type": "healthcare", "layer": "2813 Southeast Colt Drive", "path": "\/Users\/jasonsankovic\/Downloads\/2813 Southeast Colt Drive.geojson" }, "geometry": { "type": "Point", "coordinates": [ -122.60431729197856, 45.49319841865902 ] } },
{ "type": "Feature", "properties": { "_uid_": 4845, "osm_id": 4795840174, "name": "Prema Health", "longitude": -122.61158088970301, "latitude": 45.506524288425901, "type": "healthcare", "layer": "2813 Southeast Colt Drive", "path": "\/Users\/jasonsankovic\/Downloads\/2813 Southeast Colt Drive.geojson" }, "geometry": { "type": "Point", "coordinates": [ -122.611580889702893, 45.506524288425865 ] } },
{ "type": "Feature", "properties": { "_uid_": 5096, "osm_id": 2631807089, "name": "Everywoman's Health", "longitude": -122.671180246049, "latitude": 45.543154089536998, "type": "healthcare", "layer": "2813 Southeast Colt Drive", "path": "\/Users\/jasonsankovic\/Downloads\/2813 Southeast Colt Drive.geojson" }, "geometry": { "type": "Point", "coordinates": [ -122.671180246048507, 45.543154089536969 ] } },
{ "type": "Feature", "properties": { "_uid_": 5097, "osm_id": 2630606694, "name": "Legacy Medical Group- Northeast", "longitude": -122.67006992835699, "latitude": 45.542482588666999, "type": "healthcare", "layer": "2813 Southeast Colt Drive", "path": "\/Users\/jasonsankovic\/Downloads\/2813 Southeast Colt Drive.geojson" }, "geometry": { "type": "Point", "coordinates": [ -122.67006992835735, 45.542482588666957 ] } },
{ "type": "Feature", "properties": { "_uid_": 5098, "osm_id": 2631807086, "name": "Maternal-Fetal Medicine Center", "longitude": -122.669764680824, "latitude": 45.5425492169108, "type": "healthcare", "layer": "2813 Southeast Colt Drive", "path": "\/Users\/jasonsankovic\/Downloads\/2813 Southeast Colt Drive.geojson" }, "geometry": { "type": "Point", "coordinates": [ -122.669764680823789, 45.542549216910821 ] } },
{ "type": "Feature", "properties": { "_uid_": 5099, "osm_id": 2630606693, "name": "Legacy Medical Group - Emanuel", "longitude": -122.667426006813, "latitude": 45.543019890669598, "type": "healthcare", "layer": "2813 Southeast Colt Drive", "path": "\/Users\/jasonsankovic\/Downloads\/2813 Southeast Colt Drive.geojson" }, "geometry": { "type": "Point", "coordinates": [ -122.667426006813102, 45.543019890669605 ] } },
{ "type": "Feature", "properties": { "_uid_": 5100, "osm_id": 5139006986, "name": "Julie Nelligan", "longitude": -122.67591598456301, "latitude": 45.552769016671803, "type": "healthcare", "layer": "2813 Southeast Colt Drive", "path": "\/Users\/jasonsankovic\/Downloads\/2813 Southeast Colt Drive.geojson" }, "geometry": { "type": "Point", "coordinates": [ -122.675915984563332, 45.55276901667176 ] } },
{ "type": "Feature", "properties": { "_uid_": 5101, "osm_id": 5139006987, "name": "Noah Roost", "longitude": -122.675915625237, "latitude": 45.552792291411002, "type": "healthcare", "layer": "2813 Southeast Colt Drive", "path": "\/Users\/jasonsankovic\/Downloads\/2813 Southeast Colt Drive.geojson" }, "geometry": { "type": "Point", "coordinates": [ -122.675915625237209, 45.552792291410967 ] } },
{ "type": "Feature", "properties": { "_uid_": 5102, "osm_id": 5139006989, "name": "Greg Berman", "longitude": -122.675986771808, "latitude": 45.552808961150703, "type": "healthcare", "layer": "2813 Southeast Colt Drive", "path": "\/Users\/jasonsankovic\/Downloads\/2813 Southeast Colt Drive.geojson" }, "geometry": { "type": "Point", "coordinates": [ -122.675986771807729, 45.552808961150689 ] } },
{ "type": "Feature", "properties": { "_uid_": 5103, "osm_id": 5139006997, "name": "Osteopathic PDX", "longitude": -122.67598883793301, "latitude": 45.552873060971699, "type": "healthcare", "layer": "2813 Southeast Colt Drive", "path": "\/Users\/jasonsankovic\/Downloads\/2813 Southeast Colt Drive.geojson" }, "geometry": { "type": "Point", "coordinates": [ -122.675988837932877, 45.552873060971706 ] } },
{ "type": "Feature", "properties": { "_uid_": 5104, "osm_id": 5139006990, "name": "Dr. Louise Tolzmann", "longitude": -122.675914187933, "latitude": 45.552862178475401, "type": "healthcare", "layer": "2813 Southeast Colt Drive", "path": "\/Users\/jasonsankovic\/Downloads\/2813 Southeast Colt Drive.geojson" }, "geometry": { "type": "Point", "coordinates": [ -122.675914187932776, 45.552862178475358 ] } },
{ "type": "Feature", "properties": { "_uid_": 5105, "osm_id": 5137793936, "name": "Sacred Vessel", "longitude": -122.675969703817, "latitude": 45.553502858269198, "type": "healthcare", "layer": "2813 Southeast Colt Drive", "path": "\/Users\/jasonsankovic\/Downloads\/2813 Southeast Colt Drive.geojson" }, "geometry": { "type": "Point", "coordinates": [ -122.67596970381733, 45.553502858269226 ] } },
{ "type": "Feature", "properties": { "_uid_": 5228, "osm_id": 4005935323, "name": "Gentle Dental", "longitude": -122.679533410381, "latitude": 45.516899688937499, "type": "healthcare", "layer": "2813 Southeast Colt Drive", "path": "\/Users\/jasonsankovic\/Downloads\/2813 Southeast Colt Drive.geojson" }, "geometry": { "type": "Point", "coordinates": [ -122.679533410380955, 45.516899688937514 ] } },
{ "type": "Feature", "properties": { "_uid_": 5229, "osm_id": 3753315146, "name": "Allergy Clinic", "longitude": -122.681888613393, "latitude": 45.5211464805978, "type": "healthcare", "layer": "2813 Southeast Colt Drive", "path": "\/Users\/jasonsankovic\/Downloads\/2813 Southeast Colt Drive.geojson" }, "geometry": { "type": "Point", "coordinates": [ -122.681888613392829, 45.521146480597778 ] } },
{ "type": "Feature", "properties": { "_uid_": 5230, "osm_id": 3753315206, "name": "Vitalize", "longitude": -122.681856813032, "latitude": 45.521212315902403, "type": "healthcare", "layer": "2813 Southeast Colt Drive", "path": "\/Users\/jasonsankovic\/Downloads\/2813 Southeast Colt Drive.geojson" }, "geometry": { "type": "Point", "coordinates": [ -122.6818568130318, 45.521212315902446 ] } },
{ "type": "Feature", "properties": { "_uid_": 5231, "osm_id": 3753315181, "name": "Optimal Results Physical Therapy", "longitude": -122.681826899133, "latitude": 45.5212740600331, "type": "healthcare", "layer": "2813 Southeast Colt Drive", "path": "\/Users\/jasonsankovic\/Downloads\/2813 Southeast Colt Drive.geojson" }, "geometry": { "type": "Point", "coordinates": [ -122.68182689913283, 45.521274060033086 ] } },
{ "type": "Feature", "properties": { "_uid_": 5232, "osm_id": 4766168471, "name": "PDX Acupuncture", "longitude": -122.67460040183001, "latitude": 45.519214689927203, "type": "healthcare", "layer": "2813 Southeast Colt Drive", "path": "\/Users\/jasonsankovic\/Downloads\/2813 Southeast Colt Drive.geojson" }, "geometry": { "type": "Point", "coordinates": [ -122.67460040182975, 45.519214689927225 ] } },
{ "type": "Feature", "properties": { "_uid_": 5472, "osm_id": 3846468165, "name": "Oregon Community Foundation", "longitude": -122.68490497645401, "latitude": 45.520157494135802, "type": "healthcare", "layer": "2813 Southeast Colt Drive", "path": "\/Users\/jasonsankovic\/Downloads\/2813 Southeast Colt Drive.geojson" }, "geometry": { "type": "Point", "coordinates": [ -122.684904976453879, 45.520157494135759 ] } },
{ "type": "Feature", "properties": { "_uid_": 5473, "osm_id": 4474906378, "name": "Robert Ratzow, DC, BA", "longitude": -122.683989233853, "latitude": 45.519354106859701, "type": "healthcare", "layer": "2813 Southeast Colt Drive", "path": "\/Users\/jasonsankovic\/Downloads\/2813 Southeast Colt Drive.geojson" }, "geometry": { "type": "Point", "coordinates": [ -122.683989233853239, 45.519354106859652 ] } },
{ "type": "Feature", "properties": { "_uid_": 5576, "osm_id": 4911678963, "name": "Providence Express Care", "longitude": -122.478596630662, "latitude": 45.526633519630103, "type": "healthcare", "layer": "2813 Southeast Colt Drive", "path": "\/Users\/jasonsankovic\/Downloads\/2813 Southeast Colt Drive.geojson" }, "geometry": { "type": "Point", "coordinates": [ -122.478596630661585, 45.52663351963011 ] } },
{ "type": "Feature", "properties": { "_uid_": 5768, "osm_id": 3406589079, "name": "Portland Endodontic Group", "longitude": -122.733850223698, "latitude": 45.5102447659959, "type": "healthcare", "layer": "2813 Southeast Colt Drive", "path": "\/Users\/jasonsankovic\/Downloads\/2813 Southeast Colt Drive.geojson" }, "geometry": { "type": "Point", "coordinates": [ -122.733850223698283, 45.510244765995907 ] } },
{ "type": "Feature", "properties": { "_uid_": 5769, "osm_id": 3406589081, "name": "Sylvan Chiropractic Clinic", "longitude": -122.733861272976, "latitude": 45.510372118340598, "type": "healthcare", "layer": "2813 Southeast Colt Drive", "path": "\/Users\/jasonsankovic\/Downloads\/2813 Southeast Colt Drive.geojson" }, "geometry": { "type": "Point", "coordinates": [ -122.73386127297627, 45.510372118340634 ] } },
{ "type": "Feature", "properties": { "_uid_": 5770, "osm_id": 3626207733, "name": "Jay P. Malmquist", "longitude": -122.73272265835401, "latitude": 45.509672274931603, "type": "healthcare", "layer": "2813 Southeast Colt Drive", "path": "\/Users\/jasonsankovic\/Downloads\/2813 Southeast Colt Drive.geojson" }, "geometry": { "type": "Point", "coordinates": [ -122.732722658353651, 45.50967227493161 ] } },
{ "type": "Feature", "properties": { "_uid_": 5771, "osm_id": 3626207731, "name": "Dan R. Nafziger", "longitude": -122.732649086332, "latitude": 45.509673596943202, "type": "healthcare", "layer": "2813 Southeast Colt Drive", "path": "\/Users\/jasonsankovic\/Downloads\/2813 Southeast Colt Drive.geojson" }, "geometry": { "type": "Point", "coordinates": [ -122.732649086331904, 45.509673596943202 ] } },
{ "type": "Feature", "properties": { "_uid_": 5772, "osm_id": 3626207734, "name": "Jukka J. Perkiomaki", "longitude": -122.732428280435, "latitude": 45.509677374119001, "type": "healthcare", "layer": "2813 Southeast Colt Drive", "path": "\/Users\/jasonsankovic\/Downloads\/2813 Southeast Colt Drive.geojson" }, "geometry": { "type": "Point", "coordinates": [ -122.732428280435059, 45.509677374118979 ] } },
{ "type": "Feature", "properties": { "_uid_": 5773, "osm_id": 3406589082, "name": "Sylvan Family Dentistry", "longitude": -122.733657265575, "latitude": 45.510305389021397, "type": "healthcare", "layer": "2813 Southeast Colt Drive", "path": "\/Users\/jasonsankovic\/Downloads\/2813 Southeast Colt Drive.geojson" }, "geometry": { "type": "Point", "coordinates": [ -122.73365726557526, 45.510305389021447 ] } },
{ "type": "Feature", "properties": { "_uid_": 5774, "osm_id": 3406589065, "name": "Allergy Asthma Immunology of Oregon", "longitude": -122.73345810907701, "latitude": 45.510307214635901, "type": "healthcare", "layer": "2813 Southeast Colt Drive", "path": "\/Users\/jasonsankovic\/Downloads\/2813 Southeast Colt Drive.geojson" }, "geometry": { "type": "Point", "coordinates": [ -122.733458109076778, 45.510307214635944 ] } },
{ "type": "Feature", "properties": { "_uid_": 5775, "osm_id": 3406589083, "name": "Sylvan Implant & Reconstructive Dentistry", "longitude": -122.733400527067, "latitude": 45.510247284087598, "type": "healthcare", "layer": "2813 Southeast Colt Drive", "path": "\/Users\/jasonsankovic\/Downloads\/2813 Southeast Colt Drive.geojson" }, "geometry": { "type": "Point", "coordinates": [ -122.733400527067047, 45.510247284087576 ] } },
{ "type": "Feature", "properties": { "_uid_": 5776, "osm_id": 3406589070, "name": "Dentistry for Children", "longitude": -122.733175678751, "latitude": 45.510248606085703, "type": "healthcare", "layer": "2813 Southeast Colt Drive", "path": "\/Users\/jasonsankovic\/Downloads\/2813 Southeast Colt Drive.geojson" }, "geometry": { "type": "Point", "coordinates": [ -122.733175678751451, 45.510248606085653 ] } },
{ "type": "Feature", "properties": { "_uid_": 5777, "osm_id": 3406589076, "name": "James Burke", "longitude": -122.73333018898001, "latitude": 45.5103755177567, "type": "healthcare", "layer": "2813 Southeast Colt Drive", "path": "\/Users\/jasonsankovic\/Downloads\/2813 Southeast Colt Drive.geojson" }, "geometry": { "type": "Point", "coordinates": [ -122.733330188980332, 45.510375517756657 ] } },
{ "type": "Feature", "properties": { "_uid_": 5778, "osm_id": 3406589073, "name": "Forster Fulop", "longitude": -122.733197417981, "latitude": 45.510376273182402, "type": "healthcare", "layer": "2813 Southeast Colt Drive", "path": "\/Users\/jasonsankovic\/Downloads\/2813 Southeast Colt Drive.geojson" }, "geometry": { "type": "Point", "coordinates": [ -122.733197417981316, 45.510376273182416 ] } },
{ "type": "Feature", "properties": { "_uid_": 5779, "osm_id": 3406589077, "name": "Matthew Park", "longitude": -122.733063299509, "latitude": 45.510249298560801, "type": "healthcare", "layer": "2813 Southeast Colt Drive", "path": "\/Users\/jasonsankovic\/Downloads\/2813 Southeast Colt Drive.geojson" }, "geometry": { "type": "Point", "coordinates": [ -122.733063299509396, 45.510249298560822 ] } },
{ "type": "Feature", "properties": { "_uid_": 5780, "osm_id": 3406589072, "name": "Flourish Natural Medicine", "longitude": -122.73305979608, "latitude": 45.510310865864803, "type": "healthcare", "layer": "2813 Southeast Colt Drive", "path": "\/Users\/jasonsankovic\/Downloads\/2813 Southeast Colt Drive.geojson" }, "geometry": { "type": "Point", "coordinates": [ -122.733059796079786, 45.510310865864774 ] } },
{ "type": "Feature", "properties": { "_uid_": 5781, "osm_id": 3406589067, "name": "Anxiety & Pain Treatment Center", "longitude": -122.733064736814, "latitude": 45.510377217464601, "type": "healthcare", "layer": "2813 Southeast Colt Drive", "path": "\/Users\/jasonsankovic\/Downloads\/2813 Southeast Colt Drive.geojson" }, "geometry": { "type": "Point", "coordinates": [ -122.733064736813859, 45.510377217464594 ] } },
{ "type": "Feature", "properties": { "_uid_": 5782, "osm_id": 3626207732, "name": "David J. Cavano", "longitude": -122.732354708413, "latitude": 45.509678696130401, "type": "healthcare", "layer": "2813 Southeast Colt Drive", "path": "\/Users\/jasonsankovic\/Downloads\/2813 Southeast Colt Drive.geojson" }, "geometry": { "type": "Point", "coordinates": [ -122.732354708413283, 45.509678696130443 ] } },
{ "type": "Feature", "properties": { "_uid_": 5885, "osm_id": 4381862213, "name": "The Pediatric Practice", "longitude": -122.76372109335701, "latitude": 45.4858146691275, "type": "healthcare", "layer": "2813 Southeast Colt Drive", "path": "\/Users\/jasonsankovic\/Downloads\/2813 Southeast Colt Drive.geojson" }, "geometry": { "type": "Point", "coordinates": [ -122.763721093357347, 45.485814669127528 ] } },
{ "type": "Feature", "properties": { "_uid_": 5886, "osm_id": 4381862204, "name": "Dirkse Counseling", "longitude": -122.76314706989101, "latitude": 45.485795901200099, "type": "healthcare", "layer": "2813 Southeast Colt Drive", "path": "\/Users\/jasonsankovic\/Downloads\/2813 Southeast Colt Drive.geojson" }, "geometry": { "type": "Point", "coordinates": [ -122.763147069890806, 45.48579590120012 ] } },
{ "type": "Feature", "properties": { "_uid_": 5887, "osm_id": 4164587930, "name": "Chiropractic Art & Science", "longitude": -122.753514345268, "latitude": 45.485523198730803, "type": "healthcare", "layer": "2813 Southeast Colt Drive", "path": "\/Users\/jasonsankovic\/Downloads\/2813 Southeast Colt Drive.geojson" }, "geometry": { "type": "Point", "coordinates": [ -122.753514345267689, 45.485523198730775 ] } },
{ "type": "Feature", "properties": { "_uid_": 5888, "osm_id": 3882976307, "name": "NW Trauma Recovery", "longitude": -122.75176820001801, "latitude": 45.484406490390498, "type": "healthcare", "layer": "2813 Southeast Colt Drive", "path": "\/Users\/jasonsankovic\/Downloads\/2813 Southeast Colt Drive.geojson" }, "geometry": { "type": "Point", "coordinates": [ -122.751768200018404, 45.484406490390533 ] } },
{ "type": "Feature", "properties": { "_uid_": 5889, "osm_id": 3882976284, "name": "Gateway Chiropractic", "longitude": -122.751622583111, "latitude": 45.484399310534897, "type": "healthcare", "layer": "2813 Southeast Colt Drive", "path": "\/Users\/jasonsankovic\/Downloads\/2813 Southeast Colt Drive.geojson" }, "geometry": { "type": "Point", "coordinates": [ -122.75162258311083, 45.484399310534869 ] } },
{ "type": "Feature", "properties": { "_uid_": 5890, "osm_id": 3882976303, "name": "Lisa's Acupuncture", "longitude": -122.751721936781, "latitude": 45.484504111144197, "type": "healthcare", "layer": "2813 Southeast Colt Drive", "path": "\/Users\/jasonsankovic\/Downloads\/2813 Southeast Colt Drive.geojson" }, "geometry": { "type": "Point", "coordinates": [ -122.751721936781266, 45.484504111144211 ] } },
{ "type": "Feature", "properties": { "_uid_": 5891, "osm_id": 3882976278, "name": "Cornerstone Natural Medicine", "longitude": -122.751771523785, "latitude": 45.4845565113758, "type": "healthcare", "layer": "2813 Southeast Colt Drive", "path": "\/Users\/jasonsankovic\/Downloads\/2813 Southeast Colt Drive.geojson" }, "geometry": { "type": "Point", "coordinates": [ -122.751771523784939, 45.484556511375764 ] } },
{ "type": "Feature", "properties": { "_uid_": 5892, "osm_id": 3882976292, "name": null, "longitude": -122.750688964036, "latitude": 45.484545111810299, "type": "healthcare", "layer": "2813 Southeast Colt Drive", "path": "\/Users\/jasonsankovic\/Downloads\/2813 Southeast Colt Drive.geojson" }, "geometry": { "type": "Point", "coordinates": [ -122.750688964036044, 45.484545111810313 ] } },
{ "type": "Feature", "properties": { "_uid_": 5893, "osm_id": 4064469933, "name": "Providence Express Care", "longitude": -122.75099367257999, "latitude": 45.485621384367803, "type": "healthcare", "layer": "2813 Southeast Colt Drive", "path": "\/Users\/jasonsankovic\/Downloads\/2813 Southeast Colt Drive.geojson" }, "geometry": { "type": "Point", "coordinates": [ -122.750993672580435, 45.485621384367782 ] } },
{ "type": "Feature", "properties": { "_uid_": 5894, "osm_id": 3882976306, "name": "My Acupuncturist", "longitude": -122.747470569868, "latitude": 45.487882881605898, "type": "healthcare", "layer": "2813 Southeast Colt Drive", "path": "\/Users\/jasonsankovic\/Downloads\/2813 Southeast Colt Drive.geojson" }, "geometry": { "type": "Point", "coordinates": [ -122.74747056986763, 45.487882881605913 ] } },
{ "type": "Feature", "properties": { "_uid_": 5895, "osm_id": 3882976318, "name": "William F. McBride", "longitude": -122.74737040771301, "latitude": 45.487874001805999, "type": "healthcare", "layer": "2813 Southeast Colt Drive", "path": "\/Users\/jasonsankovic\/Downloads\/2813 Southeast Colt Drive.geojson" }, "geometry": { "type": "Point", "coordinates": [ -122.747370407713447, 45.487874001805999 ] } },
{ "type": "Feature", "properties": { "_uid_": 5896, "osm_id": 3882976285, "name": "Good Health Physical Therapy", "longitude": -122.747386846883, "latitude": 45.487978292133597, "type": "healthcare", "layer": "2813 Southeast Colt Drive", "path": "\/Users\/jasonsankovic\/Downloads\/2813 Southeast Colt Drive.geojson" }, "geometry": { "type": "Point", "coordinates": [ -122.74738684688316, 45.487978292133597 ] } },
{ "type": "Feature", "properties": { "_uid_": 5897, "osm_id": 3882976316, "name": "The Healer Within", "longitude": -122.74727078454799, "latitude": 45.488110795991098, "type": "healthcare", "layer": "2813 Southeast Colt Drive", "path": "\/Users\/jasonsankovic\/Downloads\/2813 Southeast Colt Drive.geojson" }, "geometry": { "type": "Point", "coordinates": [ -122.747270784548462, 45.488110795991126 ] } },
{ "type": "Feature", "properties": { "_uid_": 5898, "osm_id": 3882976309, "name": "Portland Acne Specialists", "longitude": -122.747248326666, "latitude": 45.488155068836001, "type": "healthcare", "layer": "2813 Southeast Colt Drive", "path": "\/Users\/jasonsankovic\/Downloads\/2813 Southeast Colt Drive.geojson" }, "geometry": { "type": "Point", "coordinates": [ -122.747248326666352, 45.488155068836029 ] } },
{ "type": "Feature", "properties": { "_uid_": 5899, "osm_id": 3882976275, "name": "Chiropractic Center of Raleigh Hills", "longitude": -122.747225689121, "latitude": 45.488199404623103, "type": "healthcare", "layer": "2813 Southeast Colt Drive", "path": "\/Users\/jasonsankovic\/Downloads\/2813 Southeast Colt Drive.geojson" }, "geometry": { "type": "Point", "coordinates": [ -122.74722568912118, 45.488199404623082 ] } },
{ "type": "Feature", "properties": { "_uid_": 5900, "osm_id": 4244871571, "name": "Children's Program", "longitude": -122.74346354471101, "latitude": 45.487658493041401, "type": "healthcare", "layer": "2813 Southeast Colt Drive", "path": "\/Users\/jasonsankovic\/Downloads\/2813 Southeast Colt Drive.geojson" }, "geometry": { "type": "Point", "coordinates": [ -122.74346354471129, 45.48765849304143 ] } },
{ "type": "Feature", "properties": { "_uid_": 6067, "osm_id": 3757485721, "name": "Laurelhurst Family Clinic", "longitude": -122.617036717749, "latitude": 45.526266802249197, "type": "healthcare", "layer": "2813 Southeast Colt Drive", "path": "\/Users\/jasonsankovic\/Downloads\/2813 Southeast Colt Drive.geojson" }, "geometry": { "type": "Point", "coordinates": [ -122.617036717749457, 45.526266802249168 ] } },
{ "type": "Feature", "properties": { "_uid_": 6068, "osm_id": 3757485720, "name": "An Sen Clinic", "longitude": -122.61686262424701, "latitude": 45.526197259726899, "type": "healthcare", "layer": "2813 Southeast Colt Drive", "path": "\/Users\/jasonsankovic\/Downloads\/2813 Southeast Colt Drive.geojson" }, "geometry": { "type": "Point", "coordinates": [ -122.616862624247403, 45.526197259726892 ] } },
{ "type": "Feature", "properties": { "_uid_": 6069, "osm_id": 3970573206, "name": "Providence Portland Medical Center", "longitude": -122.61468259271599, "latitude": 45.5263060103483, "type": "healthcare", "layer": "2813 Southeast Colt Drive", "path": "\/Users\/jasonsankovic\/Downloads\/2813 Southeast Colt Drive.geojson" }, "geometry": { "type": "Point", "coordinates": [ -122.614682592715909, 45.526306010348264 ] } },
{ "type": "Feature", "properties": { "_uid_": 6070, "osm_id": 4274934780, "name": "Ashton Chiropractic Center", "longitude": -122.60215001652401, "latitude": 45.516866076378001, "type": "healthcare", "layer": "2813 Southeast Colt Drive", "path": "\/Users\/jasonsankovic\/Downloads\/2813 Southeast Colt Drive.geojson" }, "geometry": { "type": "Point", "coordinates": [ -122.602150016524092, 45.51686607637798 ] } },
{ "type": "Feature", "properties": { "_uid_": 6071, "osm_id": 4274934785, "name": "Neighborhood Chiropractic", "longitude": -122.600969720072, "latitude": 45.516640481451198, "type": "healthcare", "layer": "2813 Southeast Colt Drive", "path": "\/Users\/jasonsankovic\/Downloads\/2813 Southeast Colt Drive.geojson" }, "geometry": { "type": "Point", "coordinates": [ -122.600969720072285, 45.516640481451233 ] } },
{ "type": "Feature", "properties": { "_uid_": 6205, "osm_id": 4244776488, "name": "Veteran Community Resource & Referral Center", "longitude": -122.672201630527, "latitude": 45.5200837899364, "type": "healthcare", "layer": "2813 Southeast Colt Drive", "path": "\/Users\/jasonsankovic\/Downloads\/2813 Southeast Colt Drive.geojson" }, "geometry": { "type": "Point", "coordinates": [ -122.672201630526544, 45.520083789936429 ] } },
{ "type": "Feature", "properties": { "_uid_": 6245, "osm_id": 4792455054, "name": "Stride Strong", "longitude": -122.661300844048, "latitude": 45.464769818133703, "type": "healthcare", "layer": "2813 Southeast Colt Drive", "path": "\/Users\/jasonsankovic\/Downloads\/2813 Southeast Colt Drive.geojson" }, "geometry": { "type": "Point", "coordinates": [ -122.661300844048355, 45.464769818133746 ] } },
{ "type": "Feature", "properties": { "_uid_": 6246, "osm_id": 4792455053, "name": "Children's Healing Art Project", "longitude": -122.661302191521, "latitude": 45.4649033846229, "type": "healthcare", "layer": "2813 Southeast Colt Drive", "path": "\/Users\/jasonsankovic\/Downloads\/2813 Southeast Colt Drive.geojson" }, "geometry": { "type": "Point", "coordinates": [ -122.661302191521258, 45.464903384622936 ] } },
{ "type": "Feature", "properties": { "_uid_": 6247, "osm_id": 4540378590, "name": "Bridget Geraghty", "longitude": -122.649500933802, "latitude": 45.4749454810717, "type": "healthcare", "layer": "2813 Southeast Colt Drive", "path": "\/Users\/jasonsankovic\/Downloads\/2813 Southeast Colt Drive.geojson" }, "geometry": { "type": "Point", "coordinates": [ -122.649500933802273, 45.474945481071686 ] } },
{ "type": "Feature", "properties": { "_uid_": 6248, "osm_id": 4540378589, "name": "Life Cycle Health & Education", "longitude": -122.649482787834, "latitude": 45.4749483157009, "type": "healthcare", "layer": "2813 Southeast Colt Drive", "path": "\/Users\/jasonsankovic\/Downloads\/2813 Southeast Colt Drive.geojson" }, "geometry": { "type": "Point", "coordinates": [ -122.649482787833534, 45.474948315700914 ] } },
{ "type": "Feature", "properties": { "_uid_": 6249, "osm_id": 4540377288, "name": null, "longitude": -122.649459970625, "latitude": 45.474947874758598, "type": "healthcare", "layer": "2813 Southeast Colt Drive", "path": "\/Users\/jasonsankovic\/Downloads\/2813 Southeast Colt Drive.geojson" }, "geometry": { "type": "Point", "coordinates": [ -122.649459970625287, 45.474947874758598 ] } },
{ "type": "Feature", "properties": { "_uid_": 6250, "osm_id": 4540378598, "name": "Pacific Northwest Behavioral Health", "longitude": -122.649178438615, "latitude": 45.474806773040399, "type": "healthcare", "layer": "2813 Southeast Colt Drive", "path": "\/Users\/jasonsankovic\/Downloads\/2813 Southeast Colt Drive.geojson" }, "geometry": { "type": "Point", "coordinates": [ -122.649178438615266, 45.474806773040427 ] } },
{ "type": "Feature", "properties": { "_uid_": 6251, "osm_id": 4085462537, "name": "Northwest Primary Care", "longitude": -122.649390710517, "latitude": 45.476879294992699, "type": "healthcare", "layer": "2813 Southeast Colt Drive", "path": "\/Users\/jasonsankovic\/Downloads\/2813 Southeast Colt Drive.geojson" }, "geometry": { "type": "Point", "coordinates": [ -122.649390710516911, 45.476879294992663 ] } },
{ "type": "Feature", "properties": { "_uid_": 6252, "osm_id": 4542039722, "name": "Jake H. Jacobsen", "longitude": -122.649079893429, "latitude": 45.478175165145899, "type": "healthcare", "layer": "2813 Southeast Colt Drive", "path": "\/Users\/jasonsankovic\/Downloads\/2813 Southeast Colt Drive.geojson" }, "geometry": { "type": "Point", "coordinates": [ -122.649079893428606, 45.478175165145934 ] } },
{ "type": "Feature", "properties": { "_uid_": 6253, "osm_id": 4542039726, "name": "Marlene Anderson", "longitude": -122.64907701881999, "latitude": 45.478204391640901, "type": "healthcare", "layer": "2813 Southeast Colt Drive", "path": "\/Users\/jasonsankovic\/Downloads\/2813 Southeast Colt Drive.geojson" }, "geometry": { "type": "Point", "coordinates": [ -122.649077018819696, 45.478204391640908 ] } },
{ "type": "Feature", "properties": { "_uid_": 6254, "osm_id": 4542039721, "name": "Alexander C. Duncan", "longitude": -122.64904414048, "latitude": 45.478176172956303, "type": "healthcare", "layer": "2813 Southeast Colt Drive", "path": "\/Users\/jasonsankovic\/Downloads\/2813 Southeast Colt Drive.geojson" }, "geometry": { "type": "Point", "coordinates": [ -122.649044140480285, 45.478176172956346 ] } },
{ "type": "Feature", "properties": { "_uid_": 6255, "osm_id": 4542039720, "name": "Janet E. Parker", "longitude": -122.64900838753201, "latitude": 45.4781771177786, "type": "healthcare", "layer": "2813 Southeast Colt Drive", "path": "\/Users\/jasonsankovic\/Downloads\/2813 Southeast Colt Drive.geojson" }, "geometry": { "type": "Point", "coordinates": [ -122.649008387531993, 45.478177117778607 ] } },
{ "type": "Feature", "properties": { "_uid_": 6256, "osm_id": 4542039719, "name": "Thelma Vega", "longitude": -122.648972724415, "latitude": 45.478178062600897, "type": "healthcare", "layer": "2813 Southeast Colt Drive", "path": "\/Users\/jasonsankovic\/Downloads\/2813 Southeast Colt Drive.geojson" }, "geometry": { "type": "Point", "coordinates": [ -122.648972724415202, 45.478178062600854 ] } },
{ "type": "Feature", "properties": { "_uid_": 6257, "osm_id": 4542039717, "name": "Rosalind N. Diamond", "longitude": -122.64904683542601, "latitude": 45.4782057143914, "type": "healthcare", "layer": "2813 Southeast Colt Drive", "path": "\/Users\/jasonsankovic\/Downloads\/2813 Southeast Colt Drive.geojson" }, "geometry": { "type": "Point", "coordinates": [ -122.649046835426148, 45.478205714391393 ] } },
{ "type": "Feature", "properties": { "_uid_": 6258, "osm_id": 4542039725, "name": "Melissa C. Schuler", "longitude": -122.64901647236999, "latitude": 45.4782069741537, "type": "healthcare", "layer": "2813 Southeast Colt Drive", "path": "\/Users\/jasonsankovic\/Downloads\/2813 Southeast Colt Drive.geojson" }, "geometry": { "type": "Point", "coordinates": [ -122.649016472369553, 45.478206974153743 ] } },
{ "type": "Feature", "properties": { "_uid_": 6259, "osm_id": 4542039724, "name": "Celeste Doneen", "longitude": -122.64898619914401, "latitude": 45.478208296904199, "type": "healthcare", "layer": "2813 Southeast Colt Drive", "path": "\/Users\/jasonsankovic\/Downloads\/2813 Southeast Colt Drive.geojson" }, "geometry": { "type": "Point", "coordinates": [ -122.648986199144474, 45.478208296904171 ] } },
{ "type": "Feature", "properties": { "_uid_": 6260, "osm_id": 4542039718, "name": "Adam J. Rodrguez", "longitude": -122.64893697146699, "latitude": 45.478179070411201, "type": "healthcare", "layer": "2813 Southeast Colt Drive", "path": "\/Users\/jasonsankovic\/Downloads\/2813 Southeast Colt Drive.geojson" }, "geometry": { "type": "Point", "coordinates": [ -122.64893697146691, 45.478179070411215 ] } },
{ "type": "Feature", "properties": { "_uid_": 6361, "osm_id": 3985498414, "name": "Planned Parenthood", "longitude": -122.661821777082, "latitude": 45.549864882634097, "type": "healthcare", "layer": "2813 Southeast Colt Drive", "path": "\/Users\/jasonsankovic\/Downloads\/2813 Southeast Colt Drive.geojson" }, "geometry": { "type": "Point", "coordinates": [ -122.661821777081599, 45.549864882634054 ] } },
{ "type": "Feature", "properties": { "_uid_": 6362, "osm_id": 4120438948, "name": "Satori Healing Arts", "longitude": -122.661982665349, "latitude": 45.5578057600843, "type": "healthcare", "layer": "2813 Southeast Colt Drive", "path": "\/Users\/jasonsankovic\/Downloads\/2813 Southeast Colt Drive.geojson" }, "geometry": { "type": "Point", "coordinates": [ -122.661982665348987, 45.557805760084264 ] } },
{ "type": "Feature", "properties": { "_uid_": 6363, "osm_id": 4120438934, "name": "Cynthia Fowler", "longitude": -122.661863189416, "latitude": 45.557780285952802, "type": "healthcare", "layer": "2813 Southeast Colt Drive", "path": "\/Users\/jasonsankovic\/Downloads\/2813 Southeast Colt Drive.geojson" }, "geometry": { "type": "Point", "coordinates": [ -122.661863189416195, 45.557780285952802 ] } },
{ "type": "Feature", "properties": { "_uid_": 6364, "osm_id": 4120438944, "name": "M. Joy Young", "longitude": -122.66181297359201, "latitude": 45.557780285952802, "type": "healthcare", "layer": "2813 Southeast Colt Drive", "path": "\/Users\/jasonsankovic\/Downloads\/2813 Southeast Colt Drive.geojson" }, "geometry": { "type": "Point", "coordinates": [ -122.661812973591822, 45.557780285952802 ] } },
{ "type": "Feature", "properties": { "_uid_": 6365, "osm_id": 2726419627, "name": "Blossom Clinic", "longitude": -122.65118877838999, "latitude": 45.548753665372701, "type": "healthcare", "layer": "2813 Southeast Colt Drive", "path": "\/Users\/jasonsankovic\/Downloads\/2813 Southeast Colt Drive.geojson" }, "geometry": { "type": "Point", "coordinates": [ -122.65118877838961, 45.548753665372715 ] } },
{ "type": "Feature", "properties": { "_uid_": 6508, "osm_id": 3934845558, "name": "Sunnyside Holistic Group", "longitude": -122.64039381345199, "latitude": 45.516301898528802, "type": "healthcare", "layer": "2813 Southeast Colt Drive", "path": "\/Users\/jasonsankovic\/Downloads\/2813 Southeast Colt Drive.geojson" }, "geometry": { "type": "Point", "coordinates": [ -122.640393813451851, 45.516301898528766 ] } },
{ "type": "Feature", "properties": { "_uid_": 6509, "osm_id": 3665447029, "name": "Zoom Care", "longitude": -122.641293206714, "latitude": 45.522688680697897, "type": "healthcare", "layer": "2813 Southeast Colt Drive", "path": "\/Users\/jasonsankovic\/Downloads\/2813 Southeast Colt Drive.geojson" }, "geometry": { "type": "Point", "coordinates": [ -122.641293206714323, 45.522688680697946 ] } },
{ "type": "Feature", "properties": { "_uid_": 6675, "osm_id": 2105331024, "name": null, "longitude": -122.596874570187, "latitude": 45.384307686713001, "type": "healthcare", "layer": "2813 Southeast Colt Drive", "path": "\/Users\/jasonsankovic\/Downloads\/2813 Southeast Colt Drive.geojson" }, "geometry": { "type": "Point", "coordinates": [ -122.596874570186571, 45.384307686713001 ] } },
{ "type": "Feature", "properties": { "_uid_": 6676, "osm_id": 3572570393, "name": "Adair Dental", "longitude": -122.584196646582, "latitude": 45.379183419775003, "type": "healthcare", "layer": "2813 Southeast Colt Drive", "path": "\/Users\/jasonsankovic\/Downloads\/2813 Southeast Colt Drive.geojson" }, "geometry": { "type": "Point", "coordinates": [ -122.584196646581788, 45.379183419775025 ] } },
{ "type": "Feature", "properties": { "_uid_": 6677, "osm_id": 3572570428, "name": "Square Peg Psychological", "longitude": -122.582750358974, "latitude": 45.3828292091642, "type": "healthcare", "layer": "2813 Southeast Colt Drive", "path": "\/Users\/jasonsankovic\/Downloads\/2813 Southeast Colt Drive.geojson" }, "geometry": { "type": "Point", "coordinates": [ -122.582750358974366, 45.382829209164193 ] } },
{ "type": "Feature", "properties": { "_uid_": 6678, "osm_id": 3572570417, "name": "Jennifer Checkis", "longitude": -122.582759431959, "latitude": 45.382847064946702, "type": "healthcare", "layer": "2813 Southeast Colt Drive", "path": "\/Users\/jasonsankovic\/Downloads\/2813 Southeast Colt Drive.geojson" }, "geometry": { "type": "Point", "coordinates": [ -122.582759431958735, 45.382847064946688 ] } },
{ "type": "Feature", "properties": { "_uid_": 6679, "osm_id": 3572570426, "name": "Smile Labs", "longitude": -122.582768504943, "latitude": 45.382864983818202, "type": "healthcare", "layer": "2813 Southeast Colt Drive", "path": "\/Users\/jasonsankovic\/Downloads\/2813 Southeast Colt Drive.geojson" }, "geometry": { "type": "Point", "coordinates": [ -122.58276850494309, 45.382864983818159 ] } },
{ "type": "Feature", "properties": { "_uid_": 6680, "osm_id": 3572570411, "name": "Hands of Dawn", "longitude": -122.58278656108, "latitude": 45.382900758449502, "type": "healthcare", "layer": "2813 Southeast Colt Drive", "path": "\/Users\/jasonsankovic\/Downloads\/2813 Southeast Colt Drive.geojson" }, "geometry": { "type": "Point", "coordinates": [ -122.582786561080312, 45.382900758449502 ] } },
{ "type": "Feature", "properties": { "_uid_": 6831, "osm_id": 4860086398, "name": "Milan Center Chiropractic", "longitude": -122.728109989033, "latitude": 45.4059093765309, "type": "healthcare", "layer": "2813 Southeast Colt Drive", "path": "\/Users\/jasonsankovic\/Downloads\/2813 Southeast Colt Drive.geojson" }, "geometry": { "type": "Point", "coordinates": [ -122.728109989032774, 45.405909376530914 ] } },
{ "type": "Feature", "properties": { "_uid_": 6832, "osm_id": 4467650374, "name": "Kooning Family Dentistry", "longitude": -122.719219272834, "latitude": 45.409683986228202, "type": "healthcare", "layer": "2813 Southeast Colt Drive", "path": "\/Users\/jasonsankovic\/Downloads\/2813 Southeast Colt Drive.geojson" }, "geometry": { "type": "Point", "coordinates": [ -122.719219272834309, 45.409683986228217 ] } },
{ "type": "Feature", "properties": { "_uid_": 6920, "osm_id": 1753219190, "name": "Working Class Acupuncture", "longitude": -122.568464540843, "latitude": 45.480454660259603, "type": "healthcare", "layer": "2813 Southeast Colt Drive", "path": "\/Users\/jasonsankovic\/Downloads\/2813 Southeast Colt Drive.geojson" }, "geometry": { "type": "Point", "coordinates": [ -122.568464540842555, 45.480454660259582 ] } },
{ "type": "Feature", "properties": { "_uid_": 7111, "osm_id": 2452436721, "name": "Columbia Medical Clinic", "longitude": -122.579370088392, "latitude": 45.499735410561499, "type": "healthcare", "layer": "2813 Southeast Colt Drive", "path": "\/Users\/jasonsankovic\/Downloads\/2813 Southeast Colt Drive.geojson" }, "geometry": { "type": "Point", "coordinates": [ -122.579370088391741, 45.499735410561485 ] } },
{ "type": "Feature", "properties": { "_uid_": 7301, "osm_id": 3181523323, "name": "Banfield Pet Hospital", "longitude": -122.80388854263499, "latitude": 45.501426473523502, "type": "healthcare", "layer": "2813 Southeast Colt Drive", "path": "\/Users\/jasonsankovic\/Downloads\/2813 Southeast Colt Drive.geojson" }, "geometry": { "type": "Point", "coordinates": [ -122.803888542634539, 45.501426473523509 ] } },
{ "type": "Feature", "properties": { "_uid_": 7302, "osm_id": 4054198208, "name": "Cascade Foot & Ankle Specialists", "longitude": -122.805206191493, "latitude": 45.525302765303003, "type": "healthcare", "layer": "2813 Southeast Colt Drive", "path": "\/Users\/jasonsankovic\/Downloads\/2813 Southeast Colt Drive.geojson" }, "geometry": { "type": "Point", "coordinates": [ -122.805206191493284, 45.525302765302975 ] } },
{ "type": "Feature", "properties": { "_uid_": 7303, "osm_id": 1631860078, "name": "NW Heights Dental of Portland", "longitude": -122.807385145046, "latitude": 45.526531063049703, "type": "healthcare", "layer": "2813 Southeast Colt Drive", "path": "\/Users\/jasonsankovic\/Downloads\/2813 Southeast Colt Drive.geojson" }, "geometry": { "type": "Point", "coordinates": [ -122.807385145046453, 45.526531063049738 ] } },
{ "type": "Feature", "properties": { "_uid_": 7304, "osm_id": 4055567723, "name": "Fair Start", "longitude": -122.798574378908, "latitude": 45.517492563349499, "type": "healthcare", "layer": "2813 Southeast Colt Drive", "path": "\/Users\/jasonsankovic\/Downloads\/2813 Southeast Colt Drive.geojson" }, "geometry": { "type": "Point", "coordinates": [ -122.798574378908256, 45.517492563349492 ] } },
{ "type": "Feature", "properties": { "_uid_": 7305, "osm_id": 4055567730, "name": "Pediatric Urgent Care", "longitude": -122.798511407007, "latitude": 45.517550597859099, "type": "healthcare", "layer": "2813 Southeast Colt Drive", "path": "\/Users\/jasonsankovic\/Downloads\/2813 Southeast Colt Drive.geojson" }, "geometry": { "type": "Point", "coordinates": [ -122.79851140700687, 45.517550597859127 ] } },
{ "type": "Feature", "properties": { "_uid_": 7306, "osm_id": 4055567733, "name": "World of Smiles", "longitude": -122.798461820003, "latitude": 45.517450390729003, "type": "healthcare", "layer": "2813 Southeast Colt Drive", "path": "\/Users\/jasonsankovic\/Downloads\/2813 Southeast Colt Drive.geojson" }, "geometry": { "type": "Point", "coordinates": [ -122.798461820003169, 45.517450390729017 ] } },
{ "type": "Feature", "properties": { "_uid_": 7307, "osm_id": 4055567725, "name": "Justus Orthodontics", "longitude": -122.79838402590001, "latitude": 45.5173995947099, "type": "healthcare", "layer": "2813 Southeast Colt Drive", "path": "\/Users\/jasonsankovic\/Downloads\/2813 Southeast Colt Drive.geojson" }, "geometry": { "type": "Point", "coordinates": [ -122.79838402589958, 45.517399594709858 ] } },
{ "type": "Feature", "properties": { "_uid_": 7308, "osm_id": 4055567724, "name": "Integrative Pediatrics", "longitude": -122.798448435105, "latitude": 45.5176085064208, "type": "healthcare", "layer": "2813 Southeast Colt Drive", "path": "\/Users\/jasonsankovic\/Downloads\/2813 Southeast Colt Drive.geojson" }, "geometry": { "type": "Point", "coordinates": [ -122.798448435105442, 45.5176085064208 ] } },
{ "type": "Feature", "properties": { "_uid_": 7309, "osm_id": 4055567726, "name": "Natura Integrative Medicine", "longitude": -122.79838528354099, "latitude": 45.517666477866896, "type": "healthcare", "layer": "2813 Southeast Colt Drive", "path": "\/Users\/jasonsankovic\/Downloads\/2813 Southeast Colt Drive.geojson" }, "geometry": { "type": "Point", "coordinates": [ -122.798385283540981, 45.517666477866868 ] } },
{ "type": "Feature", "properties": { "_uid_": 7310, "osm_id": 4055567729, "name": "Pathology Associates Medical Laboratories", "longitude": -122.797902528907, "latitude": 45.517303793418797, "type": "healthcare", "layer": "2813 Southeast Colt Drive", "path": "\/Users\/jasonsankovic\/Downloads\/2813 Southeast Colt Drive.geojson" }, "geometry": { "type": "Point", "coordinates": [ -122.797902528907287, 45.517303793418805 ] } },
{ "type": "Feature", "properties": { "_uid_": 7311, "osm_id": 4055567727, "name": "Northwest Women's Clinic", "longitude": -122.797667799124, "latitude": 45.517227567702101, "type": "healthcare", "layer": "2813 Southeast Colt Drive", "path": "\/Users\/jasonsankovic\/Downloads\/2813 Southeast Colt Drive.geojson" }, "geometry": { "type": "Point", "coordinates": [ -122.797667799123531, 45.517227567702122 ] } },
{ "type": "Feature", "properties": { "_uid_": 7312, "osm_id": 4055567732, "name": "Quest Diagnostics", "longitude": -122.79829482319199, "latitude": 45.517493066903, "type": "healthcare", "layer": "2813 Southeast Colt Drive", "path": "\/Users\/jasonsankovic\/Downloads\/2813 Southeast Colt Drive.geojson" }, "geometry": { "type": "Point", "coordinates": [ -122.798294823191867, 45.517493066902979 ] } },
{ "type": "Feature", "properties": { "_uid_": 7313, "osm_id": 4055567721, "name": "Advanced Dentistry", "longitude": -122.79829949443101, "latitude": 45.5176250607052, "type": "healthcare", "layer": "2813 Southeast Colt Drive", "path": "\/Users\/jasonsankovic\/Downloads\/2813 Southeast Colt Drive.geojson" }, "geometry": { "type": "Point", "coordinates": [ -122.798299494431333, 45.5176250607052 ] } },
{ "type": "Feature", "properties": { "_uid_": 7314, "osm_id": 4055567728, "name": "Pacific Sleep Program", "longitude": -122.798205620484, "latitude": 45.517586601884901, "type": "healthcare", "layer": "2813 Southeast Colt Drive", "path": "\/Users\/jasonsankovic\/Downloads\/2813 Southeast Colt Drive.geojson" }, "geometry": { "type": "Point", "coordinates": [ -122.798205620484154, 45.517586601884908 ] } },
{ "type": "Feature", "properties": { "_uid_": 7315, "osm_id": 4055567731, "name": "Premium Dental Lab", "longitude": -122.797604827222, "latitude": 45.517355407800899, "type": "healthcare", "layer": "2813 Southeast Colt Drive", "path": "\/Users\/jasonsankovic\/Downloads\/2813 Southeast Colt Drive.geojson" }, "geometry": { "type": "Point", "coordinates": [ -122.797604827222131, 45.517355407800871 ] } },
{ "type": "Feature", "properties": { "_uid_": 7316, "osm_id": 4054198209, "name": "Cornell Family Medicine", "longitude": -122.80509489023, "latitude": 45.525329072314499, "type": "healthcare", "layer": "2813 Southeast Colt Drive", "path": "\/Users\/jasonsankovic\/Downloads\/2813 Southeast Colt Drive.geojson" }, "geometry": { "type": "Point", "coordinates": [ -122.805094890229583, 45.525329072314477 ] } },
{ "type": "Feature", "properties": { "_uid_": 7317, "osm_id": 4054198216, "name": "Sunset Family Practice", "longitude": -122.804983588966, "latitude": 45.525355379313702, "type": "healthcare", "layer": "2813 Southeast Colt Drive", "path": "\/Users\/jasonsankovic\/Downloads\/2813 Southeast Colt Drive.geojson" }, "geometry": { "type": "Point", "coordinates": [ -122.804983588965882, 45.525355379313687 ] } },
{ "type": "Feature", "properties": { "_uid_": 7318, "osm_id": 4080964135, "name": "Dental Care Today", "longitude": -122.81900772785499, "latitude": 45.529182916581298, "type": "healthcare", "layer": "2813 Southeast Colt Drive", "path": "\/Users\/jasonsankovic\/Downloads\/2813 Southeast Colt Drive.geojson" }, "geometry": { "type": "Point", "coordinates": [ -122.81900772785545, 45.529182916581341 ] } },
{ "type": "Feature", "properties": { "_uid_": 7319, "osm_id": 4080964136, "name": "Gentech", "longitude": -122.819010422801, "latitude": 45.529335083794201, "type": "healthcare", "layer": "2813 Southeast Colt Drive", "path": "\/Users\/jasonsankovic\/Downloads\/2813 Southeast Colt Drive.geojson" }, "geometry": { "type": "Point", "coordinates": [ -122.819010422801284, 45.529335083794244 ] } },
{ "type": "Feature", "properties": { "_uid_": 7320, "osm_id": 4080964133, "name": "Aesthetic Smiles", "longitude": -122.81844708928701, "latitude": 45.5288699593115, "type": "healthcare", "layer": "2813 Southeast Colt Drive", "path": "\/Users\/jasonsankovic\/Downloads\/2813 Southeast Colt Drive.geojson" }, "geometry": { "type": "Point", "coordinates": [ -122.818447089286622, 45.528869959311471 ] } },
{ "type": "Feature", "properties": { "_uid_": 7429, "osm_id": 3527522985, "name": "Mountain Park Health Clinic", "longitude": -122.726218765865, "latitude": 45.4456613838816, "type": "healthcare", "layer": "2813 Southeast Colt Drive", "path": "\/Users\/jasonsankovic\/Downloads\/2813 Southeast Colt Drive.geojson" }, "geometry": { "type": "Point", "coordinates": [ -122.726218765865113, 45.445661383881649 ] } },
{ "type": "Feature", "properties": { "_uid_": 7430, "osm_id": 3502239077, "name": "Acadia Northwest", "longitude": -122.724649678558, "latitude": 45.453016303228999, "type": "healthcare", "layer": "2813 Southeast Colt Drive", "path": "\/Users\/jasonsankovic\/Downloads\/2813 Southeast Colt Drive.geojson" }, "geometry": { "type": "Point", "coordinates": [ -122.724649678558322, 45.453016303228971 ] } },
{ "type": "Feature", "properties": { "_uid_": 7431, "osm_id": 3502426357, "name": "Meeting Point Acupuncture", "longitude": -122.722380264656, "latitude": 45.451256357381602, "type": "healthcare", "layer": "2813 Southeast Colt Drive", "path": "\/Users\/jasonsankovic\/Downloads\/2813 Southeast Colt Drive.geojson" }, "geometry": { "type": "Point", "coordinates": [ -122.722380264656067, 45.451256357381553 ] } },
{ "type": "Feature", "properties": { "_uid_": 7432, "osm_id": 3502426358, "name": "Rheumatology Clinic", "longitude": -122.722343703224, "latitude": 45.451305385548203, "type": "healthcare", "layer": "2813 Southeast Colt Drive", "path": "\/Users\/jasonsankovic\/Downloads\/2813 Southeast Colt Drive.geojson" }, "geometry": { "type": "Point", "coordinates": [ -122.722343703223999, 45.451305385548196 ] } },
{ "type": "Feature", "properties": { "_uid_": 7433, "osm_id": 3442391437, "name": "Nick Rinard Physical Therapy", "longitude": -122.71929500081301, "latitude": 45.455029511087403, "type": "healthcare", "layer": "2813 Southeast Colt Drive", "path": "\/Users\/jasonsankovic\/Downloads\/2813 Southeast Colt Drive.geojson" }, "geometry": { "type": "Point", "coordinates": [ -122.719295000812764, 45.455029511087439 ] } },
{ "type": "Feature", "properties": { "_uid_": 7434, "osm_id": 3443509270, "name": "YMCA of Columbia Willamette", "longitude": -122.713648280768, "latitude": 45.456056063150399, "type": "healthcare", "layer": "2813 Southeast Colt Drive", "path": "\/Users\/jasonsankovic\/Downloads\/2813 Southeast Colt Drive.geojson" }, "geometry": { "type": "Point", "coordinates": [ -122.713648280768325, 45.456056063150427 ] } },
{ "type": "Feature", "properties": { "_uid_": 7593, "osm_id": 4086103119, "name": "Lula", "longitude": -122.658910516909, "latitude": 45.5094815901735, "type": "healthcare", "layer": "2813 Southeast Colt Drive", "path": "\/Users\/jasonsankovic\/Downloads\/2813 Southeast Colt Drive.geojson" }, "geometry": { "type": "Point", "coordinates": [ -122.658910516908833, 45.509481590173529 ] } },
{ "type": "Feature", "properties": { "_uid_": 7937, "osm_id": 4289624954, "name": "Jantzen Beach Modern Dentistry", "longitude": -122.68018927036999, "latitude": 45.611173908548203, "type": "healthcare", "layer": "2813 Southeast Colt Drive", "path": "\/Users\/jasonsankovic\/Downloads\/2813 Southeast Colt Drive.geojson" }, "geometry": { "type": "Point", "coordinates": [ -122.68018927036988, 45.611173908548196 ] } },
{ "type": "Feature", "properties": { "_uid_": 8029, "osm_id": 3112312936, "name": "Comprehensive Pain Clinic of Portland", "longitude": -122.673416242622, "latitude": 45.479699205862197, "type": "healthcare", "layer": "2813 Southeast Colt Drive", "path": "\/Users\/jasonsankovic\/Downloads\/2813 Southeast Colt Drive.geojson" }, "geometry": { "type": "Point", "coordinates": [ -122.673416242622196, 45.479699205862204 ] } },
{ "type": "Feature", "properties": { "_uid_": 8030, "osm_id": 3764152863, "name": "Special Olympics Oregon", "longitude": -122.673638485824, "latitude": 45.480887369696603, "type": "healthcare", "layer": "2813 Southeast Colt Drive", "path": "\/Users\/jasonsankovic\/Downloads\/2813 Southeast Colt Drive.geojson" }, "geometry": { "type": "Point", "coordinates": [ -122.673638485823503, 45.480887369696575 ] } },
{ "type": "Feature", "properties": { "_uid_": 8031, "osm_id": 4810623821, "name": "Family Ties", "longitude": -122.675009674273, "latitude": 45.482614458204402, "type": "healthcare", "layer": "2813 Southeast Colt Drive", "path": "\/Users\/jasonsankovic\/Downloads\/2813 Southeast Colt Drive.geojson" }, "geometry": { "type": "Point", "coordinates": [ -122.675009674273184, 45.482614458204431 ] } },
{ "type": "Feature", "properties": { "_uid_": 8032, "osm_id": 4810623822, "name": "Authentic Healing", "longitude": -122.675012369219, "latitude": 45.482680401565098, "type": "healthcare", "layer": "2813 Southeast Colt Drive", "path": "\/Users\/jasonsankovic\/Downloads\/2813 Southeast Colt Drive.geojson" }, "geometry": { "type": "Point", "coordinates": [ -122.675012369219047, 45.482680401565126 ] } },
{ "type": "Feature", "properties": { "_uid_": 8033, "osm_id": 2791841992, "name": "Namaste Integrative Medicine", "longitude": -122.676382839016, "latitude": 45.484278197568599, "type": "healthcare", "layer": "2813 Southeast Colt Drive", "path": "\/Users\/jasonsankovic\/Downloads\/2813 Southeast Colt Drive.geojson" }, "geometry": { "type": "Point", "coordinates": [ -122.676382839016483, 45.484278197568621 ] } },
{ "type": "Feature", "properties": { "_uid_": 8034, "osm_id": 3869816700, "name": "Oregon Sleep Specialists", "longitude": -122.67627261573099, "latitude": 45.484381297910502, "type": "healthcare", "layer": "2813 Southeast Colt Drive", "path": "\/Users\/jasonsankovic\/Downloads\/2813 Southeast Colt Drive.geojson" }, "geometry": { "type": "Point", "coordinates": [ -122.676272615731108, 45.48438129791051 ] } },
{ "type": "Feature", "properties": { "_uid_": 8035, "osm_id": 3315386398, "name": "Therapia", "longitude": -122.67494032433299, "latitude": 45.484080498828703, "type": "healthcare", "layer": "2813 Southeast Colt Drive", "path": "\/Users\/jasonsankovic\/Downloads\/2813 Southeast Colt Drive.geojson" }, "geometry": { "type": "Point", "coordinates": [ -122.674940324333235, 45.484080498828732 ] } },
{ "type": "Feature", "properties": { "_uid_": 8036, "osm_id": 3869816696, "name": "Community Health Charities", "longitude": -122.67607094394999, "latitude": 45.484271395584599, "type": "healthcare", "layer": "2813 Southeast Colt Drive", "path": "\/Users\/jasonsankovic\/Downloads\/2813 Southeast Colt Drive.geojson" }, "geometry": { "type": "Point", "coordinates": [ -122.676070943949838, 45.484271395584635 ] } },
{ "type": "Feature", "properties": { "_uid_": 8037, "osm_id": 3315389062, "name": "8 Hearts", "longitude": -122.67586289413001, "latitude": 45.484266860928201, "type": "healthcare", "layer": "2813 Southeast Colt Drive", "path": "\/Users\/jasonsankovic\/Downloads\/2813 Southeast Colt Drive.geojson" }, "geometry": { "type": "Point", "coordinates": [ -122.67586289413002, 45.484266860928187 ] } },
{ "type": "Feature", "properties": { "_uid_": 8038, "osm_id": 3869816701, "name": "Pacific Audiology Clinic", "longitude": -122.67575886922, "latitude": 45.484264719562503, "type": "healthcare", "layer": "2813 Southeast Colt Drive", "path": "\/Users\/jasonsankovic\/Downloads\/2813 Southeast Colt Drive.geojson" }, "geometry": { "type": "Point", "coordinates": [ -122.675758869220118, 45.484264719562518 ] } },
{ "type": "Feature", "properties": { "_uid_": 8039, "osm_id": 3315386397, "name": "National Multiple Sclerosis Society", "longitude": -122.675757431916, "latitude": 45.484373362276997, "type": "healthcare", "layer": "2813 Southeast Colt Drive", "path": "\/Users\/jasonsankovic\/Downloads\/2813 Southeast Colt Drive.geojson" }, "geometry": { "type": "Point", "coordinates": [ -122.675757431915684, 45.484373362276969 ] } },
{ "type": "Feature", "properties": { "_uid_": 8040, "osm_id": 3315386396, "name": "Element", "longitude": -122.67556276699401, "latitude": 45.484453600297897, "type": "healthcare", "layer": "2813 Southeast Colt Drive", "path": "\/Users\/jasonsankovic\/Downloads\/2813 Southeast Colt Drive.geojson" }, "geometry": { "type": "Point", "coordinates": [ -122.675562766993593, 45.48445360029794 ] } },
{ "type": "Feature", "properties": { "_uid_": 8041, "osm_id": 3660889661, "name": "Portland DBT Institute", "longitude": -122.67488337114401, "latitude": 45.485410968370303, "type": "healthcare", "layer": "2813 Southeast Colt Drive", "path": "\/Users\/jasonsankovic\/Downloads\/2813 Southeast Colt Drive.geojson" }, "geometry": { "type": "Point", "coordinates": [ -122.674883371144247, 45.485410968370338 ] } },
{ "type": "Feature", "properties": { "_uid_": 8042, "osm_id": 3660889662, "name": "Therapy Solutions for Kids", "longitude": -122.675163645513, "latitude": 45.485737896928597, "type": "healthcare", "layer": "2813 Southeast Colt Drive", "path": "\/Users\/jasonsankovic\/Downloads\/2813 Southeast Colt Drive.geojson" }, "geometry": { "type": "Point", "coordinates": [ -122.675163645512868, 45.485737896928612 ] } },
{ "type": "Feature", "properties": { "_uid_": 8043, "osm_id": 3660889656, "name": "Vicki Bruno", "longitude": -122.674982994309, "latitude": 45.485493472192402, "type": "healthcare", "layer": "2813 Southeast Colt Drive", "path": "\/Users\/jasonsankovic\/Downloads\/2813 Southeast Colt Drive.geojson" }, "geometry": { "type": "Point", "coordinates": [ -122.674982994309232, 45.485493472192431 ] } },
{ "type": "Feature", "properties": { "_uid_": 8044, "osm_id": 3660889647, "name": "Anita M. Katz", "longitude": -122.67499422325, "latitude": 45.485574779276, "type": "healthcare", "layer": "2813 Southeast Colt Drive", "path": "\/Users\/jasonsankovic\/Downloads\/2813 Southeast Colt Drive.geojson" }, "geometry": { "type": "Point", "coordinates": [ -122.67499422325028, 45.485574779275986 ] } },
{ "type": "Feature", "properties": { "_uid_": 8045, "osm_id": 4796106555, "name": "Libby Schwartz", "longitude": -122.67495496687199, "latitude": 45.485574464376597, "type": "healthcare", "layer": "2813 Southeast Colt Drive", "path": "\/Users\/jasonsankovic\/Downloads\/2813 Southeast Colt Drive.geojson" }, "geometry": { "type": "Point", "coordinates": [ -122.674954966872363, 45.485574464376583 ] } },
{ "type": "Feature", "properties": { "_uid_": 8046, "osm_id": 3660889646, "name": "Ancient Wellspring Counceling Services", "longitude": -122.674876543948, "latitude": 45.485573771597899, "type": "healthcare", "layer": "2813 Southeast Colt Drive", "path": "\/Users\/jasonsankovic\/Downloads\/2813 Southeast Colt Drive.geojson" }, "geometry": { "type": "Point", "coordinates": [ -122.674876543948074, 45.485573771597892 ] } },
{ "type": "Feature", "properties": { "_uid_": 8047, "osm_id": 3660889652, "name": "Evergreen Clinical", "longitude": -122.675016591301, "latitude": 45.485737267131597, "type": "healthcare", "layer": "2813 Southeast Colt Drive", "path": "\/Users\/jasonsankovic\/Downloads\/2813 Southeast Colt Drive.geojson" }, "geometry": { "type": "Point", "coordinates": [ -122.675016591300874, 45.485737267131626 ] } },
{ "type": "Feature", "properties": { "_uid_": 8048, "osm_id": 3660889650, "name": "Brian Goff", "longitude": -122.674943019279, "latitude": 45.485736889253403, "type": "healthcare", "layer": "2813 Southeast Colt Drive", "path": "\/Users\/jasonsankovic\/Downloads\/2813 Southeast Colt Drive.geojson" }, "geometry": { "type": "Point", "coordinates": [ -122.674943019279098, 45.485736889253445 ] } },