{
"type": "FeatureCollection",
"name": "Healthcare",
"crs": { "type": "name", "properties": { "name": "urn:ogc:def:crs:OGC:1.3:CRS84" } },
"features": [
{ "type": "Feature", "properties": { "name": "The Muhammad Ali Parkinson Center", "type": "healthcare", "reach": null }, "geometry": { "type": "Point", "coordinates": [ -112.079990135509107, 33.481096781994111 ] } },
{ "type": "Feature", "properties": { "name": "Willo MediSpa", "type": "healthcare", "reach": null }, "geometry": { "type": "Point", "coordinates": [ -112.07091122225863, 33.485092396729627 ] } },
{ "type": "Feature", "properties": { "name": "Savon Dental", "type": "healthcare", "reach": null }, "geometry": { "type": "Point", "coordinates": [ -112.009754816031048, 33.48027911515095 ] } },
{ "type": "Feature", "properties": { "name": "Southwest Fertility Center", "type": "healthcare", "reach": null }, "geometry": { "type": "Point", "coordinates": [ -112.012489916576612, 33.485297982826253 ] } },
{ "type": "Feature", "properties": { "name": "Osborn Ambulatory Surgical Center", "type": "healthcare", "reach": null }, "geometry": { "type": "Point", "coordinates": [ -112.071426406074067, 33.487100661296395 ] } },
{ "type": "Feature", "properties": { "name": "Christown Animal Hospital and Boarding", "type": "healthcare", "reach": null }, "geometry": { "type": "Point", "coordinates": [ -112.099595417427381, 33.511698553272375 ] } },
{ "type": "Feature", "properties": { "name": "Schneider Meditation", "type": "healthcare", "reach": null }, "geometry": { "type": "Point", "coordinates": [ -112.053988489441807, 33.486876199491427 ] } },
{ "type": "Feature", "properties": { "name": "Solis Mammography", "type": "healthcare", "reach": null }, "geometry": { "type": "Point", "coordinates": [ -112.053951209357507, 33.48695441655493 ] } },
{ "type": "Feature", "properties": { "name": "Central Phoenix Women's Health Care", "type": "healthcare", "reach": null }, "geometry": { "type": "Point", "coordinates": [ -112.054254839923544, 33.487020271671433 ] } },
{ "type": "Feature", "properties": { "name": "Arizona Urology Specialist", "type": "healthcare", "reach": null }, "geometry": { "type": "Point", "coordinates": [ -112.05420902584406, 33.48708058262725 ] } },
{ "type": "Feature", "properties": { "name": "Arizona Biltmore Dentistry", "type": "healthcare", "reach": null }, "geometry": { "type": "Point", "coordinates": [ -112.013297681680086, 33.502150112286166 ] } },
{ "type": "Feature", "properties": { "name": "Estrella Animal Hospital", "type": "healthcare", "reach": "outside" }, "geometry": { "type": "Point", "coordinates": [ -112.293570972347041, 33.493020219348281 ] } },
{ "type": "Feature", "properties": { "name": "Trinity Adult Medicine", "type": "healthcare", "reach": "outside" }, "geometry": { "type": "Point", "coordinates": [ -112.256071339800641, 33.495706414780187 ] } },
{ "type": "Feature", "properties": { "name": "Nextcare Urgent Care", "type": "healthcare", "reach": "outside" }, "geometry": { "type": "Point", "coordinates": [ -112.263797210570189, 33.551959587070122 ] } },
{ "type": "Feature", "properties": { "name": "Bright Now Dental", "type": "healthcare", "reach": "outside" }, "geometry": { "type": "Point", "coordinates": [ -112.258008377047801, 33.552174671773933 ] } },
{ "type": "Feature", "properties": { "name": "Southwest Spine & Sports", "type": "healthcare", "reach": "outside" }, "geometry": { "type": "Point", "coordinates": [ -111.92044520879918, 33.380102520828721 ] } },
{ "type": "Feature", "properties": { "name": "Urgent Care", "type": "healthcare", "reach": "outside" }, "geometry": { "type": "Point", "coordinates": [ -111.908622481344878, 33.394679291800948 ] } },
{ "type": "Feature", "properties": { "name": "Nextcare Urgent Care", "type": "healthcare", "reach": "outside" }, "geometry": { "type": "Point", "coordinates": [ -112.33820673167898, 33.463741902333325 ] } },
{ "type": "Feature", "properties": { "name": null, "type": "healthcare", "reach": null }, "geometry": { "type": "Point", "coordinates": [ -112.128776111453661, 33.458943697686244 ] } },
{ "type": "Feature", "properties": { "name": "Sanker Medical Center", "type": "healthcare", "reach": "outside" }, "geometry": { "type": "Point", "coordinates": [ -112.246497364997083, 34.538064594969612 ] } },
{ "type": "Feature", "properties": { "name": "family medical \/ vajelo dental", "type": "healthcare", "reach": "outside" }, "geometry": { "type": "Point", "coordinates": [ -112.254431734744074, 34.554566370115275 ] } },
{ "type": "Feature", "properties": { "name": "MMJ,  Medical Marijuanna Certification", "type": "healthcare", "reach": "outside" }, "geometry": { "type": "Point", "coordinates": [ -112.316392043319397, 34.585900986682454 ] } },
{ "type": "Feature", "properties": { "name": null, "type": "healthcare", "reach": "outside" }, "geometry": { "type": "Point", "coordinates": [ -112.33274659171903, 34.6357800763071 ] } },
{ "type": "Feature", "properties": { "name": null, "type": "healthcare", "reach": "outside" }, "geometry": { "type": "Point", "coordinates": [ -112.331985089852694, 34.636183189896173 ] } },
{ "type": "Feature", "properties": { "name": "All in One Benso Family Dental", "type": "healthcare", "reach": null }, "geometry": { "type": "Point", "coordinates": [ -112.111532590248871, 33.710557197624453 ] } },
{ "type": "Feature", "properties": { "name": "Caring Quality Dentistry", "type": "healthcare", "reach": "outside" }, "geometry": { "type": "Point", "coordinates": [ -111.703428765157142, 33.450540785274804 ] } },
{ "type": "Feature", "properties": { "name": "William Guth Dentistry", "type": "healthcare", "reach": "outside" }, "geometry": { "type": "Point", "coordinates": [ -112.010695711459647, 34.733178517339809 ] } },
{ "type": "Feature", "properties": { "name": null, "type": "healthcare", "reach": "outside" }, "geometry": { "type": "Point", "coordinates": [ -112.335113562661164, 33.638036503632492 ] } },
{ "type": "Feature", "properties": { "name": "Surgery Center of Peoria", "type": "healthcare", "reach": "outside" }, "geometry": { "type": "Point", "coordinates": [ -112.263360090352933, 33.60429965318378 ] } },
{ "type": "Feature", "properties": { "name": "DaVita Dialysis Center", "type": "healthcare", "reach": "outside" }, "geometry": { "type": "Point", "coordinates": [ -112.292912597075315, 33.618415095053592 ] } },
{ "type": "Feature", "properties": { "name": "Southwest Kidney Institute", "type": "healthcare", "reach": "outside" }, "geometry": { "type": "Point", "coordinates": [ -112.217944773017479, 33.610867600852167 ] } },
{ "type": "Feature", "properties": { "name": "Banner Thunderbird Occupational Health Clinic", "type": "healthcare", "reach": "outside" }, "geometry": { "type": "Point", "coordinates": [ -112.181386125731166, 33.606584665627061 ] } },
{ "type": "Feature", "properties": { "name": null, "type": "healthcare", "reach": "outside" }, "geometry": { "type": "Point", "coordinates": [ -112.187375642888043, 33.610300215997604 ] } },
{ "type": "Feature", "properties": { "name": "Adult & Pediatric Allergy Associates", "type": "healthcare", "reach": "outside" }, "geometry": { "type": "Point", "coordinates": [ -112.187383098904903, 33.610384082058488 ] } },
{ "type": "Feature", "properties": { "name": null, "type": "healthcare", "reach": "outside" }, "geometry": { "type": "Point", "coordinates": [ -112.186176930972906, 33.608688116393147 ] } },
{ "type": "Feature", "properties": { "name": "Heatherwood Dental", "type": "healthcare", "reach": "outside" }, "geometry": { "type": "Point", "coordinates": [ -112.185398900105355, 33.60915151956177 ] } },
{ "type": "Feature", "properties": { "name": "Planned Parenthood", "type": "healthcare", "reach": "outside" }, "geometry": { "type": "Point", "coordinates": [ -112.183605413640606, 33.608325561902859 ] } },
{ "type": "Feature", "properties": { "name": "Kids Dental AZ", "type": "healthcare", "reach": "outside" }, "geometry": { "type": "Point", "coordinates": [ -112.182600378500723, 33.609475017488151 ] } },
{ "type": "Feature", "properties": { "name": "Solomon Pediatric Dental", "type": "healthcare", "reach": "outside" }, "geometry": { "type": "Point", "coordinates": [ -112.182602085299763, 33.609537263018353 ] } },
{ "type": "Feature", "properties": { "name": null, "type": "healthcare", "reach": "outside" }, "geometry": { "type": "Point", "coordinates": [ -112.176059295759401, 33.611058224566989 ] } },
{ "type": "Feature", "properties": { "name": "Aesthetic Dentistry of Arrowhead", "type": "healthcare", "reach": "outside" }, "geometry": { "type": "Point", "coordinates": [ -112.204324067522009, 33.639875484724868 ] } },
{ "type": "Feature", "properties": { "name": "Union Hills Family Dentistry", "type": "healthcare", "reach": null }, "geometry": { "type": "Point", "coordinates": [ -112.233609864436531, 33.65385416635322 ] } },
{ "type": "Feature", "properties": { "name": null, "type": "healthcare", "reach": "outside" }, "geometry": { "type": "Point", "coordinates": [ -114.597232426173022, 34.986996862565796 ] } },
{ "type": "Feature", "properties": { "name": "Bagdad Medical Center", "type": "healthcare", "reach": "outside" }, "geometry": { "type": "Point", "coordinates": [ -113.183135677452427, 34.577505282550298 ] } },
{ "type": "Feature", "properties": { "name": "Poncell Hall", "type": "healthcare", "reach": "outside" }, "geometry": { "type": "Point", "coordinates": [ -109.542944214912197, 35.711759110569616 ] } },
{ "type": "Feature", "properties": { "name": "Cornerstone dental care", "type": "healthcare", "reach": null }, "geometry": { "type": "Point", "coordinates": [ -112.130430628543948, 33.525790422573593 ] } },
{ "type": "Feature", "properties": { "name": "Adult & Pediatric Allergy Associates", "type": "healthcare", "reach": null }, "geometry": { "type": "Point", "coordinates": [ -112.107948941085922, 33.524406276695245 ] } },
{ "type": "Feature", "properties": { "name": "Bright Now Dental", "type": "healthcare", "reach": null }, "geometry": { "type": "Point", "coordinates": [ -112.097893199795507, 33.522121485138612 ] } },
{ "type": "Feature", "properties": { "name": null, "type": "healthcare", "reach": null }, "geometry": { "type": "Point", "coordinates": [ -112.108588990725863, 33.538954689372687 ] } },
{ "type": "Feature", "properties": { "name": null, "type": "healthcare", "reach": null }, "geometry": { "type": "Point", "coordinates": [ -112.133852221629638, 33.568312058201847 ] } },
{ "type": "Feature", "properties": { "name": "John C Lincoln Community Health Center", "type": "healthcare", "reach": null }, "geometry": { "type": "Point", "coordinates": [ -112.073616947894394, 33.569800962962702 ] } },
{ "type": "Feature", "properties": { "name": null, "type": "healthcare", "reach": null }, "geometry": { "type": "Point", "coordinates": [ -112.056575727291587, 33.538444411259938 ] } },
{ "type": "Feature", "properties": { "name": "Risas Dental", "type": "healthcare", "reach": null }, "geometry": { "type": "Point", "coordinates": [ -112.133727625299741, 33.58269988694061 ] } },
{ "type": "Feature", "properties": { "name": "Bright Now! Dental", "type": "healthcare", "reach": "outside" }, "geometry": { "type": "Point", "coordinates": [ -111.600537439313129, 33.382103164950344 ] } },
{ "type": "Feature", "properties": { "name": "Gateway Smiles", "type": "healthcare", "reach": "outside" }, "geometry": { "type": "Point", "coordinates": [ -111.598876274689729, 33.381450715935685 ] } },
{ "type": "Feature", "properties": { "name": "Gentle Dental", "type": "healthcare", "reach": "outside" }, "geometry": { "type": "Point", "coordinates": [ -111.597457834856101, 33.395121417158336 ] } },
{ "type": "Feature", "properties": { "name": "Caring Critters Animal Hospital", "type": "healthcare", "reach": "outside" }, "geometry": { "type": "Point", "coordinates": [ -111.549951688696851, 33.412533817148351 ] } },
{ "type": "Feature", "properties": { "name": "DC Dental", "type": "healthcare", "reach": "outside" }, "geometry": { "type": "Point", "coordinates": [ -111.547944493026009, 33.411937610638084 ] } },
{ "type": "Feature", "properties": { "name": "Urgent Care", "type": "healthcare", "reach": "outside" }, "geometry": { "type": "Point", "coordinates": [ -111.875938447542069, 33.36350419893558 ] } },
{ "type": "Feature", "properties": { "name": "Patti Flint MD PC", "type": "healthcare", "reach": "outside" }, "geometry": { "type": "Point", "coordinates": [ -111.876189526663978, 33.387621181580514 ] } },
{ "type": "Feature", "properties": { "name": null, "type": "healthcare", "reach": "outside" }, "geometry": { "type": "Point", "coordinates": [ -111.843929587506778, 33.378407814504634 ] } },
{ "type": "Feature", "properties": { "name": "Southeast Valley Medical Group", "type": "healthcare", "reach": "outside" }, "geometry": { "type": "Point", "coordinates": [ -111.841669875409579, 33.379383969980317 ] } },
{ "type": "Feature", "properties": { "name": null, "type": "healthcare", "reach": "outside" }, "geometry": { "type": "Point", "coordinates": [ -111.804865808387689, 33.379335886346936 ] } },
{ "type": "Feature", "properties": { "name": "Dr. Pease Dentist", "type": "healthcare", "reach": "outside" }, "geometry": { "type": "Point", "coordinates": [ -111.883552567890248, 33.414553510333306 ] } },
{ "type": "Feature", "properties": { "name": "American Dental", "type": "healthcare", "reach": "outside" }, "geometry": { "type": "Point", "coordinates": [ -111.868821275209044, 33.433143803683834 ] } },
{ "type": "Feature", "properties": { "name": "Women's Care Center Clinic", "type": "healthcare", "reach": "outside" }, "geometry": { "type": "Point", "coordinates": [ -111.822472877787945, 33.423578081830428 ] } },
{ "type": "Feature", "properties": { "name": "Americare Hospice & Palliative Care", "type": "healthcare", "reach": "outside" }, "geometry": { "type": "Point", "coordinates": [ -111.807407321989515, 33.437467495052147 ] } },
{ "type": "Feature", "properties": { "name": "Pediatric Dentist", "type": "healthcare", "reach": "outside" }, "geometry": { "type": "Point", "coordinates": [ -111.716907896163818, 33.285420197696276 ] } },
{ "type": "Feature", "properties": { "name": "Team Orthodontics & Jungle Roots", "type": "healthcare", "reach": "outside" }, "geometry": { "type": "Point", "coordinates": [ -111.74441269319604, 33.307789153336437 ] } },
{ "type": "Feature", "properties": { "name": "Higley Dental Care", "type": "healthcare", "reach": "outside" }, "geometry": { "type": "Point", "coordinates": [ -111.720440431187086, 33.290189312750606 ] } },
{ "type": "Feature", "properties": { "name": "Chiropractor", "type": "healthcare", "reach": "outside" }, "geometry": { "type": "Point", "coordinates": [ -111.721813326435807, 33.293935261963099 ] } },
{ "type": "Feature", "properties": { "name": "Gilbert Pediatrics", "type": "healthcare", "reach": "outside" }, "geometry": { "type": "Point", "coordinates": [ -111.695274936986252, 33.288385024451074 ] } },
{ "type": "Feature", "properties": { "name": "Arizona Advanced Dental", "type": "healthcare", "reach": "outside" }, "geometry": { "type": "Point", "coordinates": [ -111.765851616272258, 33.379499190559898 ] } },
{ "type": "Feature", "properties": { "name": "Johnson Larsen Family Dentistry", "type": "healthcare", "reach": "outside" }, "geometry": { "type": "Point", "coordinates": [ -111.739897580914999, 33.363380404061687 ] } },
{ "type": "Feature", "properties": { "name": "Gilbert Pediatrics", "type": "healthcare", "reach": "outside" }, "geometry": { "type": "Point", "coordinates": [ -111.735850940054618, 33.379999978232348 ] } },
{ "type": "Feature", "properties": { "name": "BodyWorkz", "type": "healthcare", "reach": "outside" }, "geometry": { "type": "Point", "coordinates": [ -111.690918287521313, 33.379845151434878 ] } },
{ "type": "Feature", "properties": { "name": "AZ Urogynecology & Pelvic Health Center", "type": "healthcare", "reach": "outside" }, "geometry": { "type": "Point", "coordinates": [ -111.690120403885956, 33.381100785814212 ] } },
{ "type": "Feature", "properties": { "name": "Rollins & Petersen Orthodontics - Mesa", "type": "healthcare", "reach": "outside" }, "geometry": { "type": "Point", "coordinates": [ -111.68676241152238, 33.383916164388857 ] } },
{ "type": "Feature", "properties": { "name": "Arizona Maxillofacial Surgeons P.C. (AZ MAX)", "type": "healthcare", "reach": "outside" }, "geometry": { "type": "Point", "coordinates": [ -111.686797625481532, 33.384152819159631 ] } },
{ "type": "Feature", "properties": { "name": "FastMed Urgent Care", "type": "healthcare", "reach": null }, "geometry": { "type": "Point", "coordinates": [ -111.914253211377272, 33.466433876733888 ] } },
{ "type": "Feature", "properties": { "name": "Ingleside Animal Hospital", "type": "healthcare", "reach": null }, "geometry": { "type": "Point", "coordinates": [ -111.976129976631171, 33.479469457779309 ] } },
{ "type": "Feature", "properties": { "name": "Desert Valley Dental", "type": "healthcare", "reach": "outside" }, "geometry": { "type": "Point", "coordinates": [ -112.186708104800431, 33.562445484651846 ] } },
{ "type": "Feature", "properties": { "name": "Glendale Care Center", "type": "healthcare", "reach": "outside" }, "geometry": { "type": "Point", "coordinates": [ -112.161215623836142, 33.563833812066015 ] } },
{ "type": "Feature", "properties": { "name": "NOVA", "type": "healthcare", "reach": "outside" }, "geometry": { "type": "Point", "coordinates": [ -112.154230593681419, 33.566273417619506 ] } },
{ "type": "Feature", "properties": { "name": null, "type": "healthcare", "reach": "outside" }, "geometry": { "type": "Point", "coordinates": [ -112.218806976027153, 33.580925469322111 ] } },
{ "type": "Feature", "properties": { "name": "Crossroads Chiropractic", "type": "healthcare", "reach": "outside" }, "geometry": { "type": "Point", "coordinates": [ -112.20488892817265, 33.582295688143773 ] } },
{ "type": "Feature", "properties": { "name": "Yacko Dentistry", "type": "healthcare", "reach": "outside" }, "geometry": { "type": "Point", "coordinates": [ -112.203768818844893, 33.583461655457029 ] } },
{ "type": "Feature", "properties": { "name": "Western Dental", "type": "healthcare", "reach": "outside" }, "geometry": { "type": "Point", "coordinates": [ -112.186748259493612, 33.581399199738456 ] } },
{ "type": "Feature", "properties": { "name": "Choices Pregnancy Center", "type": "healthcare", "reach": "outside" }, "geometry": { "type": "Point", "coordinates": [ -112.183687968815207, 33.581531215144715 ] } },
{ "type": "Feature", "properties": { "name": "dentist", "type": "healthcare", "reach": "outside" }, "geometry": { "type": "Point", "coordinates": [ -112.186735772911163, 33.584301995300244 ] } },
{ "type": "Feature", "properties": { "name": "Intel Clinic CH-3", "type": "healthcare", "reach": "outside" }, "geometry": { "type": "Point", "coordinates": [ -111.932958111886265, 33.307879919142188 ] } },
{ "type": "Feature", "properties": { "name": "Hope Community Health Center", "type": "healthcare", "reach": "outside" }, "geometry": { "type": "Point", "coordinates": [ -111.860171307506732, 33.30796325242904 ] } },
{ "type": "Feature", "properties": { "name": "Spectrum Dermatology (Chandler Office)", "type": "healthcare", "reach": "outside" }, "geometry": { "type": "Point", "coordinates": [ -111.860156844630637, 33.308145684481701 ] } },
{ "type": "Feature", "properties": { "name": "HonorHealth Medical Group - South Tempe - Primary Care", "type": "healthcare", "reach": "outside" }, "geometry": { "type": "Point", "coordinates": [ -111.913057194407983, 33.333309165605151 ] } },
{ "type": "Feature", "properties": { "name": "Ajay Narwani", "type": "healthcare", "reach": "outside" }, "geometry": { "type": "Point", "coordinates": [ -111.877667165474818, 33.349824475275724 ] } },
{ "type": "Feature", "properties": { "name": "George A Simpson PC", "type": "healthcare", "reach": "outside" }, "geometry": { "type": "Point", "coordinates": [ -111.877590359518038, 33.349896887818851 ] } },
{ "type": "Feature", "properties": { "name": "Abrazo Health Care", "type": "healthcare", "reach": null }, "geometry": { "type": "Point", "coordinates": [ -112.064722728266318, 33.437153323266777 ] } },
{ "type": "Feature", "properties": { "name": "CMG Care Today", "type": "healthcare", "reach": null }, "geometry": { "type": "Point", "coordinates": [ -112.074011308304122, 33.449476685062173 ] } },
{ "type": "Feature", "properties": { "name": "Arizona Burn Foundation", "type": "healthcare", "reach": null }, "geometry": { "type": "Point", "coordinates": [ -112.065366191504353, 33.464725417176851 ] } },
{ "type": "Feature", "properties": { "name": "Western Dental", "type": "healthcare", "reach": null }, "geometry": { "type": "Point", "coordinates": [ -112.06546671298463, 33.466364184113132 ] } },
{ "type": "Feature", "properties": { "name": "Prentice Eye Institute", "type": "healthcare", "reach": null }, "geometry": { "type": "Point", "coordinates": [ -112.043158580039503, 33.451883390235864 ] } },
{ "type": "Feature", "properties": { "name": "Boys and Girls Club of Metropolitan Phoenix", "type": "healthcare", "reach": null }, "geometry": { "type": "Point", "coordinates": [ -112.05030413913552, 33.464049083304921 ] } },
{ "type": "Feature", "properties": { "name": "Comprehensive Health Center", "type": "healthcare", "reach": null }, "geometry": { "type": "Point", "coordinates": [ -112.028333233748043, 33.457534799938799 ] } },
{ "type": "Feature", "properties": { "name": "Arizona Pain Treatment Centers", "type": "healthcare", "reach": null }, "geometry": { "type": "Point", "coordinates": [ -112.053680007973227, 33.465389305869508 ] } },
{ "type": "Feature", "properties": { "name": "South Central Famiy Health Center", "type": "healthcare", "reach": "outside" }, "geometry": { "type": "Point", "coordinates": [ -112.074132940193593, 33.403058965864624 ] } },
{ "type": "Feature", "properties": { "name": "North Valley Surgery Center", "type": "healthcare", "reach": null }, "geometry": { "type": "Point", "coordinates": [ -111.888279502915296, 33.617994755706015 ] } },
{ "type": "Feature", "properties": { "name": "Mayo Clinic Specialty Building", "type": "healthcare", "reach": null }, "geometry": { "type": "Point", "coordinates": [ -111.955291577322399, 33.658833120450232 ] } },
{ "type": "Feature", "properties": { "name": "MCB-Phoenix", "type": "healthcare", "reach": null }, "geometry": { "type": "Point", "coordinates": [ -111.954448238933679, 33.6585329123428 ] } },
{ "type": "Feature", "properties": { "name": "Enamor Dentistry", "type": "healthcare", "reach": null }, "geometry": { "type": "Point", "coordinates": [ -111.922823229019286, 33.626665494736443 ] } },
{ "type": "Feature", "properties": { "name": "Michael L. Bleeker, DMD", "type": "healthcare", "reach": null }, "geometry": { "type": "Point", "coordinates": [ -111.917192409155376, 33.699531188939467 ] } },
{ "type": "Feature", "properties": { "name": "Banfield Pet Hospital", "type": "healthcare", "reach": "outside" }, "geometry": { "type": "Point", "coordinates": [ -111.957309822271242, 33.350800501245089 ] } },
{ "type": "Feature", "properties": { "name": "Banfield Pet Hospital", "type": "healthcare", "reach": null }, "geometry": { "type": "Point", "coordinates": [ -111.888061212301253, 33.577533318921603 ] } },
{ "type": "Feature", "properties": { "name": null, "type": "healthcare", "reach": "outside" }, "geometry": { "type": "Point", "coordinates": [ -112.204860721072734, 33.523485522469642 ] } },
{ "type": "Feature", "properties": { "name": "Dental Center", "type": "healthcare", "reach": "outside" }, "geometry": { "type": "Point", "coordinates": [ -112.204875094117284, 33.524669807556222 ] } },
{ "type": "Feature", "properties": { "name": "Urgent Care", "type": "healthcare", "reach": "outside" }, "geometry": { "type": "Point", "coordinates": [ -112.203609817039606, 33.525024176291446 ] } },
{ "type": "Feature", "properties": { "name": "Sunrise OB\/GYN", "type": "healthcare", "reach": "outside" }, "geometry": { "type": "Point", "coordinates": [ -112.172294636066724, 33.501860220250784 ] } },
{ "type": "Feature", "properties": { "name": "GB Family Care", "type": "healthcare", "reach": "outside" }, "geometry": { "type": "Point", "coordinates": [ -112.172179202552712, 33.501875801036014 ] } },
{ "type": "Feature", "properties": { "name": "Trinity Adult Medicine", "type": "healthcare", "reach": "outside" }, "geometry": { "type": "Point", "coordinates": [ -112.172337485705768, 33.50195857391062 ] } },
{ "type": "Feature", "properties": { "name": "Family Medicine And Geriatrics", "type": "healthcare", "reach": "outside" }, "geometry": { "type": "Point", "coordinates": [ -112.1722490016503, 33.501954079457924 ] } },
{ "type": "Feature", "properties": { "name": "Cardiology", "type": "healthcare", "reach": "outside" }, "geometry": { "type": "Point", "coordinates": [ -112.172101408449123, 33.501886962269886 ] } },
{ "type": "Feature", "properties": { "name": "Pulmonary Medicine St 207", "type": "healthcare", "reach": "outside" }, "geometry": { "type": "Point", "coordinates": [ -112.172026309291354, 33.501875801036014 ] } },
{ "type": "Feature", "properties": { "name": "Family Medicine St 200", "type": "healthcare", "reach": "outside" }, "geometry": { "type": "Point", "coordinates": [ -112.172098803334777, 33.501949585004994 ] } },
{ "type": "Feature", "properties": { "name": "Sonora Quest", "type": "healthcare", "reach": "outside" }, "geometry": { "type": "Point", "coordinates": [ -112.172420759532613, 33.503182254883349 ] } },
{ "type": "Feature", "properties": { "name": "Hope For Hunger", "type": "healthcare", "reach": "outside" }, "geometry": { "type": "Point", "coordinates": [ -112.177161169286919, 33.51903408610486 ] } },
{ "type": "Feature", "properties": { "name": "Glenview Medical Clinic", "type": "healthcare", "reach": "outside" }, "geometry": { "type": "Point", "coordinates": [ -112.151916174183398, 33.525540599473018 ] } },
{ "type": "Feature", "properties": { "name": null, "type": "healthcare", "reach": "outside" }, "geometry": { "type": "Point", "coordinates": [ -112.151916443678004, 33.525651881674712 ] } },
{ "type": "Feature", "properties": { "name": "Southwest Network", "type": "healthcare", "reach": "outside" }, "geometry": { "type": "Point", "coordinates": [ -112.149725632363072, 33.52523146485315 ] } },
{ "type": "Feature", "properties": { "name": "Glendale Family Dentistry", "type": "healthcare", "reach": "outside" }, "geometry": { "type": "Point", "coordinates": [ -112.217574936614994, 33.538948923958166 ] } },
{ "type": "Feature", "properties": { "name": "Gorby Chiropractic", "type": "healthcare", "reach": "outside" }, "geometry": { "type": "Point", "coordinates": [ -112.200991677144032, 33.538688955776152 ] } },
{ "type": "Feature", "properties": { "name": "R1 Reflexology", "type": "healthcare", "reach": "outside" }, "geometry": { "type": "Point", "coordinates": [ -112.19998170127009, 33.538690603042433 ] } },
{ "type": "Feature", "properties": { "name": "Northside Family Dental Care", "type": "healthcare", "reach": "outside" }, "geometry": { "type": "Point", "coordinates": [ -112.18648190901186, 33.540500405597939 ] } },
{ "type": "Feature", "properties": { "name": "Banfield Pet Hospital", "type": "healthcare", "reach": "outside" }, "geometry": { "type": "Point", "coordinates": [ -112.182299712375126, 33.551366585362281 ] } },
{ "type": "Feature", "properties": { "name": "The Salvation Army", "type": "healthcare", "reach": "outside" }, "geometry": { "type": "Point", "coordinates": [ -112.189477071832187, 33.553395920505714 ] } },
{ "type": "Feature", "properties": { "name": "Urgent Care", "type": "healthcare", "reach": "outside" }, "geometry": { "type": "Point", "coordinates": [ -112.167683763376388, 33.553471082923835 ] } },
{ "type": "Feature", "properties": { "name": "Talecris Plasma Resources", "type": "healthcare", "reach": "outside" }, "geometry": { "type": "Point", "coordinates": [ -112.167843304170844, 33.553849364499555 ] } },
{ "type": "Feature", "properties": { "name": "Meridian Dental Care", "type": "healthcare", "reach": "outside" }, "geometry": { "type": "Point", "coordinates": [ -111.578910139521838, 33.413980862538395 ] } },
{ "type": "Feature", "properties": { "name": "SunWest Dental Center", "type": "healthcare", "reach": "outside" }, "geometry": { "type": "Point", "coordinates": [ -111.563742714770171, 33.41481790032865 ] } },
{ "type": "Feature", "properties": { "name": "Goldfield Cardiovascular Institute", "type": "healthcare", "reach": "outside" }, "geometry": { "type": "Point", "coordinates": [ -111.560356425475149, 33.413781106022817 ] } },
{ "type": "Feature", "properties": { "name": "Canyon Vista Dental Care", "type": "healthcare", "reach": "outside" }, "geometry": { "type": "Point", "coordinates": [ -111.546398312758967, 33.414517593422723 ] } },
{ "type": "Feature", "properties": { "name": "Genesis Project", "type": "healthcare", "reach": "outside" }, "geometry": { "type": "Point", "coordinates": [ -111.546875587669433, 33.420637275692869 ] } },
{ "type": "Feature", "properties": { "name": "PVPD - Palm Valley Pediatric Dentistry", "type": "healthcare", "reach": "outside" }, "geometry": { "type": "Point", "coordinates": [ -112.37311050254884, 33.485727659189322 ] } },
{ "type": "Feature", "properties": { "name": "Bradshaw Dental", "type": "healthcare", "reach": "outside" }, "geometry": { "type": "Point", "coordinates": [ -112.351109773093938, 33.487112423798166 ] } },
{ "type": "Feature", "properties": { "name": "Advanced laser dentistry", "type": "healthcare", "reach": "outside" }, "geometry": { "type": "Point", "coordinates": [ -112.423543809061414, 33.640092219996376 ] } },
{ "type": "Feature", "properties": { "name": "PVPD - Palm Valley Pediatric Dentistry", "type": "healthcare", "reach": "outside" }, "geometry": { "type": "Point", "coordinates": [ -112.379962312546937, 33.638271566929191 ] } },
{ "type": "Feature", "properties": { "name": "Banner Del E Webb Medical Centers Louisa Kellam Center for Womens Health", "type": "healthcare", "reach": "outside" }, "geometry": { "type": "Point", "coordinates": [ -112.372097921560581, 33.660183109342846 ] } },
{ "type": "Feature", "properties": { "name": "Banfield Pet Hospital", "type": "healthcare", "reach": "outside" }, "geometry": { "type": "Point", "coordinates": [ -112.356660283571472, 33.641017713852555 ] } },
{ "type": "Feature", "properties": { "name": "Scottsdale Cat Clinic", "type": "healthcare", "reach": null }, "geometry": { "type": "Point", "coordinates": [ -111.917774607291008, 33.494144765274257 ] } },
{ "type": "Feature", "properties": { "name": "Toothology", "type": "healthcare", "reach": null }, "geometry": { "type": "Point", "coordinates": [ -111.919179392732332, 33.500578466336101 ] } },
{ "type": "Feature", "properties": { "name": "Diamond M Dental", "type": "healthcare", "reach": "outside" }, "geometry": { "type": "Point", "coordinates": [ -110.787877326018148, 33.395585665112797 ] } },
{ "type": "Feature", "properties": { "name": "Pal Verde Family Medical Care", "type": "healthcare", "reach": "outside" }, "geometry": { "type": "Point", "coordinates": [ -110.787253625716389, 33.395700864221176 ] } },
{ "type": "Feature", "properties": { "name": "Yuma Assisted Living", "type": "healthcare", "reach": "outside" }, "geometry": { "type": "Point", "coordinates": [ -114.625603288970652, 32.677958270165583 ] } },
{ "type": "Feature", "properties": { "name": "Concerntra Urgent Care", "type": "healthcare", "reach": "outside" }, "geometry": { "type": "Point", "coordinates": [ -111.010183409379209, 32.293827863070362 ] } },
{ "type": "Feature", "properties": { "name": "The Fountains at La Cholla", "type": "healthcare", "reach": "outside" }, "geometry": { "type": "Point", "coordinates": [ -111.010046146803802, 32.314954912813782 ] } },
{ "type": "Feature", "properties": { "name": "OrthoPros", "type": "healthcare", "reach": "outside" }, "geometry": { "type": "Point", "coordinates": [ -111.004607386747608, 32.322588285376547 ] } },
{ "type": "Feature", "properties": { "name": "Union Hills Family Dentistry", "type": "healthcare", "reach": null }, "geometry": { "type": "Point", "coordinates": [ -112.154091175149318, 33.655175818984354 ] } },
{ "type": "Feature", "properties": { "name": "Andrew Rowen Orthodontics", "type": "healthcare", "reach": "outside" }, "geometry": { "type": "Point", "coordinates": [ -110.255147885940772, 31.5378809043651 ] } },
{ "type": "Feature", "properties": { "name": "Cochise Children's Dentistry", "type": "healthcare", "reach": "outside" }, "geometry": { "type": "Point", "coordinates": [ -110.254750920416711, 31.53778030063366 ] } },
{ "type": "Feature", "properties": { "name": "Southwest Family Medicine", "type": "healthcare", "reach": "outside" }, "geometry": { "type": "Point", "coordinates": [ -112.590376767671401, 33.386002754682501 ] } },
{ "type": "Feature", "properties": { "name": "North Buckeye Animal Hospital", "type": "healthcare", "reach": "outside" }, "geometry": { "type": "Point", "coordinates": [ -112.558363416059706, 33.433200103913684 ] } },
{ "type": "Feature", "properties": { "name": "Alliance Care", "type": "healthcare", "reach": "outside" }, "geometry": { "type": "Point", "coordinates": [ -112.558776191932765, 33.4351721632192 ] } },
{ "type": "Feature", "properties": { "name": "Alliance Urgent Care", "type": "healthcare", "reach": "outside" }, "geometry": { "type": "Point", "coordinates": [ -112.557561310342521, 33.437770796059247 ] } },
{ "type": "Feature", "properties": { "name": "Buckeye Pediatrics", "type": "healthcare", "reach": "outside" }, "geometry": { "type": "Point", "coordinates": [ -112.553571892165749, 33.437872071072924 ] } },
{ "type": "Feature", "properties": { "name": "OrthoPros", "type": "healthcare", "reach": "outside" }, "geometry": { "type": "Point", "coordinates": [ -110.822822599054163, 32.223019074565826 ] } },
{ "type": "Feature", "properties": { "name": "Anderson Dental Group", "type": "healthcare", "reach": "outside" }, "geometry": { "type": "Point", "coordinates": [ -111.323235236616853, 34.24949002012967 ] } },
{ "type": "Feature", "properties": { "name": "Change Point Integrated Health", "type": "healthcare", "reach": "outside" }, "geometry": { "type": "Point", "coordinates": [ -110.160912277016891, 34.901714751780908 ] } },
{ "type": "Feature", "properties": { "name": "North Country Healthcare", "type": "healthcare", "reach": "outside" }, "geometry": { "type": "Point", "coordinates": [ -110.144378335055023, 34.926198408969704 ] } },
{ "type": "Feature", "properties": { "name": "Dr Joe Gerard", "type": "healthcare", "reach": null }, "geometry": { "type": "Point", "coordinates": [ -112.016766526149723, 33.597142408725702 ] } },
{ "type": "Feature", "properties": { "name": "Urgent Care Extra", "type": "healthcare", "reach": null }, "geometry": { "type": "Point", "coordinates": [ -112.011732097802948, 33.640219209560371 ] } },
{ "type": "Feature", "properties": { "name": "OrthoPros", "type": "healthcare", "reach": "outside" }, "geometry": { "type": "Point", "coordinates": [ -110.966260103899131, 32.134453901958956 ] } },
{ "type": "Feature", "properties": { "name": "Davis-Monthan Clinic", "type": "healthcare", "reach": "outside" }, "geometry": { "type": "Point", "coordinates": [ -110.859543931238392, 32.17325168337473 ] } },
{ "type": "Feature", "properties": { "name": "Urgent Care", "type": "healthcare", "reach": "outside" }, "geometry": { "type": "Point", "coordinates": [ -110.841520492703935, 32.191151505660272 ] } },
{ "type": "Feature", "properties": { "name": "Broadway Smiles Denistry", "type": "healthcare", "reach": "outside" }, "geometry": { "type": "Point", "coordinates": [ -110.87409053029721, 32.221774562306237 ] } },
{ "type": "Feature", "properties": { "name": "Cat Hospital of Tucson", "type": "healthcare", "reach": "outside" }, "geometry": { "type": "Point", "coordinates": [ -110.836791940711379, 32.220616898302559 ] } },
{ "type": "Feature", "properties": { "name": "Wiseman Animal Hospital & Boarding Kennel", "type": "healthcare", "reach": "outside" }, "geometry": { "type": "Point", "coordinates": [ -110.865533628058316, 32.23646967818955 ] } },
{ "type": "Feature", "properties": { "name": "The Little Clinic", "type": "healthcare", "reach": null }, "geometry": { "type": "Point", "coordinates": [ -112.150437906551872, 33.597811716356176 ] } },
{ "type": "Feature", "properties": { "name": "Campus Health", "type": "healthcare", "reach": "outside" }, "geometry": { "type": "Point", "coordinates": [ -110.952398919402114, 32.22830806158678 ] } },
{ "type": "Feature", "properties": { "name": "Fox Family Dental", "type": "healthcare", "reach": "outside" }, "geometry": { "type": "Point", "coordinates": [ -112.278008109207306, 33.598671220951765 ] } },
{ "type": "Feature", "properties": { "name": "Banner Urgent Care", "type": "healthcare", "reach": "outside" }, "geometry": { "type": "Point", "coordinates": [ -111.047360367075541, 32.336037112132495 ] } },
{ "type": "Feature", "properties": { "name": "Southern Arizona Urgent Care", "type": "healthcare", "reach": "outside" }, "geometry": { "type": "Point", "coordinates": [ -111.043936797696247, 32.337989870859737 ] } },
{ "type": "Feature", "properties": { "name": "Wags to Riches", "type": "healthcare", "reach": "outside" }, "geometry": { "type": "Point", "coordinates": [ -111.123067414780706, 32.362972325013814 ] } },
{ "type": "Feature", "properties": { "name": "FastMed Urgent Care", "type": "healthcare", "reach": "outside" }, "geometry": { "type": "Point", "coordinates": [ -111.098904620099987, 32.349645282072778 ] } },
{ "type": "Feature", "properties": { "name": "Twin Peaks Veterinarian", "type": "healthcare", "reach": "outside" }, "geometry": { "type": "Point", "coordinates": [ -111.12565159835853, 32.374270210180825 ] } },
{ "type": "Feature", "properties": { "name": "Evan Kligman, MD", "type": "healthcare", "reach": "outside" }, "geometry": { "type": "Point", "coordinates": [ -110.909355603574355, 32.258160161456551 ] } },
{ "type": "Feature", "properties": { "name": "Dehnert Dental", "type": "healthcare", "reach": "outside" }, "geometry": { "type": "Point", "coordinates": [ -110.908597605137615, 32.266318792032195 ] } },
{ "type": "Feature", "properties": { "name": null, "type": "healthcare", "reach": "outside" }, "geometry": { "type": "Point", "coordinates": [ -110.771509482552318, 31.960427791366602 ] } },
{ "type": "Feature", "properties": { "name": "Adelante Healthcare", "type": "healthcare", "reach": "outside" }, "geometry": { "type": "Point", "coordinates": [ -112.735895040208973, 32.944112878182906 ] } },
{ "type": "Feature", "properties": { "name": "Sun Life Family Health Center", "type": "healthcare", "reach": "outside" }, "geometry": { "type": "Point", "coordinates": [ -112.046421710309076, 33.044035355296934 ] } },
{ "type": "Feature", "properties": { "name": "Coolidge Chiropractic Office", "type": "healthcare", "reach": "outside" }, "geometry": { "type": "Point", "coordinates": [ -111.523769660920479, 32.985124002842639 ] } },
{ "type": "Feature", "properties": { "name": "Maricopa Fiesta Dental Care", "type": "healthcare", "reach": "outside" }, "geometry": { "type": "Point", "coordinates": [ -112.046960879142617, 33.071809372193542 ] } },
{ "type": "Feature", "properties": { "name": "Smiles Works Dentistry", "type": "healthcare", "reach": "outside" }, "geometry": { "type": "Point", "coordinates": [ -111.822123882300076, 33.218264725588782 ] } },
{ "type": "Feature", "properties": { "name": "Walker Dentistry", "type": "healthcare", "reach": "outside" }, "geometry": { "type": "Point", "coordinates": [ -111.88204878810464, 33.260674062043883 ] } },
{ "type": "Feature", "properties": { "name": "Chandler Dental Health", "type": "healthcare", "reach": "outside" }, "geometry": { "type": "Point", "coordinates": [ -111.859477628444324, 33.260721384913481 ] } },
{ "type": "Feature", "properties": { "name": "Sonoran Smile Orthodontics", "type": "healthcare", "reach": "outside" }, "geometry": { "type": "Point", "coordinates": [ -111.840681099776347, 33.247131982944012 ] } },
{ "type": "Feature", "properties": { "name": "Life Care Animal Hospital", "type": "healthcare", "reach": "outside" }, "geometry": { "type": "Point", "coordinates": [ -111.79161790373513, 33.23599372195546 ] } },
{ "type": "Feature", "properties": { "name": "Urgent Care", "type": "healthcare", "reach": "outside" }, "geometry": { "type": "Point", "coordinates": [ -111.790130742782253, 33.25995272312953 ] } },
{ "type": "Feature", "properties": { "name": null, "type": "healthcare", "reach": "outside" }, "geometry": { "type": "Point", "coordinates": [ -111.791410482736026, 33.262381800480291 ] } },
{ "type": "Feature", "properties": { "name": "Vista Dorada Dental", "type": "healthcare", "reach": "outside" }, "geometry": { "type": "Point", "coordinates": [ -111.757149366620411, 33.26183857276753 ] } },
{ "type": "Feature", "properties": { "name": "Sonoran Smile Orthodontics", "type": "healthcare", "reach": "outside" }, "geometry": { "type": "Point", "coordinates": [ -111.717493418066013, 33.234581512482961 ] } },
{ "type": "Feature", "properties": { "name": "Triumph Dental", "type": "healthcare", "reach": "outside" }, "geometry": { "type": "Point", "coordinates": [ -111.632764769625481, 33.24170206171371 ] } },
{ "type": "Feature", "properties": { "name": "Peach Tree Dental Group", "type": "healthcare", "reach": "outside" }, "geometry": { "type": "Point", "coordinates": [ -111.638282222100557, 33.2519484135357 ] } },
{ "type": "Feature", "properties": { "name": "OneHealth Urgent Care", "type": "healthcare", "reach": "outside" }, "geometry": { "type": "Point", "coordinates": [ -111.638293001883966, 33.25260228332273 ] } },
{ "type": "Feature", "properties": { "name": "Desert Dental Group PC", "type": "healthcare", "reach": "outside" }, "geometry": { "type": "Point", "coordinates": [ -110.771644319676469, 32.10173250576387 ] } },
{ "type": "Feature", "properties": { "name": "Vail Family Dentistry", "type": "healthcare", "reach": "outside" }, "geometry": { "type": "Point", "coordinates": [ -110.713004004728191, 32.044666587606301 ] } },
{ "type": "Feature", "properties": { "name": "Oro Valley Pet Clinic", "type": "healthcare", "reach": "outside" }, "geometry": { "type": "Point", "coordinates": [ -110.936046706622221, 32.442069855383728 ] } },
{ "type": "Feature", "properties": { "name": "Marana Health Center", "type": "healthcare", "reach": "outside" }, "geometry": { "type": "Point", "coordinates": [ -111.212961196441853, 32.44938715082148 ] } },
{ "type": "Feature", "properties": { "name": "Dr. Jeff Crawford", "type": "healthcare", "reach": "outside" }, "geometry": { "type": "Point", "coordinates": [ -110.915037268083353, 33.053555954014726 ] } },
{ "type": "Feature", "properties": { "name": "CVRMC Kearny Clinic", "type": "healthcare", "reach": "outside" }, "geometry": { "type": "Point", "coordinates": [ -110.910072818497184, 33.059134709157654 ] } },
{ "type": "Feature", "properties": { "name": "Chiropractor", "type": "healthcare", "reach": "outside" }, "geometry": { "type": "Point", "coordinates": [ -110.906408859947859, 33.060169769683604 ] } },
{ "type": "Feature", "properties": { "name": null, "type": "healthcare", "reach": "outside" }, "geometry": { "type": "Point", "coordinates": [ -110.905580074266709, 33.05931329335256 ] } }
]
}
