{
"type": "FeatureCollection",
"name": "Healthcare",
"crs": { "type": "name", "properties": { "name": "urn:ogc:def:crs:OGC:1.3:CRS84" } },
"features": [
{ "type": "Feature", "properties": { "name": null, "type": "healthcare" }, "geometry": { "type": "Point", "coordinates": [ -112.128776111453661, 33.458943697686244 ] } },
{ "type": "Feature", "properties": { "name": "Cornerstone dental care", "type": "healthcare" }, "geometry": { "type": "Point", "coordinates": [ -112.130430628543948, 33.525790422573593 ] } },
{ "type": "Feature", "properties": { "name": "Adult & Pediatric Allergy Associates", "type": "healthcare" }, "geometry": { "type": "Point", "coordinates": [ -112.107948941085922, 33.524406276695245 ] } },
{ "type": "Feature", "properties": { "name": "Bright Now Dental", "type": "healthcare" }, "geometry": { "type": "Point", "coordinates": [ -112.097893199795507, 33.522121485138612 ] } },
{ "type": "Feature", "properties": { "name": null, "type": "healthcare" }, "geometry": { "type": "Point", "coordinates": [ -112.108588990725863, 33.538954689372687 ] } },
{ "type": "Feature", "properties": { "name": null, "type": "healthcare" }, "geometry": { "type": "Point", "coordinates": [ -112.133852221629638, 33.568312058201847 ] } },
{ "type": "Feature", "properties": { "name": "John C Lincoln Community Health Center", "type": "healthcare" }, "geometry": { "type": "Point", "coordinates": [ -112.073616947894394, 33.569800962962702 ] } },
{ "type": "Feature", "properties": { "name": null, "type": "healthcare" }, "geometry": { "type": "Point", "coordinates": [ -112.056575727291587, 33.538444411259938 ] } },
{ "type": "Feature", "properties": { "name": "Risas Dental", "type": "healthcare" }, "geometry": { "type": "Point", "coordinates": [ -112.133727625299741, 33.58269988694061 ] } },
{ "type": "Feature", "properties": { "name": "North Valley Surgery Center", "type": "healthcare" }, "geometry": { "type": "Point", "coordinates": [ -111.888279502915296, 33.617994755706015 ] } },
{ "type": "Feature", "properties": { "name": "Mayo Clinic Specialty Building", "type": "healthcare" }, "geometry": { "type": "Point", "coordinates": [ -111.955291577322399, 33.658833120450232 ] } },
{ "type": "Feature", "properties": { "name": "MCB-Phoenix", "type": "healthcare" }, "geometry": { "type": "Point", "coordinates": [ -111.954448238933679, 33.6585329123428 ] } },
{ "type": "Feature", "properties": { "name": "Enamor Dentistry", "type": "healthcare" }, "geometry": { "type": "Point", "coordinates": [ -111.922823229019286, 33.626665494736443 ] } },
{ "type": "Feature", "properties": { "name": "Michael L. Bleeker, DMD", "type": "healthcare" }, "geometry": { "type": "Point", "coordinates": [ -111.917192409155376, 33.699531188939467 ] } },
{ "type": "Feature", "properties": { "name": "All in One Benso Family Dental", "type": "healthcare" }, "geometry": { "type": "Point", "coordinates": [ -112.111532590248871, 33.710557197624453 ] } },
{ "type": "Feature", "properties": { "name": "Banfield Pet Hospital", "type": "healthcare" }, "geometry": { "type": "Point", "coordinates": [ -111.888061212301253, 33.577533318921603 ] } },
{ "type": "Feature", "properties": { "name": "Union Hills Family Dentistry", "type": "healthcare" }, "geometry": { "type": "Point", "coordinates": [ -112.154091175149318, 33.655175818984354 ] } },
{ "type": "Feature", "properties": { "name": "Union Hills Family Dentistry", "type": "healthcare" }, "geometry": { "type": "Point", "coordinates": [ -112.233609864436531, 33.65385416635322 ] } },
{ "type": "Feature", "properties": { "name": "Ingleside Animal Hospital", "type": "healthcare" }, "geometry": { "type": "Point", "coordinates": [ -111.976129976631171, 33.479469457779309 ] } },
{ "type": "Feature", "properties": { "name": "The Muhammad Ali Parkinson Center", "type": "healthcare" }, "geometry": { "type": "Point", "coordinates": [ -112.079990135509107, 33.481096781994111 ] } },
{ "type": "Feature", "properties": { "name": "Willo MediSpa", "type": "healthcare" }, "geometry": { "type": "Point", "coordinates": [ -112.07091122225863, 33.485092396729627 ] } },
{ "type": "Feature", "properties": { "name": "Savon Dental", "type": "healthcare" }, "geometry": { "type": "Point", "coordinates": [ -112.009754816031048, 33.48027911515095 ] } },
{ "type": "Feature", "properties": { "name": "Southwest Fertility Center", "type": "healthcare" }, "geometry": { "type": "Point", "coordinates": [ -112.012489916576612, 33.485297982826253 ] } },
{ "type": "Feature", "properties": { "name": "Osborn Ambulatory Surgical Center", "type": "healthcare" }, "geometry": { "type": "Point", "coordinates": [ -112.071426406074067, 33.487100661296395 ] } },
{ "type": "Feature", "properties": { "name": "Christown Animal Hospital and Boarding", "type": "healthcare" }, "geometry": { "type": "Point", "coordinates": [ -112.099595417427381, 33.511698553272375 ] } },
{ "type": "Feature", "properties": { "name": "Schneider Meditation", "type": "healthcare" }, "geometry": { "type": "Point", "coordinates": [ -112.053988489441807, 33.486876199491427 ] } },
{ "type": "Feature", "properties": { "name": "Solis Mammography", "type": "healthcare" }, "geometry": { "type": "Point", "coordinates": [ -112.053951209357507, 33.48695441655493 ] } },
{ "type": "Feature", "properties": { "name": "Central Phoenix Women's Health Care", "type": "healthcare" }, "geometry": { "type": "Point", "coordinates": [ -112.054254839923544, 33.487020271671433 ] } },
{ "type": "Feature", "properties": { "name": "Arizona Urology Specialist", "type": "healthcare" }, "geometry": { "type": "Point", "coordinates": [ -112.05420902584406, 33.48708058262725 ] } },
{ "type": "Feature", "properties": { "name": "Arizona Biltmore Dentistry", "type": "healthcare" }, "geometry": { "type": "Point", "coordinates": [ -112.013297681680086, 33.502150112286166 ] } },
{ "type": "Feature", "properties": { "name": "Abrazo Health Care", "type": "healthcare" }, "geometry": { "type": "Point", "coordinates": [ -112.064722728266318, 33.437153323266777 ] } },
{ "type": "Feature", "properties": { "name": "CMG Care Today", "type": "healthcare" }, "geometry": { "type": "Point", "coordinates": [ -112.074011308304122, 33.449476685062173 ] } },
{ "type": "Feature", "properties": { "name": "Arizona Burn Foundation", "type": "healthcare" }, "geometry": { "type": "Point", "coordinates": [ -112.065366191504353, 33.464725417176851 ] } },
{ "type": "Feature", "properties": { "name": "Western Dental", "type": "healthcare" }, "geometry": { "type": "Point", "coordinates": [ -112.06546671298463, 33.466364184113132 ] } },
{ "type": "Feature", "properties": { "name": "Prentice Eye Institute", "type": "healthcare" }, "geometry": { "type": "Point", "coordinates": [ -112.043158580039503, 33.451883390235864 ] } },
{ "type": "Feature", "properties": { "name": "Boys and Girls Club of Metropolitan Phoenix", "type": "healthcare" }, "geometry": { "type": "Point", "coordinates": [ -112.05030413913552, 33.464049083304921 ] } },
{ "type": "Feature", "properties": { "name": "Comprehensive Health Center", "type": "healthcare" }, "geometry": { "type": "Point", "coordinates": [ -112.028333233748043, 33.457534799938799 ] } },
{ "type": "Feature", "properties": { "name": "Arizona Pain Treatment Centers", "type": "healthcare" }, "geometry": { "type": "Point", "coordinates": [ -112.053680007973227, 33.465389305869508 ] } },
{ "type": "Feature", "properties": { "name": "Dr Joe Gerard", "type": "healthcare" }, "geometry": { "type": "Point", "coordinates": [ -112.016766526149723, 33.597142408725702 ] } },
{ "type": "Feature", "properties": { "name": "Urgent Care Extra", "type": "healthcare" }, "geometry": { "type": "Point", "coordinates": [ -112.011732097802948, 33.640219209560371 ] } },
{ "type": "Feature", "properties": { "name": "The Little Clinic", "type": "healthcare" }, "geometry": { "type": "Point", "coordinates": [ -112.150437906551872, 33.597811716356176 ] } }
]
}
