{
"type": "FeatureCollection",
"name": "healthcare",
"crs": { "type": "name", "properties": { "name": "urn:ogc:def:crs:OGC:1.3:CRS84" } },
"features": [
{ "type": "Feature", "properties": { "_uid_": 1, "osm_id": "206392665", "code": "2110", "name": "Franciscus Gasthuis & Vlietland", "fclass": "hospital", "lat": 51.922276, "lng": 4.379976 }, "geometry": { "type": "Point", "coordinates": [ 4.379976, 51.922276 ] } },
{ "type": "Feature", "properties": { "_uid_": 2, "osm_id": "278013447", "code": "2120", "name": "Gezondheidscentrum Nieuw Rijswijk", "fclass": "doctors", "lat": 52.037413, "lng": 4.29975 }, "geometry": { "type": "Point", "coordinates": [ 4.29975, 52.037413 ] } },
{ "type": "Feature", "properties": { "_uid_": 3, "osm_id": "278013448", "code": "2101", "name": "Nieuw Rijswijk Apotheek", "fclass": "pharmacy", "lat": 52.037439, "lng": 4.299899 }, "geometry": { "type": "Point", "coordinates": [ 4.299899, 52.037439 ] } },
{ "type": "Feature", "properties": { "_uid_": 4, "osm_id": "290952527", "code": "2110", "name": "Havenziekenhuis", "fclass": "hospital", "lat": 51.920355, "lng": 4.498221 }, "geometry": { "type": "Point", "coordinates": [ 4.498221, 51.920355 ] } },
{ "type": "Feature", "properties": { "_uid_": 5, "osm_id": "293235828", "code": "2101", "name": "Apotheek Ypenburg", "fclass": "pharmacy", "lat": 52.041815, "lng": 4.365494 }, "geometry": { "type": "Point", "coordinates": [ 4.365494, 52.041815 ] } },
{ "type": "Feature", "properties": { "_uid_": 6, "osm_id": "294460066", "code": "2101", "name": "Zuiderapotheek", "fclass": "pharmacy", "lat": 52.152237, "lng": 4.493791 }, "geometry": { "type": "Point", "coordinates": [ 4.493791, 52.152237 ] } },
{ "type": "Feature", "properties": { "_uid_": 7, "osm_id": "297335611", "code": "2101", "name": "Stevenshof Apotheek", "fclass": "pharmacy", "lat": 52.150732, "lng": 4.455103 }, "geometry": { "type": "Point", "coordinates": [ 4.455103, 52.150732 ] } },
{ "type": "Feature", "properties": { "_uid_": 8, "osm_id": "298488442", "code": "2101", "name": "Geurts", "fclass": "pharmacy", "lat": 51.921173, "lng": 4.611021 }, "geometry": { "type": "Point", "coordinates": [ 4.611021, 51.921173 ] } },
{ "type": "Feature", "properties": { "_uid_": 9, "osm_id": "321558290", "code": "2101", "name": "Warmond", "fclass": "pharmacy", "lat": 52.197085, "lng": 4.504231 }, "geometry": { "type": "Point", "coordinates": [ 4.504231, 52.197085 ] } },
{ "type": "Feature", "properties": { "_uid_": 10, "osm_id": "349043749", "code": "2101", "name": "Benu Apotheek", "fclass": "pharmacy", "lat": 52.031168, "lng": 4.311859 }, "geometry": { "type": "Point", "coordinates": [ 4.311859, 52.031168 ] } },
{ "type": "Feature", "properties": { "_uid_": 11, "osm_id": "362817227", "code": "2101", "name": "Tot Hulp der Menscheid", "fclass": "pharmacy", "lat": 52.176749, "lng": 4.504426 }, "geometry": { "type": "Point", "coordinates": [ 4.504426, 52.176749 ] } },
{ "type": "Feature", "properties": { "_uid_": 12, "osm_id": "370546204", "code": "2120", "name": "Gezondheidscentrum Merenwijk", "fclass": "doctors", "lat": 52.177126, "lng": 4.504013 }, "geometry": { "type": "Point", "coordinates": [ 4.504013, 52.177126 ] } },
{ "type": "Feature", "properties": { "_uid_": 13, "osm_id": "393437179", "code": "2101", "name": "Apotheek De Lier", "fclass": "pharmacy", "lat": 51.975073, "lng": 4.251894 }, "geometry": { "type": "Point", "coordinates": [ 4.251894, 51.975073 ] } },
{ "type": "Feature", "properties": { "_uid_": 14, "osm_id": "409816900", "code": "2101", "name": null, "fclass": "pharmacy", "lat": 52.033352, "lng": 4.285849 }, "geometry": { "type": "Point", "coordinates": [ 4.285849, 52.033352 ] } },
{ "type": "Feature", "properties": { "_uid_": 15, "osm_id": "409816901", "code": "2120", "name": null, "fclass": "doctors", "lat": 52.033323, "lng": 4.285849 }, "geometry": { "type": "Point", "coordinates": [ 4.285849, 52.033323 ] } },
{ "type": "Feature", "properties": { "_uid_": 16, "osm_id": "410296037", "code": "2120", "name": "Gezondheidscentrum Het Kruispunt", "fclass": "doctors", "lat": 52.03108, "lng": 4.311912 }, "geometry": { "type": "Point", "coordinates": [ 4.311912, 52.03108 ] } },
{ "type": "Feature", "properties": { "_uid_": 17, "osm_id": "412974516", "code": "2101", "name": "Henry Dunant", "fclass": "pharmacy", "lat": 52.028529, "lng": 4.314145 }, "geometry": { "type": "Point", "coordinates": [ 4.314145, 52.028529 ] } },
{ "type": "Feature", "properties": { "_uid_": 18, "osm_id": "429678995", "code": "2101", "name": "Sloothaak", "fclass": "pharmacy", "lat": 52.191344, "lng": 4.441925 }, "geometry": { "type": "Point", "coordinates": [ 4.441925, 52.191344 ] } },
{ "type": "Feature", "properties": { "_uid_": 19, "osm_id": "441140676", "code": "2101", "name": "Apotheek West-Gouwe", "fclass": "pharmacy", "lat": 52.046263, "lng": 4.645544 }, "geometry": { "type": "Point", "coordinates": [ 4.645544, 52.046263 ] } },
{ "type": "Feature", "properties": { "_uid_": 20, "osm_id": "441141893", "code": "2101", "name": "Apotheek Waddinxveen", "fclass": "pharmacy", "lat": 52.03963, "lng": 4.647542 }, "geometry": { "type": "Point", "coordinates": [ 4.647542, 52.03963 ] } },
{ "type": "Feature", "properties": { "_uid_": 21, "osm_id": "467095881", "code": "2101", "name": "Etos", "fclass": "pharmacy", "lat": 51.959812, "lng": 4.471423 }, "geometry": { "type": "Point", "coordinates": [ 4.471423, 51.959812 ] } },
{ "type": "Feature", "properties": { "_uid_": 22, "osm_id": "467095944", "code": "2101", "name": "Etos", "fclass": "pharmacy", "lat": 52.166237, "lng": 4.483032 }, "geometry": { "type": "Point", "coordinates": [ 4.483032, 52.166237 ] } },
{ "type": "Feature", "properties": { "_uid_": 23, "osm_id": "471845885", "code": "2101", "name": "Apotheek Keijzershof", "fclass": "pharmacy", "lat": 52.005008, "lng": 4.444239 }, "geometry": { "type": "Point", "coordinates": [ 4.444239, 52.005008 ] } },
{ "type": "Feature", "properties": { "_uid_": 24, "osm_id": "486543395", "code": "2101", "name": "Apotheek te Werve", "fclass": "pharmacy", "lat": 52.049092, "lng": 4.331972 }, "geometry": { "type": "Point", "coordinates": [ 4.331972, 52.049092 ] } },
{ "type": "Feature", "properties": { "_uid_": 25, "osm_id": "501545568", "code": "2101", "name": "'t Joppe", "fclass": "pharmacy", "lat": 52.178674, "lng": 4.513728 }, "geometry": { "type": "Point", "coordinates": [ 4.513728, 52.178674 ] } },
{ "type": "Feature", "properties": { "_uid_": 26, "osm_id": "501545569", "code": "2120", "name": null, "fclass": "doctors", "lat": 52.178639, "lng": 4.513893 }, "geometry": { "type": "Point", "coordinates": [ 4.513893, 52.178639 ] } },
{ "type": "Feature", "properties": { "_uid_": 27, "osm_id": "535978390", "code": "2120", "name": "Huisartsenpraktijk Tolhek", "fclass": "doctors", "lat": 52.004989, "lng": 4.444141 }, "geometry": { "type": "Point", "coordinates": [ 4.444141, 52.004989 ] } },
{ "type": "Feature", "properties": { "_uid_": 28, "osm_id": "535978403", "code": "2121", "name": "Tandarts Van Buuren", "fclass": "dentist", "lat": 52.004998, "lng": 4.444185 }, "geometry": { "type": "Point", "coordinates": [ 4.444185, 52.004998 ] } },
{ "type": "Feature", "properties": { "_uid_": 29, "osm_id": "540366720", "code": "2101", "name": "Apotheek Nootdorp", "fclass": "pharmacy", "lat": 52.043592, "lng": 4.390018 }, "geometry": { "type": "Point", "coordinates": [ 4.390018, 52.043592 ] } },
{ "type": "Feature", "properties": { "_uid_": 30, "osm_id": "545146427", "code": "2120", "name": "Gezondheidscentrum G. van der Stoel", "fclass": "doctors", "lat": 52.12511, "lng": 4.444265 }, "geometry": { "type": "Point", "coordinates": [ 4.444265, 52.12511 ] } },
{ "type": "Feature", "properties": { "_uid_": 31, "osm_id": "549451443", "code": "2121", "name": "Helmi's Dental Care", "fclass": "dentist", "lat": 52.085746, "lng": 4.398577 }, "geometry": { "type": "Point", "coordinates": [ 4.398577, 52.085746 ] } },
{ "type": "Feature", "properties": { "_uid_": 32, "osm_id": "554935883", "code": "2101", "name": "Apotheek Delfgauw", "fclass": "pharmacy", "lat": 52.004924, "lng": 4.391147 }, "geometry": { "type": "Point", "coordinates": [ 4.391147, 52.004924 ] } },
{ "type": "Feature", "properties": { "_uid_": 33, "osm_id": "570234665", "code": "2101", "name": "Apotheek Dorrestein", "fclass": "pharmacy", "lat": 51.965949, "lng": 4.606615 }, "geometry": { "type": "Point", "coordinates": [ 4.606615, 51.965949 ] } },
{ "type": "Feature", "properties": { "_uid_": 34, "osm_id": "582070458", "code": "2101", "name": "Kralingse Apotheek", "fclass": "pharmacy", "lat": 51.927234, "lng": 4.510334 }, "geometry": { "type": "Point", "coordinates": [ 4.510334, 51.927234 ] } },
{ "type": "Feature", "properties": { "_uid_": 35, "osm_id": "582448872", "code": "2101", "name": "Apotheek Van Beest", "fclass": "pharmacy", "lat": 52.073438, "lng": 4.31805 }, "geometry": { "type": "Point", "coordinates": [ 4.31805, 52.073438 ] } },
{ "type": "Feature", "properties": { "_uid_": 36, "osm_id": "582783140", "code": "2101", "name": "Drogist Bik", "fclass": "pharmacy", "lat": 52.154588, "lng": 4.48964 }, "geometry": { "type": "Point", "coordinates": [ 4.48964, 52.154588 ] } },
{ "type": "Feature", "properties": { "_uid_": 37, "osm_id": "587733423", "code": "2101", "name": "Apotheek Hoogeterp", "fclass": "pharmacy", "lat": 51.915062, "lng": 4.448929 }, "geometry": { "type": "Point", "coordinates": [ 4.448929, 51.915062 ] } },
{ "type": "Feature", "properties": { "_uid_": 38, "osm_id": "597813918", "code": "2101", "name": "De Volharding", "fclass": "pharmacy", "lat": 52.07727, "lng": 4.325046 }, "geometry": { "type": "Point", "coordinates": [ 4.325046, 52.07727 ] } },
{ "type": "Feature", "properties": { "_uid_": 39, "osm_id": "601053013", "code": "2120", "name": "Bronovo Gezondheidscentrum Wassenaar", "fclass": "doctors", "lat": 52.146702, "lng": 4.399423 }, "geometry": { "type": "Point", "coordinates": [ 4.399423, 52.146702 ] } },
{ "type": "Feature", "properties": { "_uid_": 40, "osm_id": "616798426", "code": "2101", "name": "Boerhave", "fclass": "pharmacy", "lat": 52.057178, "lng": 4.317338 }, "geometry": { "type": "Point", "coordinates": [ 4.317338, 52.057178 ] } },
{ "type": "Feature", "properties": { "_uid_": 41, "osm_id": "617260403", "code": "2101", "name": "de Reef", "fclass": "pharmacy", "lat": 52.051505, "lng": 4.385212 }, "geometry": { "type": "Point", "coordinates": [ 4.385212, 52.051505 ] } },
{ "type": "Feature", "properties": { "_uid_": 42, "osm_id": "663312574", "code": "2101", "name": "BENU Apotheek de Binnenhof", "fclass": "pharmacy", "lat": 51.959553, "lng": 4.534976 }, "geometry": { "type": "Point", "coordinates": [ 4.534976, 51.959553 ] } },
{ "type": "Feature", "properties": { "_uid_": 43, "osm_id": "664966415", "code": "2120", "name": "Huisartsenpraktijk Binkhorst", "fclass": "doctors", "lat": 52.012063, "lng": 4.438016 }, "geometry": { "type": "Point", "coordinates": [ 4.438016, 52.012063 ] } },
{ "type": "Feature", "properties": { "_uid_": 44, "osm_id": "665903992", "code": "2101", "name": "Bohemenwijk Apotheek", "fclass": "pharmacy", "lat": 52.065623, "lng": 4.241375 }, "geometry": { "type": "Point", "coordinates": [ 4.241375, 52.065623 ] } },
{ "type": "Feature", "properties": { "_uid_": 45, "osm_id": "665929186", "code": "2101", "name": "Pillen en Praten", "fclass": "pharmacy", "lat": 52.062028, "lng": 4.260012 }, "geometry": { "type": "Point", "coordinates": [ 4.260012, 52.062028 ] } },
{ "type": "Feature", "properties": { "_uid_": 46, "osm_id": "665958911", "code": "2101", "name": "Apotheek Houtwijk", "fclass": "pharmacy", "lat": 52.055379, "lng": 4.250903 }, "geometry": { "type": "Point", "coordinates": [ 4.250903, 52.055379 ] } },
{ "type": "Feature", "properties": { "_uid_": 47, "osm_id": "670013569", "code": "2120", "name": "Huisarts Vos", "fclass": "doctors", "lat": 51.982682, "lng": 4.345727 }, "geometry": { "type": "Point", "coordinates": [ 4.345727, 51.982682 ] } },
{ "type": "Feature", "properties": { "_uid_": 48, "osm_id": "671690479", "code": "2110", "name": "Parnassia psycho-medisch centrum", "fclass": "hospital", "lat": 52.045378, "lng": 4.209519 }, "geometry": { "type": "Point", "coordinates": [ 4.209519, 52.045378 ] } },
{ "type": "Feature", "properties": { "_uid_": 49, "osm_id": "691924125", "code": "2101", "name": "Lage Veld Apotheek", "fclass": "pharmacy", "lat": 52.020346, "lng": 4.296049 }, "geometry": { "type": "Point", "coordinates": [ 4.296049, 52.020346 ] } },
{ "type": "Feature", "properties": { "_uid_": 50, "osm_id": "781854010", "code": "2101", "name": "Apotheek Vrijenban", "fclass": "pharmacy", "lat": 52.016435, "lng": 4.368269 }, "geometry": { "type": "Point", "coordinates": [ 4.368269, 52.016435 ] } },
{ "type": "Feature", "properties": { "_uid_": 51, "osm_id": "786905390", "code": "2101", "name": "Apotheek Leiden Zuid-West", "fclass": "pharmacy", "lat": 52.141713, "lng": 4.471116 }, "geometry": { "type": "Point", "coordinates": [ 4.471116, 52.141713 ] } },
{ "type": "Feature", "properties": { "_uid_": 52, "osm_id": "806638629", "code": "2101", "name": "Kring Apotheek Alkemade", "fclass": "pharmacy", "lat": 52.208149, "lng": 4.641142 }, "geometry": { "type": "Point", "coordinates": [ 4.641142, 52.208149 ] } },
{ "type": "Feature", "properties": { "_uid_": 53, "osm_id": "820676915", "code": "2101", "name": "Apotheek Noord-Hofland", "fclass": "pharmacy", "lat": 52.141861, "lng": 4.461614 }, "geometry": { "type": "Point", "coordinates": [ 4.461614, 52.141861 ] } },
{ "type": "Feature", "properties": { "_uid_": 54, "osm_id": "840411580", "code": "2101", "name": "BENU Apotheek", "fclass": "pharmacy", "lat": 51.917254, "lng": 4.419469 }, "geometry": { "type": "Point", "coordinates": [ 4.419469, 51.917254 ] } },
{ "type": "Feature", "properties": { "_uid_": 55, "osm_id": "844166234", "code": "2120", "name": "De Beemd", "fclass": "doctors", "lat": 52.023431, "lng": 4.27844 }, "geometry": { "type": "Point", "coordinates": [ 4.27844, 52.023431 ] } },
{ "type": "Feature", "properties": { "_uid_": 56, "osm_id": "845339159", "code": "2101", "name": "Wateringse Apotheek", "fclass": "pharmacy", "lat": 52.024066, "lng": 4.275887 }, "geometry": { "type": "Point", "coordinates": [ 4.275887, 52.024066 ] } },
{ "type": "Feature", "properties": { "_uid_": 57, "osm_id": "847650889", "code": "2110", "name": "Medisch Centrum \"De Boei\"", "fclass": "hospital", "lat": 51.918605, "lng": 4.4189 }, "geometry": { "type": "Point", "coordinates": [ 4.4189, 51.918605 ] } },
{ "type": "Feature", "properties": { "_uid_": 58, "osm_id": "857243638", "code": "2120", "name": "Medisch centrum Meander", "fclass": "doctors", "lat": 52.0043, "lng": 4.391736 }, "geometry": { "type": "Point", "coordinates": [ 4.391736, 52.0043 ] } },
{ "type": "Feature", "properties": { "_uid_": 59, "osm_id": "869897984", "code": "2101", "name": "BENU Apotheek Woubrugge", "fclass": "pharmacy", "lat": 52.167775, "lng": 4.636113 }, "geometry": { "type": "Point", "coordinates": [ 4.636113, 52.167775 ] } },
{ "type": "Feature", "properties": { "_uid_": 60, "osm_id": "944723803", "code": "2101", "name": "Apotheek Rijnsoever", "fclass": "pharmacy", "lat": 52.205902, "lng": 4.419967 }, "geometry": { "type": "Point", "coordinates": [ 4.419967, 52.205902 ] } },
{ "type": "Feature", "properties": { "_uid_": 61, "osm_id": "1035546781", "code": "2101", "name": "Dam Apotheek", "fclass": "pharmacy", "lat": 52.08442, "lng": 4.395039 }, "geometry": { "type": "Point", "coordinates": [ 4.395039, 52.08442 ] } },
{ "type": "Feature", "properties": { "_uid_": 62, "osm_id": "1061238119", "code": "2101", "name": "Mediq Apotheek Nieuwe Maas", "fclass": "pharmacy", "lat": 51.941225, "lng": 4.549438 }, "geometry": { "type": "Point", "coordinates": [ 4.549438, 51.941225 ] } },
{ "type": "Feature", "properties": { "_uid_": 63, "osm_id": "1107375291", "code": "2121", "name": "De Korte Vliet", "fclass": "dentist", "lat": 52.141611, "lng": 4.471137 }, "geometry": { "type": "Point", "coordinates": [ 4.471137, 52.141611 ] } },
{ "type": "Feature", "properties": { "_uid_": 64, "osm_id": "1118800879", "code": "2101", "name": "Wester Apotheek", "fclass": "pharmacy", "lat": 51.915153, "lng": 4.465805 }, "geometry": { "type": "Point", "coordinates": [ 4.465805, 51.915153 ] } },
{ "type": "Feature", "properties": { "_uid_": 65, "osm_id": "1172905125", "code": "2120", "name": "Huisartsenpraktijk Keijzershof", "fclass": "doctors", "lat": 52.005018, "lng": 4.44429 }, "geometry": { "type": "Point", "coordinates": [ 4.44429, 52.005018 ] } },
{ "type": "Feature", "properties": { "_uid_": 66, "osm_id": "1189946452", "code": "2101", "name": "BENU Apotheek Het Raadhuis", "fclass": "pharmacy", "lat": 52.198485, "lng": 4.41387 }, "geometry": { "type": "Point", "coordinates": [ 4.41387, 52.198485 ] } },
{ "type": "Feature", "properties": { "_uid_": 67, "osm_id": "1196120946", "code": "2101", "name": "Meerburg", "fclass": "pharmacy", "lat": 51.932047, "lng": 4.493638 }, "geometry": { "type": "Point", "coordinates": [ 4.493638, 51.932047 ] } },
{ "type": "Feature", "properties": { "_uid_": 68, "osm_id": "1204837373", "code": "2101", "name": "Wilderink", "fclass": "pharmacy", "lat": 52.052048, "lng": 4.495815 }, "geometry": { "type": "Point", "coordinates": [ 4.495815, 52.052048 ] } },
{ "type": "Feature", "properties": { "_uid_": 69, "osm_id": "1233705450", "code": "2101", "name": "AED", "fclass": "pharmacy", "lat": 52.035219, "lng": 4.305052 }, "geometry": { "type": "Point", "coordinates": [ 4.305052, 52.035219 ] } },
{ "type": "Feature", "properties": { "_uid_": 70, "osm_id": "1256777478", "code": "2101", "name": "De Tuinen", "fclass": "pharmacy", "lat": 51.967795, "lng": 4.618237 }, "geometry": { "type": "Point", "coordinates": [ 4.618237, 51.967795 ] } },
{ "type": "Feature", "properties": { "_uid_": 71, "osm_id": "1269239981", "code": "2101", "name": "Dienst Apotheek Noord", "fclass": "pharmacy", "lat": 51.914086, "lng": 4.481637 }, "geometry": { "type": "Point", "coordinates": [ 4.481637, 51.914086 ] } },
{ "type": "Feature", "properties": { "_uid_": 72, "osm_id": "1313101253", "code": "2101", "name": "Apotheek 's-Gravenland", "fclass": "pharmacy", "lat": 51.918892, "lng": 4.56607 }, "geometry": { "type": "Point", "coordinates": [ 4.56607, 51.918892 ] } },
{ "type": "Feature", "properties": { "_uid_": 73, "osm_id": "1377043991", "code": "2101", "name": "Mediq Apotheek", "fclass": "pharmacy", "lat": 51.934845, "lng": 4.600295 }, "geometry": { "type": "Point", "coordinates": [ 4.600295, 51.934845 ] } },
{ "type": "Feature", "properties": { "_uid_": 74, "osm_id": "1388891071", "code": "2101", "name": "Groene Hart Apotheek", "fclass": "pharmacy", "lat": 52.121365, "lng": 4.496014 }, "geometry": { "type": "Point", "coordinates": [ 4.496014, 52.121365 ] } },
{ "type": "Feature", "properties": { "_uid_": 75, "osm_id": "1397433413", "code": "2101", "name": "De Margriet", "fclass": "pharmacy", "lat": 52.121129, "lng": 4.496514 }, "geometry": { "type": "Point", "coordinates": [ 4.496514, 52.121129 ] } },
{ "type": "Feature", "properties": { "_uid_": 76, "osm_id": "1445749937", "code": "2120", "name": "Vitalis klassieke homeopathische praktijk", "fclass": "doctors", "lat": 51.988338, "lng": 4.200659 }, "geometry": { "type": "Point", "coordinates": [ 4.200659, 51.988338 ] } },
{ "type": "Feature", "properties": { "_uid_": 77, "osm_id": "1473692870", "code": "2101", "name": "Hoylede", "fclass": "pharmacy", "lat": 51.930267, "lng": 4.347158 }, "geometry": { "type": "Point", "coordinates": [ 4.347158, 51.930267 ] } },
{ "type": "Feature", "properties": { "_uid_": 78, "osm_id": "1483240372", "code": "2120", "name": null, "fclass": "doctors", "lat": 51.918934, "lng": 4.566079 }, "geometry": { "type": "Point", "coordinates": [ 4.566079, 51.918934 ] } },
{ "type": "Feature", "properties": { "_uid_": 79, "osm_id": "1487085048", "code": "2101", "name": "Nauta Apotheek", "fclass": "pharmacy", "lat": 52.092045, "lng": 4.303708 }, "geometry": { "type": "Point", "coordinates": [ 4.303708, 52.092045 ] } },
{ "type": "Feature", "properties": { "_uid_": 80, "osm_id": "1498831893", "code": "2101", "name": "De Binnenweg", "fclass": "pharmacy", "lat": 51.913376, "lng": 4.460445 }, "geometry": { "type": "Point", "coordinates": [ 4.460445, 51.913376 ] } },
{ "type": "Feature", "properties": { "_uid_": 81, "osm_id": "1517906751", "code": "2101", "name": "Boots", "fclass": "pharmacy", "lat": 52.074907, "lng": 4.300137 }, "geometry": { "type": "Point", "coordinates": [ 4.300137, 52.074907 ] } },
{ "type": "Feature", "properties": { "_uid_": 82, "osm_id": "1517909353", "code": "2120", "name": "Arts en Zorg", "fclass": "doctors", "lat": 52.076103, "lng": 4.307382 }, "geometry": { "type": "Point", "coordinates": [ 4.307382, 52.076103 ] } },
{ "type": "Feature", "properties": { "_uid_": 83, "osm_id": "1517909356", "code": "2120", "name": null, "fclass": "doctors", "lat": 52.075153, "lng": 4.300615 }, "geometry": { "type": "Point", "coordinates": [ 4.300615, 52.075153 ] } },
{ "type": "Feature", "properties": { "_uid_": 84, "osm_id": "1560893786", "code": "2101", "name": "Maassluis Oost", "fclass": "pharmacy", "lat": 51.918, "lng": 4.261458 }, "geometry": { "type": "Point", "coordinates": [ 4.261458, 51.918 ] } },
{ "type": "Feature", "properties": { "_uid_": 85, "osm_id": "1599898060", "code": "2110", "name": "Erasmus MC - Sophia", "fclass": "hospital", "lat": 51.912014, "lng": 4.469995 }, "geometry": { "type": "Point", "coordinates": [ 4.469995, 51.912014 ] } },
{ "type": "Feature", "properties": { "_uid_": 86, "osm_id": "1602518404", "code": "2101", "name": "Cohen Apotheek", "fclass": "pharmacy", "lat": 51.910746, "lng": 4.440722 }, "geometry": { "type": "Point", "coordinates": [ 4.440722, 51.910746 ] } },
{ "type": "Feature", "properties": { "_uid_": 87, "osm_id": "1604048199", "code": "2101", "name": "Apotheek Den Heijer", "fclass": "pharmacy", "lat": 52.104846, "lng": 4.27517 }, "geometry": { "type": "Point", "coordinates": [ 4.27517, 52.104846 ] } },
{ "type": "Feature", "properties": { "_uid_": 88, "osm_id": "1643202876", "code": "2101", "name": "Mediq Apotheek", "fclass": "pharmacy", "lat": 52.120311, "lng": 4.643156 }, "geometry": { "type": "Point", "coordinates": [ 4.643156, 52.120311 ] } },
{ "type": "Feature", "properties": { "_uid_": 89, "osm_id": "1666410001", "code": "2101", "name": "Apotheek Poeldijk", "fclass": "pharmacy", "lat": 52.024177, "lng": 4.217617 }, "geometry": { "type": "Point", "coordinates": [ 4.217617, 52.024177 ] } },
{ "type": "Feature", "properties": { "_uid_": 90, "osm_id": "1685907692", "code": "2120", "name": "Medisch Centrum Schiebroek", "fclass": "doctors", "lat": 51.957096, "lng": 4.466875 }, "geometry": { "type": "Point", "coordinates": [ 4.466875, 51.957096 ] } },
{ "type": "Feature", "properties": { "_uid_": 91, "osm_id": "1685907697", "code": "2101", "name": "Apotheek Medisch Centrum Schiebroek", "fclass": "pharmacy", "lat": 51.957147, "lng": 4.466882 }, "geometry": { "type": "Point", "coordinates": [ 4.466882, 51.957147 ] } },
{ "type": "Feature", "properties": { "_uid_": 92, "osm_id": "1696390547", "code": "2101", "name": "Kring-apotheek Hazerswoude", "fclass": "pharmacy", "lat": 52.097251, "lng": 4.592338 }, "geometry": { "type": "Point", "coordinates": [ 4.592338, 52.097251 ] } },
{ "type": "Feature", "properties": { "_uid_": 93, "osm_id": "1696773014", "code": "2101", "name": "Fahrenheit Apotheek", "fclass": "pharmacy", "lat": 52.078986, "lng": 4.270227 }, "geometry": { "type": "Point", "coordinates": [ 4.270227, 52.078986 ] } },
{ "type": "Feature", "properties": { "_uid_": 94, "osm_id": "1704574788", "code": "2120", "name": "Huisartsen De Lindehoeve", "fclass": "doctors", "lat": 52.121485, "lng": 4.447157 }, "geometry": { "type": "Point", "coordinates": [ 4.447157, 52.121485 ] } },
{ "type": "Feature", "properties": { "_uid_": 95, "osm_id": "1704574793", "code": "2121", "name": "Tandarts Bosch", "fclass": "dentist", "lat": 52.121498, "lng": 4.447079 }, "geometry": { "type": "Point", "coordinates": [ 4.447079, 52.121498 ] } },
{ "type": "Feature", "properties": { "_uid_": 96, "osm_id": "1716900840", "code": "2101", "name": "Apotheek Van der Laan", "fclass": "pharmacy", "lat": 51.900776, "lng": 4.49669 }, "geometry": { "type": "Point", "coordinates": [ 4.49669, 51.900776 ] } },
{ "type": "Feature", "properties": { "_uid_": 97, "osm_id": "1716901032", "code": "2120", "name": "Gezondheidscentrum Afrikaanderwijk", "fclass": "doctors", "lat": 51.900591, "lng": 4.496628 }, "geometry": { "type": "Point", "coordinates": [ 4.496628, 51.900591 ] } },
{ "type": "Feature", "properties": { "_uid_": 98, "osm_id": "1732766477", "code": "2101", "name": "Apotheek Den Hoorn", "fclass": "pharmacy", "lat": 52.000917, "lng": 4.331214 }, "geometry": { "type": "Point", "coordinates": [ 4.331214, 52.000917 ] } },
{ "type": "Feature", "properties": { "_uid_": 99, "osm_id": "1746709669", "code": "2120", "name": "Huisartsencentrum Kralingen ( dr A. van Winkel )", "fclass": "doctors", "lat": 51.925034, "lng": 4.513885 }, "geometry": { "type": "Point", "coordinates": [ 4.513885, 51.925034 ] } },
{ "type": "Feature", "properties": { "_uid_": 100, "osm_id": "1756212701", "code": "2120", "name": "Huisartspraktijk F. Poelstra", "fclass": "doctors", "lat": 51.930421, "lng": 4.503624 }, "geometry": { "type": "Point", "coordinates": [ 4.503624, 51.930421 ] } },
{ "type": "Feature", "properties": { "_uid_": 101, "osm_id": "1770736258", "code": "2101", "name": "Service Apotheek Wassenaar-Zuid", "fclass": "pharmacy", "lat": 52.11278, "lng": 4.370453 }, "geometry": { "type": "Point", "coordinates": [ 4.370453, 52.11278 ] } },
{ "type": "Feature", "properties": { "_uid_": 102, "osm_id": "1771246528", "code": "2120", "name": "Medisch Centrum Brielle", "fclass": "doctors", "lat": 51.897539, "lng": 4.174687 }, "geometry": { "type": "Point", "coordinates": [ 4.174687, 51.897539 ] } },
{ "type": "Feature", "properties": { "_uid_": 103, "osm_id": "1838283894", "code": "2120", "name": "Huisartsenpraktijk Zuidwest", "fclass": "doctors", "lat": 52.141828, "lng": 4.47109 }, "geometry": { "type": "Point", "coordinates": [ 4.47109, 52.141828 ] } },
{ "type": "Feature", "properties": { "_uid_": 104, "osm_id": "1854792525", "code": "2101", "name": "BENU Apotheek Hesseplaats", "fclass": "pharmacy", "lat": 51.962574, "lng": 4.554273 }, "geometry": { "type": "Point", "coordinates": [ 4.554273, 51.962574 ] } },
{ "type": "Feature", "properties": { "_uid_": 105, "osm_id": "1894912179", "code": "2101", "name": "Apotheek Beeklaan", "fclass": "pharmacy", "lat": 52.072757, "lng": 4.282197 }, "geometry": { "type": "Point", "coordinates": [ 4.282197, 52.072757 ] } },
{ "type": "Feature", "properties": { "_uid_": 106, "osm_id": "1925327551", "code": "2101", "name": "SAL Apotheek Segbroek", "fclass": "pharmacy", "lat": 52.074183, "lng": 4.265115 }, "geometry": { "type": "Point", "coordinates": [ 4.265115, 52.074183 ] } },
{ "type": "Feature", "properties": { "_uid_": 107, "osm_id": "1934419097", "code": "2120", "name": "Gezondheidscentrum Tanthof", "fclass": "doctors", "lat": 51.984525, "lng": 4.354413 }, "geometry": { "type": "Point", "coordinates": [ 4.354413, 51.984525 ] } },
{ "type": "Feature", "properties": { "_uid_": 108, "osm_id": "1938130649", "code": "2120", "name": "Medisch Centrum Hollands Spoor", "fclass": "doctors", "lat": 52.071918, "lng": 4.320027 }, "geometry": { "type": "Point", "coordinates": [ 4.320027, 52.071918 ] } },
{ "type": "Feature", "properties": { "_uid_": 109, "osm_id": "1949005113", "code": "2120", "name": "GC Noordplein", "fclass": "doctors", "lat": 51.930195, "lng": 4.483187 }, "geometry": { "type": "Point", "coordinates": [ 4.483187, 51.930195 ] } },
{ "type": "Feature", "properties": { "_uid_": 110, "osm_id": "1949005319", "code": "2101", "name": "Exler", "fclass": "pharmacy", "lat": 51.930288, "lng": 4.483308 }, "geometry": { "type": "Point", "coordinates": [ 4.483308, 51.930288 ] } },
{ "type": "Feature", "properties": { "_uid_": 111, "osm_id": "1949144732", "code": "2101", "name": "Bergweg", "fclass": "pharmacy", "lat": 51.935061, "lng": 4.475863 }, "geometry": { "type": "Point", "coordinates": [ 4.475863, 51.935061 ] } },
{ "type": "Feature", "properties": { "_uid_": 112, "osm_id": "1949150379", "code": "2120", "name": "Steffens & Balvert", "fclass": "doctors", "lat": 51.935239, "lng": 4.476098 }, "geometry": { "type": "Point", "coordinates": [ 4.476098, 51.935239 ] } },
{ "type": "Feature", "properties": { "_uid_": 113, "osm_id": "1950391868", "code": "2101", "name": "Apotheek Adelheid", "fclass": "pharmacy", "lat": 52.050463, "lng": 4.305159 }, "geometry": { "type": "Point", "coordinates": [ 4.305159, 52.050463 ] } },
{ "type": "Feature", "properties": { "_uid_": 114, "osm_id": "1950391873", "code": "2101", "name": "Betje Wolff", "fclass": "pharmacy", "lat": 52.049522, "lng": 4.290362 }, "geometry": { "type": "Point", "coordinates": [ 4.290362, 52.049522 ] } },
{ "type": "Feature", "properties": { "_uid_": 115, "osm_id": "1975187539", "code": "2121", "name": null, "fclass": "dentist", "lat": 52.053331, "lng": 4.232907 }, "geometry": { "type": "Point", "coordinates": [ 4.232907, 52.053331 ] } },
{ "type": "Feature", "properties": { "_uid_": 116, "osm_id": "1994418216", "code": "2101", "name": "De Schorpioen", "fclass": "pharmacy", "lat": 51.946708, "lng": 4.555956 }, "geometry": { "type": "Point", "coordinates": [ 4.555956, 51.946708 ] } },
{ "type": "Feature", "properties": { "_uid_": 117, "osm_id": "2160647565", "code": "2120", "name": "Medisch Centrum Schiedam", "fclass": "doctors", "lat": 51.916671, "lng": 4.408245 }, "geometry": { "type": "Point", "coordinates": [ 4.408245, 51.916671 ] } },
{ "type": "Feature", "properties": { "_uid_": 118, "osm_id": "2160655999", "code": "2101", "name": "Medisch Centrum Schiedam", "fclass": "pharmacy", "lat": 51.916636, "lng": 4.408304 }, "geometry": { "type": "Point", "coordinates": [ 4.408304, 51.916636 ] } },
{ "type": "Feature", "properties": { "_uid_": 119, "osm_id": "2183515186", "code": "2101", "name": "Wassenaarse Apotheek", "fclass": "pharmacy", "lat": 52.14687, "lng": 4.399611 }, "geometry": { "type": "Point", "coordinates": [ 4.399611, 52.14687 ] } },
{ "type": "Feature", "properties": { "_uid_": 120, "osm_id": "2218637210", "code": "2101", "name": "BENU Apotheek Bergschenhoek", "fclass": "pharmacy", "lat": 51.989225, "lng": 4.500354 }, "geometry": { "type": "Point", "coordinates": [ 4.500354, 51.989225 ] } },
{ "type": "Feature", "properties": { "_uid_": 121, "osm_id": "2280148586", "code": "2101", "name": null, "fclass": "pharmacy", "lat": 52.075057, "lng": 4.518825 }, "geometry": { "type": "Point", "coordinates": [ 4.518825, 52.075057 ] } },
{ "type": "Feature", "properties": { "_uid_": 122, "osm_id": "2315623838", "code": "2101", "name": "Apotheek Vrijhof", "fclass": "pharmacy", "lat": 51.9202, "lng": 4.601109 }, "geometry": { "type": "Point", "coordinates": [ 4.601109, 51.9202 ] } },
{ "type": "Feature", "properties": { "_uid_": 123, "osm_id": "2434295627", "code": "2120", "name": "Huisartspraktijk Kortman", "fclass": "doctors", "lat": 52.120601, "lng": 4.496291 }, "geometry": { "type": "Point", "coordinates": [ 4.496291, 52.120601 ] } },
{ "type": "Feature", "properties": { "_uid_": 124, "osm_id": "2443336138", "code": "2121", "name": "kowalski", "fclass": "dentist", "lat": 52.121527, "lng": 4.496262 }, "geometry": { "type": "Point", "coordinates": [ 4.496262, 52.121527 ] } },
{ "type": "Feature", "properties": { "_uid_": 125, "osm_id": "2459150303", "code": "2101", "name": "Apotheek Walenburg", "fclass": "pharmacy", "lat": 51.930794, "lng": 4.46933 }, "geometry": { "type": "Point", "coordinates": [ 4.46933, 51.930794 ] } },
{ "type": "Feature", "properties": { "_uid_": 126, "osm_id": "2495607015", "code": "2101", "name": "Apotheek Pijnacker-Nootdorp", "fclass": "pharmacy", "lat": 52.018577, "lng": 4.434074 }, "geometry": { "type": "Point", "coordinates": [ 4.434074, 52.018577 ] } },
{ "type": "Feature", "properties": { "_uid_": 127, "osm_id": "2502444188", "code": "2101", "name": "BENU Apotheek Erasmus", "fclass": "pharmacy", "lat": 51.920694, "lng": 4.469745 }, "geometry": { "type": "Point", "coordinates": [ 4.469745, 51.920694 ] } },
{ "type": "Feature", "properties": { "_uid_": 128, "osm_id": "2502444192", "code": "2101", "name": "H.P. Dong", "fclass": "pharmacy", "lat": 51.920233, "lng": 4.468783 }, "geometry": { "type": "Point", "coordinates": [ 4.468783, 51.920233 ] } },
{ "type": "Feature", "properties": { "_uid_": 129, "osm_id": "2590920247", "code": "2101", "name": "Apotheek Scheveningen B.V.", "fclass": "pharmacy", "lat": 52.103831, "lng": 4.278911 }, "geometry": { "type": "Point", "coordinates": [ 4.278911, 52.103831 ] } },
{ "type": "Feature", "properties": { "_uid_": 130, "osm_id": "2590925049", "code": "2101", "name": "Duin Apotheek", "fclass": "pharmacy", "lat": 52.111162, "lng": 4.293852 }, "geometry": { "type": "Point", "coordinates": [ 4.293852, 52.111162 ] } },
{ "type": "Feature", "properties": { "_uid_": 131, "osm_id": "2590942828", "code": "2101", "name": "Apotheek van Greuningen", "fclass": "pharmacy", "lat": 52.092366, "lng": 4.276058 }, "geometry": { "type": "Point", "coordinates": [ 4.276058, 52.092366 ] } },
{ "type": "Feature", "properties": { "_uid_": 132, "osm_id": "2590943042", "code": "2101", "name": "Apotheek Prins Willemstraat B.V.", "fclass": "pharmacy", "lat": 52.102373, "lng": 4.278096 }, "geometry": { "type": "Point", "coordinates": [ 4.278096, 52.102373 ] } },
{ "type": "Feature", "properties": { "_uid_": 133, "osm_id": "2590956902", "code": "2120", "name": "Dr. de Wolf", "fclass": "doctors", "lat": 52.108884, "lng": 4.295264 }, "geometry": { "type": "Point", "coordinates": [ 4.295264, 52.108884 ] } },
{ "type": "Feature", "properties": { "_uid_": 134, "osm_id": "2592605833", "code": "2101", "name": "Apotheek Adelheid", "fclass": "pharmacy", "lat": 51.993065, "lng": 4.477713 }, "geometry": { "type": "Point", "coordinates": [ 4.477713, 51.993065 ] } },
{ "type": "Feature", "properties": { "_uid_": 135, "osm_id": "2595128786", "code": "2101", "name": "Apotheek Tanthof", "fclass": "pharmacy", "lat": 51.98452, "lng": 4.35484 }, "geometry": { "type": "Point", "coordinates": [ 4.35484, 51.98452 ] } },
{ "type": "Feature", "properties": { "_uid_": 136, "osm_id": "2595368403", "code": "2101", "name": "Buitenhofapotheek", "fclass": "pharmacy", "lat": 51.995468, "lng": 4.343993 }, "geometry": { "type": "Point", "coordinates": [ 4.343993, 51.995468 ] } },
{ "type": "Feature", "properties": { "_uid_": 137, "osm_id": "2595371341", "code": "2120", "name": "Huisartsenpraktijk Handellaan", "fclass": "doctors", "lat": 51.991577, "lng": 4.343165 }, "geometry": { "type": "Point", "coordinates": [ 4.343165, 51.991577 ] } },
{ "type": "Feature", "properties": { "_uid_": 138, "osm_id": "2595374994", "code": "2121", "name": "Tandartspraktijk Schouten", "fclass": "dentist", "lat": 51.994168, "lng": 4.351787 }, "geometry": { "type": "Point", "coordinates": [ 4.351787, 51.994168 ] } },
{ "type": "Feature", "properties": { "_uid_": 139, "osm_id": "2595375154", "code": "2121", "name": "Masa", "fclass": "dentist", "lat": 51.998338, "lng": 4.355349 }, "geometry": { "type": "Point", "coordinates": [ 4.355349, 51.998338 ] } },
{ "type": "Feature", "properties": { "_uid_": 140, "osm_id": "2595409163", "code": "2121", "name": "Tandartspraktijk Poptahof", "fclass": "dentist", "lat": 52.00179, "lng": 4.354501 }, "geometry": { "type": "Point", "coordinates": [ 4.354501, 52.00179 ] } },
{ "type": "Feature", "properties": { "_uid_": 141, "osm_id": "2596101171", "code": "2120", "name": null, "fclass": "doctors", "lat": 52.006884, "lng": 4.378041 }, "geometry": { "type": "Point", "coordinates": [ 4.378041, 52.006884 ] } },
{ "type": "Feature", "properties": { "_uid_": 142, "osm_id": "2596107821", "code": "2101", "name": "Apotheek Wippolder", "fclass": "pharmacy", "lat": 52.009635, "lng": 4.370948 }, "geometry": { "type": "Point", "coordinates": [ 4.370948, 52.009635 ] } },
{ "type": "Feature", "properties": { "_uid_": 143, "osm_id": "2596747407", "code": "2120", "name": "Praktijk Nijkamp", "fclass": "doctors", "lat": 52.013106, "lng": 4.366744 }, "geometry": { "type": "Point", "coordinates": [ 4.366744, 52.013106 ] } },
{ "type": "Feature", "properties": { "_uid_": 144, "osm_id": "2596747862", "code": "2121", "name": "Tandartspraktijk de Oostpoort", "fclass": "dentist", "lat": 52.009624, "lng": 4.371547 }, "geometry": { "type": "Point", "coordinates": [ 4.371547, 52.009624 ] } },
{ "type": "Feature", "properties": { "_uid_": 145, "osm_id": "2596754358", "code": "2120", "name": "Hoornsehof", "fclass": "doctors", "lat": 52.014518, "lng": 4.334981 }, "geometry": { "type": "Point", "coordinates": [ 4.334981, 52.014518 ] } },
{ "type": "Feature", "properties": { "_uid_": 146, "osm_id": "2597991395", "code": "2121", "name": "De Tandartsengroep", "fclass": "dentist", "lat": 52.010309, "lng": 4.347386 }, "geometry": { "type": "Point", "coordinates": [ 4.347386, 52.010309 ] } },
{ "type": "Feature", "properties": { "_uid_": 147, "osm_id": "2599506067", "code": "2120", "name": "Huisartsenpraktijk Hus & Van 't Lindenhout", "fclass": "doctors", "lat": 52.009498, "lng": 4.366525 }, "geometry": { "type": "Point", "coordinates": [ 4.366525, 52.009498 ] } },
{ "type": "Feature", "properties": { "_uid_": 148, "osm_id": "2599506110", "code": "2120", "name": "Oogartsenpraktijk Delfland", "fclass": "doctors", "lat": 52.009821, "lng": 4.366771 }, "geometry": { "type": "Point", "coordinates": [ 4.366771, 52.009821 ] } },
{ "type": "Feature", "properties": { "_uid_": 149, "osm_id": "2599507552", "code": "2120", "name": "Chiropraktie Delft", "fclass": "doctors", "lat": 52.009854, "lng": 4.367386 }, "geometry": { "type": "Point", "coordinates": [ 4.367386, 52.009854 ] } },
{ "type": "Feature", "properties": { "_uid_": 150, "osm_id": "2599514291", "code": "2101", "name": "Apotheek Hof Van Delft", "fclass": "pharmacy", "lat": 52.010006, "lng": 4.355532 }, "geometry": { "type": "Point", "coordinates": [ 4.355532, 52.010006 ] } },
{ "type": "Feature", "properties": { "_uid_": 151, "osm_id": "2599776238", "code": "2121", "name": "Tandartsenpraktijk Ypenburg Centrum", "fclass": "dentist", "lat": 52.04203, "lng": 4.369859 }, "geometry": { "type": "Point", "coordinates": [ 4.369859, 52.04203 ] } },
{ "type": "Feature", "properties": { "_uid_": 152, "osm_id": "2602116241", "code": "2101", "name": "Apotheek Bleiswijk", "fclass": "pharmacy", "lat": 52.008463, "lng": 4.532382 }, "geometry": { "type": "Point", "coordinates": [ 4.532382, 52.008463 ] } },
{ "type": "Feature", "properties": { "_uid_": 153, "osm_id": "2602119787", "code": "2101", "name": "Kring Apotheek Bleiswijk", "fclass": "pharmacy", "lat": 52.00882, "lng": 4.530179 }, "geometry": { "type": "Point", "coordinates": [ 4.530179, 52.00882 ] } },
{ "type": "Feature", "properties": { "_uid_": 154, "osm_id": "2602901105", "code": "2121", "name": "Tandheelkundig Zorgcentrum Rokkeveen", "fclass": "dentist", "lat": 52.040818, "lng": 4.495729 }, "geometry": { "type": "Point", "coordinates": [ 4.495729, 52.040818 ] } },
{ "type": "Feature", "properties": { "_uid_": 155, "osm_id": "2602917649", "code": "2121", "name": "Denthuijse", "fclass": "dentist", "lat": 52.040173, "lng": 4.501326 }, "geometry": { "type": "Point", "coordinates": [ 4.501326, 52.040173 ] } },
{ "type": "Feature", "properties": { "_uid_": 156, "osm_id": "2605247280", "code": "2121", "name": "Praktijk voor mondhygi√´ne Zoetermeer", "fclass": "dentist", "lat": 52.0623, "lng": 4.516103 }, "geometry": { "type": "Point", "coordinates": [ 4.516103, 52.0623 ] } },
{ "type": "Feature", "properties": { "_uid_": 157, "osm_id": "2605247450", "code": "2121", "name": "Tandartspraktijk Seghwaert", "fclass": "dentist", "lat": 52.062283, "lng": 4.516179 }, "geometry": { "type": "Point", "coordinates": [ 4.516179, 52.062283 ] } },
{ "type": "Feature", "properties": { "_uid_": 158, "osm_id": "2605253674", "code": "2121", "name": "Tandartsencollectief", "fclass": "dentist", "lat": 52.075867, "lng": 4.528606 }, "geometry": { "type": "Point", "coordinates": [ 4.528606, 52.075867 ] } },
{ "type": "Feature", "properties": { "_uid_": 159, "osm_id": "2605278227", "code": "2121", "name": "Oosterheem Dental", "fclass": "dentist", "lat": 52.06335, "lng": 4.53157 }, "geometry": { "type": "Point", "coordinates": [ 4.53157, 52.06335 ] } },
{ "type": "Feature", "properties": { "_uid_": 160, "osm_id": "2606681545", "code": "2121", "name": "Tandheelkundig Centrum Clinident", "fclass": "dentist", "lat": 52.056624, "lng": 4.467968 }, "geometry": { "type": "Point", "coordinates": [ 4.467968, 52.056624 ] } },
{ "type": "Feature", "properties": { "_uid_": 161, "osm_id": "2607120495", "code": "2101", "name": "Buitenwegh Apotheek", "fclass": "pharmacy", "lat": 52.066344, "lng": 4.478721 }, "geometry": { "type": "Point", "coordinates": [ 4.478721, 52.066344 ] } },
{ "type": "Feature", "properties": { "_uid_": 162, "osm_id": "2607121277", "code": "2120", "name": "G. Th. Kok", "fclass": "doctors", "lat": 52.067647, "lng": 4.477146 }, "geometry": { "type": "Point", "coordinates": [ 4.477146, 52.067647 ] } },
{ "type": "Feature", "properties": { "_uid_": 163, "osm_id": "2607126077", "code": "2121", "name": "Tandartspraktijk Beethovenrode", "fclass": "dentist", "lat": 52.066163, "lng": 4.468921 }, "geometry": { "type": "Point", "coordinates": [ 4.468921, 52.066163 ] } },
{ "type": "Feature", "properties": { "_uid_": 164, "osm_id": "2607126584", "code": "2120", "name": "'t Dok", "fclass": "doctors", "lat": 52.071432, "lng": 4.50128 }, "geometry": { "type": "Point", "coordinates": [ 4.50128, 52.071432 ] } },
{ "type": "Feature", "properties": { "_uid_": 165, "osm_id": "2607517584", "code": "2121", "name": "Mw.C.L.Copius Peereboom", "fclass": "dentist", "lat": 52.052073, "lng": 4.49313 }, "geometry": { "type": "Point", "coordinates": [ 4.49313, 52.052073 ] } },
{ "type": "Feature", "properties": { "_uid_": 166, "osm_id": "2607521438", "code": "2120", "name": "Huisartsenpraktijk Dorpsstraat", "fclass": "doctors", "lat": 52.058909, "lng": 4.486247 }, "geometry": { "type": "Point", "coordinates": [ 4.486247, 52.058909 ] } },
{ "type": "Feature", "properties": { "_uid_": 167, "osm_id": "2608616430", "code": "2101", "name": "Apotheek Leidschenveen", "fclass": "pharmacy", "lat": 52.063593, "lng": 4.403518 }, "geometry": { "type": "Point", "coordinates": [ 4.403518, 52.063593 ] } },
{ "type": "Feature", "properties": { "_uid_": 168, "osm_id": "2608624213", "code": "2121", "name": "Tandartsenpraktijk Leidschenhof", "fclass": "dentist", "lat": 52.06405, "lng": 4.404308 }, "geometry": { "type": "Point", "coordinates": [ 4.404308, 52.06405 ] } },
{ "type": "Feature", "properties": { "_uid_": 169, "osm_id": "2610213651", "code": "2110", "name": "Het Ooghuis", "fclass": "hospital", "lat": 51.915787, "lng": 4.480097 }, "geometry": { "type": "Point", "coordinates": [ 4.480097, 51.915787 ] } },
{ "type": "Feature", "properties": { "_uid_": 170, "osm_id": "2610218009", "code": "2110", "name": "Het Oogziekenhuis", "fclass": "hospital", "lat": 51.915031, "lng": 4.480033 }, "geometry": { "type": "Point", "coordinates": [ 4.480033, 51.915031 ] } },
{ "type": "Feature", "properties": { "_uid_": 171, "osm_id": "2610250645", "code": "2101", "name": "Apotheek Lagaay-Westblaak", "fclass": "pharmacy", "lat": 51.916915, "lng": 4.478019 }, "geometry": { "type": "Point", "coordinates": [ 4.478019, 51.916915 ] } },
{ "type": "Feature", "properties": { "_uid_": 172, "osm_id": "2610269238", "code": "2120", "name": "Gezondheidscentrum West", "fclass": "doctors", "lat": 51.918825, "lng": 4.468102 }, "geometry": { "type": "Point", "coordinates": [ 4.468102, 51.918825 ] } },
{ "type": "Feature", "properties": { "_uid_": 173, "osm_id": "2630375756", "code": "2121", "name": "Tandartspraktijk Keijzershof", "fclass": "dentist", "lat": 52.004395, "lng": 4.442792 }, "geometry": { "type": "Point", "coordinates": [ 4.442792, 52.004395 ] } },
{ "type": "Feature", "properties": { "_uid_": 174, "osm_id": "2631767184", "code": "2120", "name": "Huisartsenpraktijk Acacialaan", "fclass": "doctors", "lat": 52.019984, "lng": 4.431426 }, "geometry": { "type": "Point", "coordinates": [ 4.431426, 52.019984 ] } },
{ "type": "Feature", "properties": { "_uid_": 175, "osm_id": "2632936988", "code": "2101", "name": "De Natuurapotheek", "fclass": "pharmacy", "lat": 52.025889, "lng": 4.441042 }, "geometry": { "type": "Point", "coordinates": [ 4.441042, 52.025889 ] } },
{ "type": "Feature", "properties": { "_uid_": 176, "osm_id": "2634373488", "code": "2120", "name": "Huisarts J.A. de Geus", "fclass": "doctors", "lat": 52.044814, "lng": 4.398138 }, "geometry": { "type": "Point", "coordinates": [ 4.398138, 52.044814 ] } },
{ "type": "Feature", "properties": { "_uid_": 177, "osm_id": "2634396008", "code": "2121", "name": "Dental Clinics Nootdorp", "fclass": "dentist", "lat": 52.044605, "lng": 4.397716 }, "geometry": { "type": "Point", "coordinates": [ 4.397716, 52.044605 ] } },
{ "type": "Feature", "properties": { "_uid_": 178, "osm_id": "2634396342", "code": "2121", "name": "Tandarts M. Gastelaars", "fclass": "dentist", "lat": 52.044829, "lng": 4.398264 }, "geometry": { "type": "Point", "coordinates": [ 4.398264, 52.044829 ] } },
{ "type": "Feature", "properties": { "_uid_": 179, "osm_id": "2634397064", "code": "2121", "name": "EZ Praktijk voor Mondhygi√´ne", "fclass": "dentist", "lat": 52.043133, "lng": 4.394657 }, "geometry": { "type": "Point", "coordinates": [ 4.394657, 52.043133 ] } },
{ "type": "Feature", "properties": { "_uid_": 180, "osm_id": "2634399636", "code": "2121", "name": "Tandheelkundig centrum Nootdorp", "fclass": "dentist", "lat": 52.042323, "lng": 4.393313 }, "geometry": { "type": "Point", "coordinates": [ 4.393313, 52.042323 ] } },
{ "type": "Feature", "properties": { "_uid_": 181, "osm_id": "2635885111", "code": "2120", "name": "Huisartsenpraktijk Balans", "fclass": "doctors", "lat": 52.04482, "lng": 4.390232 }, "geometry": { "type": "Point", "coordinates": [ 4.390232, 52.04482 ] } },
{ "type": "Feature", "properties": { "_uid_": 182, "osm_id": "2660390993", "code": "2120", "name": "Arts en Zorg", "fclass": "doctors", "lat": 52.012813, "lng": 4.337719 }, "geometry": { "type": "Point", "coordinates": [ 4.337719, 52.012813 ] } },
{ "type": "Feature", "properties": { "_uid_": 183, "osm_id": "2680537792", "code": "2121", "name": "Mondhygienist CleanIQ", "fclass": "dentist", "lat": 52.162623, "lng": 4.471922 }, "geometry": { "type": "Point", "coordinates": [ 4.471922, 52.162623 ] } },
{ "type": "Feature", "properties": { "_uid_": 184, "osm_id": "2687541984", "code": "2121", "name": "Klap en Kraal tandartsen", "fclass": "dentist", "lat": 52.075069, "lng": 4.426475 }, "geometry": { "type": "Point", "coordinates": [ 4.426475, 52.075069 ] } },
{ "type": "Feature", "properties": { "_uid_": 185, "osm_id": "2695309685", "code": "2120", "name": "Huisartsenpraktijk Kallan", "fclass": "doctors", "lat": 52.077764, "lng": 4.668907 }, "geometry": { "type": "Point", "coordinates": [ 4.668907, 52.077764 ] } },
{ "type": "Feature", "properties": { "_uid_": 186, "osm_id": "2695678716", "code": "2120", "name": "Van Wiechen", "fclass": "doctors", "lat": 52.074253, "lng": 4.6578 }, "geometry": { "type": "Point", "coordinates": [ 4.6578, 52.074253 ] } },
{ "type": "Feature", "properties": { "_uid_": 187, "osm_id": "2695680681", "code": "2101", "name": "Boskoopse apotheek", "fclass": "pharmacy", "lat": 52.074269, "lng": 4.657566 }, "geometry": { "type": "Point", "coordinates": [ 4.657566, 52.074269 ] } },
{ "type": "Feature", "properties": { "_uid_": 188, "osm_id": "2695684090", "code": "2120", "name": "Huisartsenpost", "fclass": "doctors", "lat": 52.077677, "lng": 4.64699 }, "geometry": { "type": "Point", "coordinates": [ 4.64699, 52.077677 ] } },
{ "type": "Feature", "properties": { "_uid_": 189, "osm_id": "2697856129", "code": "2101", "name": "Alphega-apotheek Van den Dries", "fclass": "pharmacy", "lat": 52.036206, "lng": 4.637258 }, "geometry": { "type": "Point", "coordinates": [ 4.637258, 52.036206 ] } },
{ "type": "Feature", "properties": { "_uid_": 190, "osm_id": "2703297164", "code": "2101", "name": "Service Punt Lakke", "fclass": "pharmacy", "lat": 52.074545, "lng": 4.345657 }, "geometry": { "type": "Point", "coordinates": [ 4.345657, 52.074545 ] } },
{ "type": "Feature", "properties": { "_uid_": 191, "osm_id": "2703298835", "code": "2121", "name": "Shiny Smile", "fclass": "dentist", "lat": 52.075103, "lng": 4.346298 }, "geometry": { "type": "Point", "coordinates": [ 4.346298, 52.075103 ] } },
{ "type": "Feature", "properties": { "_uid_": 192, "osm_id": "2703300661", "code": "2121", "name": "M.M. Michael", "fclass": "dentist", "lat": 52.075377, "lng": 4.349238 }, "geometry": { "type": "Point", "coordinates": [ 4.349238, 52.075377 ] } },
{ "type": "Feature", "properties": { "_uid_": 193, "osm_id": "2704280724", "code": "2101", "name": "Duinrand Apotheek", "fclass": "pharmacy", "lat": 52.101252, "lng": 4.316237 }, "geometry": { "type": "Point", "coordinates": [ 4.316237, 52.101252 ] } },
{ "type": "Feature", "properties": { "_uid_": 194, "osm_id": "2704383022", "code": "2101", "name": "Apotheek Francken", "fclass": "pharmacy", "lat": 52.091935, "lng": 4.325598 }, "geometry": { "type": "Point", "coordinates": [ 4.325598, 52.091935 ] } },
{ "type": "Feature", "properties": { "_uid_": 195, "osm_id": "2704456995", "code": "2121", "name": "Tandheelkundig Centrum Jan van Nassau", "fclass": "dentist", "lat": 52.08988, "lng": 4.316799 }, "geometry": { "type": "Point", "coordinates": [ 4.316799, 52.08988 ] } },
{ "type": "Feature", "properties": { "_uid_": 196, "osm_id": "2704591208", "code": "2101", "name": "Apotheek Theresia", "fclass": "pharmacy", "lat": 52.085662, "lng": 4.336133 }, "geometry": { "type": "Point", "coordinates": [ 4.336133, 52.085662 ] } },
{ "type": "Feature", "properties": { "_uid_": 197, "osm_id": "2704592337", "code": "2121", "name": "LNOI15", "fclass": "dentist", "lat": 52.087174, "lng": 4.335697 }, "geometry": { "type": "Point", "coordinates": [ 4.335697, 52.087174 ] } },
{ "type": "Feature", "properties": { "_uid_": 198, "osm_id": "2704597209", "code": "2121", "name": "La Clinique", "fclass": "dentist", "lat": 52.087409, "lng": 4.335385 }, "geometry": { "type": "Point", "coordinates": [ 4.335385, 52.087409 ] } },
{ "type": "Feature", "properties": { "_uid_": 199, "osm_id": "2704842100", "code": "2120", "name": "Huisartsenpraktijk Holst", "fclass": "doctors", "lat": 52.075819, "lng": 4.374174 }, "geometry": { "type": "Point", "coordinates": [ 4.374174, 52.075819 ] } },
{ "type": "Feature", "properties": { "_uid_": 200, "osm_id": "2704843820", "code": "2121", "name": "Tandprothetische Praktijk F.W.Rullens b.v.", "fclass": "dentist", "lat": 52.075722, "lng": 4.374161 }, "geometry": { "type": "Point", "coordinates": [ 4.374161, 52.075722 ] } },
{ "type": "Feature", "properties": { "_uid_": 201, "osm_id": "2704912061", "code": "2121", "name": "Savalle", "fclass": "dentist", "lat": 52.079328, "lng": 4.353405 }, "geometry": { "type": "Point", "coordinates": [ 4.353405, 52.079328 ] } },
{ "type": "Feature", "properties": { "_uid_": 202, "osm_id": "2704916503", "code": "2121", "name": "Mond en Balans", "fclass": "dentist", "lat": 52.080313, "lng": 4.354191 }, "geometry": { "type": "Point", "coordinates": [ 4.354191, 52.080313 ] } },
{ "type": "Feature", "properties": { "_uid_": 203, "osm_id": "2704918714", "code": "2101", "name": "G&W GezondheidsWinkel Ros", "fclass": "pharmacy", "lat": 52.075525, "lng": 4.357258 }, "geometry": { "type": "Point", "coordinates": [ 4.357258, 52.075525 ] } },
{ "type": "Feature", "properties": { "_uid_": 204, "osm_id": "2705712806", "code": "2121", "name": "M2 Tandartsen", "fclass": "dentist", "lat": 52.07078, "lng": 4.359459 }, "geometry": { "type": "Point", "coordinates": [ 4.359459, 52.07078 ] } },
{ "type": "Feature", "properties": { "_uid_": 205, "osm_id": "2707599236", "code": "2101", "name": "Kring Apotheek Oud Rijswijk", "fclass": "pharmacy", "lat": 52.056363, "lng": 4.336147 }, "geometry": { "type": "Point", "coordinates": [ 4.336147, 52.056363 ] } },
{ "type": "Feature", "properties": { "_uid_": 206, "osm_id": "2707850672", "code": "2120", "name": "Arts en Zorg", "fclass": "doctors", "lat": 52.066228, "lng": 4.330709 }, "geometry": { "type": "Point", "coordinates": [ 4.330709, 52.066228 ] } },
{ "type": "Feature", "properties": { "_uid_": 207, "osm_id": "2707884962", "code": "2121", "name": "Art of Teeth", "fclass": "dentist", "lat": 52.061303, "lng": 4.328441 }, "geometry": { "type": "Point", "coordinates": [ 4.328441, 52.061303 ] } },
{ "type": "Feature", "properties": { "_uid_": 208, "osm_id": "2707885224", "code": "2121", "name": "Topdent Tandtechniek", "fclass": "dentist", "lat": 52.063186, "lng": 4.331411 }, "geometry": { "type": "Point", "coordinates": [ 4.331411, 52.063186 ] } },
{ "type": "Feature", "properties": { "_uid_": 209, "osm_id": "2708426932", "code": "2121", "name": "Tandartspraktijk E. K. K. Lieuw", "fclass": "dentist", "lat": 52.059554, "lng": 4.333924 }, "geometry": { "type": "Point", "coordinates": [ 4.333924, 52.059554 ] } },
{ "type": "Feature", "properties": { "_uid_": 210, "osm_id": "2708427585", "code": "2101", "name": "Apotheek Lorentzplein", "fclass": "pharmacy", "lat": 52.060415, "lng": 4.327953 }, "geometry": { "type": "Point", "coordinates": [ 4.327953, 52.060415 ] } },
{ "type": "Feature", "properties": { "_uid_": 211, "osm_id": "2709727684", "code": "2121", "name": "Tandartscollectief", "fclass": "dentist", "lat": 52.059623, "lng": 4.324232 }, "geometry": { "type": "Point", "coordinates": [ 4.324232, 52.059623 ] } },
{ "type": "Feature", "properties": { "_uid_": 212, "osm_id": "2709968878", "code": "2121", "name": "Tandartsenpraktijk Van Joost", "fclass": "dentist", "lat": 52.089896, "lng": 4.350202 }, "geometry": { "type": "Point", "coordinates": [ 4.350202, 52.089896 ] } },
{ "type": "Feature", "properties": { "_uid_": 213, "osm_id": "2709969568", "code": "2120", "name": "Huisartspraktijk Medpunkt", "fclass": "doctors", "lat": 52.085023, "lng": 4.340977 }, "geometry": { "type": "Point", "coordinates": [ 4.340977, 52.085023 ] } },
{ "type": "Feature", "properties": { "_uid_": 214, "osm_id": "2709969584", "code": "2120", "name": "EBHA Waarneming", "fclass": "doctors", "lat": 52.084596, "lng": 4.341999 }, "geometry": { "type": "Point", "coordinates": [ 4.341999, 52.084596 ] } },
{ "type": "Feature", "properties": { "_uid_": 215, "osm_id": "2709975446", "code": "2121", "name": "Tandarts A. Simons", "fclass": "dentist", "lat": 52.089053, "lng": 4.343422 }, "geometry": { "type": "Point", "coordinates": [ 4.343422, 52.089053 ] } },
{ "type": "Feature", "properties": { "_uid_": 216, "osm_id": "2709980941", "code": "2121", "name": "Dental Clinics", "fclass": "dentist", "lat": 52.088468, "lng": 4.354039 }, "geometry": { "type": "Point", "coordinates": [ 4.354039, 52.088468 ] } },
{ "type": "Feature", "properties": { "_uid_": 217, "osm_id": "2711332296", "code": "2121", "name": "Morgenstond tandheelkunde", "fclass": "dentist", "lat": 52.030098, "lng": 4.299892 }, "geometry": { "type": "Point", "coordinates": [ 4.299892, 52.030098 ] } },
{ "type": "Feature", "properties": { "_uid_": 218, "osm_id": "2711565304", "code": "2121", "name": "Mondzorgpraktijk Leidschendam", "fclass": "dentist", "lat": 52.083016, "lng": 4.394778 }, "geometry": { "type": "Point", "coordinates": [ 4.394778, 52.083016 ] } },
{ "type": "Feature", "properties": { "_uid_": 219, "osm_id": "2711565730", "code": "2120", "name": "Huisartsenpraktijk Damlaan", "fclass": "doctors", "lat": 52.081999, "lng": 4.395785 }, "geometry": { "type": "Point", "coordinates": [ 4.395785, 52.081999 ] } },
{ "type": "Feature", "properties": { "_uid_": 220, "osm_id": "2711566333", "code": "2121", "name": "Tandartspraktijk Kettler", "fclass": "dentist", "lat": 52.080284, "lng": 4.397071 }, "geometry": { "type": "Point", "coordinates": [ 4.397071, 52.080284 ] } },
{ "type": "Feature", "properties": { "_uid_": 221, "osm_id": "2711566867", "code": "2121", "name": "Tandarts Geurst", "fclass": "dentist", "lat": 52.082515, "lng": 4.394837 }, "geometry": { "type": "Point", "coordinates": [ 4.394837, 52.082515 ] } },
{ "type": "Feature", "properties": { "_uid_": 222, "osm_id": "2711668148", "code": "2120", "name": "Huisartsenpraktijk Dr. Janssen", "fclass": "doctors", "lat": 52.084477, "lng": 4.392882 }, "geometry": { "type": "Point", "coordinates": [ 4.392882, 52.084477 ] } },
{ "type": "Feature", "properties": { "_uid_": 223, "osm_id": "2713007630", "code": "2101", "name": "BENU Apotheek", "fclass": "pharmacy", "lat": 52.090629, "lng": 4.390156 }, "geometry": { "type": "Point", "coordinates": [ 4.390156, 52.090629 ] } },
{ "type": "Feature", "properties": { "_uid_": 224, "osm_id": "2713011376", "code": "2101", "name": "Apotheek Antoniushove", "fclass": "pharmacy", "lat": 52.092532, "lng": 4.383283 }, "geometry": { "type": "Point", "coordinates": [ 4.383283, 52.092532 ] } },
{ "type": "Feature", "properties": { "_uid_": 225, "osm_id": "2714717573", "code": "2121", "name": "PW Haans", "fclass": "dentist", "lat": 52.064629, "lng": 4.357747 }, "geometry": { "type": "Point", "coordinates": [ 4.357747, 52.064629 ] } },
{ "type": "Feature", "properties": { "_uid_": 226, "osm_id": "2714755889", "code": "2121", "name": "2 for Teeth", "fclass": "dentist", "lat": 52.059851, "lng": 4.345076 }, "geometry": { "type": "Point", "coordinates": [ 4.345076, 52.059851 ] } },
{ "type": "Feature", "properties": { "_uid_": 227, "osm_id": "2716121170", "code": "2101", "name": "Apotheek Langstraat", "fclass": "pharmacy", "lat": 52.142781, "lng": 4.395224 }, "geometry": { "type": "Point", "coordinates": [ 4.395224, 52.142781 ] } },
{ "type": "Feature", "properties": { "_uid_": 228, "osm_id": "2716347165", "code": "2101", "name": "Apotheek Voorschoten", "fclass": "pharmacy", "lat": 52.127674, "lng": 4.450589 }, "geometry": { "type": "Point", "coordinates": [ 4.450589, 52.127674 ] } },
{ "type": "Feature", "properties": { "_uid_": 229, "osm_id": "2717664248", "code": "2121", "name": "Tandartspraktijk Voorschoten", "fclass": "dentist", "lat": 52.124495, "lng": 4.445423 }, "geometry": { "type": "Point", "coordinates": [ 4.445423, 52.124495 ] } },
{ "type": "Feature", "properties": { "_uid_": 230, "osm_id": "2718089363", "code": "2101", "name": "BENO Apotheek Steenvoorde", "fclass": "pharmacy", "lat": 52.034768, "lng": 4.308299 }, "geometry": { "type": "Point", "coordinates": [ 4.308299, 52.034768 ] } },
{ "type": "Feature", "properties": { "_uid_": 231, "osm_id": "2718098312", "code": "2121", "name": "J.M.Tjien Afat \/ R. v.Meurs", "fclass": "dentist", "lat": 52.079275, "lng": 4.317045 }, "geometry": { "type": "Point", "coordinates": [ 4.317045, 52.079275 ] } },
{ "type": "Feature", "properties": { "_uid_": 232, "osm_id": "2718101291", "code": "2101", "name": "Hofstad Apotheek", "fclass": "pharmacy", "lat": 52.079698, "lng": 4.316988 }, "geometry": { "type": "Point", "coordinates": [ 4.316988, 52.079698 ] } },
{ "type": "Feature", "properties": { "_uid_": 233, "osm_id": "2720002923", "code": "2121", "name": "Tandarts Prinsegracht", "fclass": "dentist", "lat": 52.074433, "lng": 4.306766 }, "geometry": { "type": "Point", "coordinates": [ 4.306766, 52.074433 ] } },
{ "type": "Feature", "properties": { "_uid_": 234, "osm_id": "2725740052", "code": "2120", "name": "De Doc", "fclass": "doctors", "lat": 52.076112, "lng": 4.321888 }, "geometry": { "type": "Point", "coordinates": [ 4.321888, 52.076112 ] } },
{ "type": "Feature", "properties": { "_uid_": 235, "osm_id": "2726058903", "code": "2120", "name": "Gezondheidscentrum Rubenshoek", "fclass": "doctors", "lat": 52.06585, "lng": 4.304215 }, "geometry": { "type": "Point", "coordinates": [ 4.304215, 52.06585 ] } },
{ "type": "Feature", "properties": { "_uid_": 236, "osm_id": "2727318555", "code": "2101", "name": "Apotheek Den Haag", "fclass": "pharmacy", "lat": 52.062228, "lng": 4.293605 }, "geometry": { "type": "Point", "coordinates": [ 4.293605, 52.062228 ] } },
{ "type": "Feature", "properties": { "_uid_": 237, "osm_id": "2727325420", "code": "2121", "name": "SB Tandartsen", "fclass": "dentist", "lat": 52.063446, "lng": 4.289417 }, "geometry": { "type": "Point", "coordinates": [ 4.289417, 52.063446 ] } },
{ "type": "Feature", "properties": { "_uid_": 238, "osm_id": "2727331591", "code": "2120", "name": "Huisartsenpraktijk Transvaal", "fclass": "doctors", "lat": 52.064258, "lng": 4.294471 }, "geometry": { "type": "Point", "coordinates": [ 4.294471, 52.064258 ] } },
{ "type": "Feature", "properties": { "_uid_": 239, "osm_id": "2727888361", "code": "2120", "name": "Medicor", "fclass": "doctors", "lat": 52.067767, "lng": 4.29686 }, "geometry": { "type": "Point", "coordinates": [ 4.29686, 52.067767 ] } },
{ "type": "Feature", "properties": { "_uid_": 240, "osm_id": "2729413321", "code": "2101", "name": "Transvaal Apotheek", "fclass": "pharmacy", "lat": 52.065584, "lng": 4.293967 }, "geometry": { "type": "Point", "coordinates": [ 4.293967, 52.065584 ] } },
{ "type": "Feature", "properties": { "_uid_": 241, "osm_id": "2729416371", "code": "2121", "name": "Tandartspraktijk Transvaal", "fclass": "dentist", "lat": 52.067545, "lng": 4.287447 }, "geometry": { "type": "Point", "coordinates": [ 4.287447, 52.067545 ] } },
{ "type": "Feature", "properties": { "_uid_": 242, "osm_id": "2729416485", "code": "2120", "name": "Huisartsen Centrum De La Rey", "fclass": "doctors", "lat": 52.067405, "lng": 4.287513 }, "geometry": { "type": "Point", "coordinates": [ 4.287513, 52.067405 ] } },
{ "type": "Feature", "properties": { "_uid_": 243, "osm_id": "2729416755", "code": "2101", "name": "Apotheek Jager Bruining", "fclass": "pharmacy", "lat": 52.067113, "lng": 4.287362 }, "geometry": { "type": "Point", "coordinates": [ 4.287362, 52.067113 ] } },
{ "type": "Feature", "properties": { "_uid_": 244, "osm_id": "2729420069", "code": "2101", "name": "Apotheek Sahodrie", "fclass": "pharmacy", "lat": 52.068506, "lng": 4.292003 }, "geometry": { "type": "Point", "coordinates": [ 4.292003, 52.068506 ] } },
{ "type": "Feature", "properties": { "_uid_": 245, "osm_id": "2729486835", "code": "2121", "name": "F&D Dental", "fclass": "dentist", "lat": 52.066644, "lng": 4.2843 }, "geometry": { "type": "Point", "coordinates": [ 4.2843, 52.066644 ] } },
{ "type": "Feature", "properties": { "_uid_": 246, "osm_id": "2729488157", "code": "2120", "name": "Huisartspraktijk Mw. V.S. Mahabier", "fclass": "doctors", "lat": 52.066955, "lng": 4.28632 }, "geometry": { "type": "Point", "coordinates": [ 4.28632, 52.066955 ] } },
{ "type": "Feature", "properties": { "_uid_": 247, "osm_id": "2729492440", "code": "2101", "name": "Maxima Apotheek (Medisi)", "fclass": "pharmacy", "lat": 52.067144, "lng": 4.285878 }, "geometry": { "type": "Point", "coordinates": [ 4.285878, 52.067144 ] } },
{ "type": "Feature", "properties": { "_uid_": 248, "osm_id": "2729493362", "code": "2120", "name": "Zuiderpark Huisartsen", "fclass": "doctors", "lat": 52.065865, "lng": 4.27986 }, "geometry": { "type": "Point", "coordinates": [ 4.27986, 52.065865 ] } },
{ "type": "Feature", "properties": { "_uid_": 249, "osm_id": "2729493751", "code": "2101", "name": "Zuiderpark Apotheek", "fclass": "pharmacy", "lat": 52.065831, "lng": 4.279763 }, "geometry": { "type": "Point", "coordinates": [ 4.279763, 52.065831 ] } },
{ "type": "Feature", "properties": { "_uid_": 250, "osm_id": "2729506867", "code": "2120", "name": "V&V Huisartsen", "fclass": "doctors", "lat": 52.068365, "lng": 4.282214 }, "geometry": { "type": "Point", "coordinates": [ 4.282214, 52.068365 ] } },
{ "type": "Feature", "properties": { "_uid_": 251, "osm_id": "2729887070", "code": "2120", "name": "Huisartspraktijk Storm de Grave", "fclass": "doctors", "lat": 52.082903, "lng": 4.282785 }, "geometry": { "type": "Point", "coordinates": [ 4.282785, 52.082903 ] } },
{ "type": "Feature", "properties": { "_uid_": 252, "osm_id": "2730213038", "code": "2121", "name": "Haagse Tandartsen Praktijk", "fclass": "dentist", "lat": 52.086273, "lng": 4.298571 }, "geometry": { "type": "Point", "coordinates": [ 4.298571, 52.086273 ] } },
{ "type": "Feature", "properties": { "_uid_": 253, "osm_id": "2731058408", "code": "2101", "name": "Regentesse Apotheek", "fclass": "pharmacy", "lat": 52.077543, "lng": 4.282441 }, "geometry": { "type": "Point", "coordinates": [ 4.282441, 52.077543 ] } },
{ "type": "Feature", "properties": { "_uid_": 254, "osm_id": "2731703391", "code": "2101", "name": "De Luifelbaan", "fclass": "pharmacy", "lat": 52.14701, "lng": 4.476493 }, "geometry": { "type": "Point", "coordinates": [ 4.476493, 52.14701 ] } },
{ "type": "Feature", "properties": { "_uid_": 255, "osm_id": "2731714212", "code": "2101", "name": "Apotheek Archimedes", "fclass": "pharmacy", "lat": 52.080574, "lng": 4.281417 }, "geometry": { "type": "Point", "coordinates": [ 4.281417, 52.080574 ] } },
{ "type": "Feature", "properties": { "_uid_": 256, "osm_id": "2731773960", "code": "2101", "name": "Apotheek Van Laaren", "fclass": "pharmacy", "lat": 52.073314, "lng": 4.261353 }, "geometry": { "type": "Point", "coordinates": [ 4.261353, 52.073314 ] } },
{ "type": "Feature", "properties": { "_uid_": 257, "osm_id": "2732204064", "code": "2101", "name": "Apotheek Brusse", "fclass": "pharmacy", "lat": 52.04969, "lng": 4.274405 }, "geometry": { "type": "Point", "coordinates": [ 4.274405, 52.04969 ] } },
{ "type": "Feature", "properties": { "_uid_": 258, "osm_id": "2732569736", "code": "2101", "name": "Waldeck Apotheek", "fclass": "pharmacy", "lat": 52.059724, "lng": 4.230468 }, "geometry": { "type": "Point", "coordinates": [ 4.230468, 52.059724 ] } },
{ "type": "Feature", "properties": { "_uid_": 259, "osm_id": "2733395681", "code": "2101", "name": "Apotheek Medisch Centrum Brielle", "fclass": "pharmacy", "lat": 51.897383, "lng": 4.174978 }, "geometry": { "type": "Point", "coordinates": [ 4.174978, 51.897383 ] } },
{ "type": "Feature", "properties": { "_uid_": 260, "osm_id": "2733666891", "code": "2101", "name": "Apotheek Berestein", "fclass": "pharmacy", "lat": 52.039878, "lng": 4.256425 }, "geometry": { "type": "Point", "coordinates": [ 4.256425, 52.039878 ] } },
{ "type": "Feature", "properties": { "_uid_": 261, "osm_id": "2733807600", "code": "2110", "name": "HagaZiekenhuis locatie Leyweg", "fclass": "hospital", "lat": 52.056577, "lng": 4.263831 }, "geometry": { "type": "Point", "coordinates": [ 4.263831, 52.056577 ] } },
{ "type": "Feature", "properties": { "_uid_": 262, "osm_id": "2733910545", "code": "2101", "name": "Apotheek MC de Korenaer", "fclass": "pharmacy", "lat": 52.055158, "lng": 4.240377 }, "geometry": { "type": "Point", "coordinates": [ 4.240377, 52.055158 ] } },
{ "type": "Feature", "properties": { "_uid_": 263, "osm_id": "2733911838", "code": "2101", "name": "Loosduinse apotheek", "fclass": "pharmacy", "lat": 52.054343, "lng": 4.238112 }, "geometry": { "type": "Point", "coordinates": [ 4.238112, 52.054343 ] } },
{ "type": "Feature", "properties": { "_uid_": 264, "osm_id": "2734166991", "code": "2101", "name": "Apotheek Maasland", "fclass": "pharmacy", "lat": 51.93553, "lng": 4.271377 }, "geometry": { "type": "Point", "coordinates": [ 4.271377, 51.93553 ] } },
{ "type": "Feature", "properties": { "_uid_": 265, "osm_id": "2742703318", "code": "2101", "name": "Apotheek Monster", "fclass": "pharmacy", "lat": 52.02957, "lng": 4.179629 }, "geometry": { "type": "Point", "coordinates": [ 4.179629, 52.02957 ] } },
{ "type": "Feature", "properties": { "_uid_": 266, "osm_id": "2743111846", "code": "2120", "name": "Huisartsenpraktijk De Brinck", "fclass": "doctors", "lat": 52.022658, "lng": 4.174131 }, "geometry": { "type": "Point", "coordinates": [ 4.174131, 52.022658 ] } },
{ "type": "Feature", "properties": { "_uid_": 267, "osm_id": "2754494470", "code": "2101", "name": "Apotheek Maasdijk", "fclass": "pharmacy", "lat": 51.961002, "lng": 4.216091 }, "geometry": { "type": "Point", "coordinates": [ 4.216091, 51.961002 ] } },
{ "type": "Feature", "properties": { "_uid_": 268, "osm_id": "2762637632", "code": "2101", "name": "Service Apotheek Zevenhuizen-Moerkapelle", "fclass": "pharmacy", "lat": 52.010699, "lng": 4.58245 }, "geometry": { "type": "Point", "coordinates": [ 4.58245, 52.010699 ] } },
{ "type": "Feature", "properties": { "_uid_": 269, "osm_id": "2765742846", "code": "2120", "name": "Gezondheidscentrum Charley Toorop", "fclass": "doctors", "lat": 51.969811, "lng": 4.581818 }, "geometry": { "type": "Point", "coordinates": [ 4.581818, 51.969811 ] } },
{ "type": "Feature", "properties": { "_uid_": 270, "osm_id": "2768386085", "code": "2101", "name": "Apotheek Zevenkamp", "fclass": "pharmacy", "lat": 51.964005, "lng": 4.570818 }, "geometry": { "type": "Point", "coordinates": [ 4.570818, 51.964005 ] } },
{ "type": "Feature", "properties": { "_uid_": 271, "osm_id": "2770626656", "code": "2101", "name": "Rijnmond Apotheek", "fclass": "pharmacy", "lat": 51.926977, "lng": 4.245701 }, "geometry": { "type": "Point", "coordinates": [ 4.245701, 51.926977 ] } },
{ "type": "Feature", "properties": { "_uid_": 272, "osm_id": "2770761083", "code": "2101", "name": "BENU Apotheek Marshallweg", "fclass": "pharmacy", "lat": 51.95917, "lng": 4.544804 }, "geometry": { "type": "Point", "coordinates": [ 4.544804, 51.95917 ] } },
{ "type": "Feature", "properties": { "_uid_": 273, "osm_id": "2770770295", "code": "2101", "name": "Briand Apotheek", "fclass": "pharmacy", "lat": 51.960825, "lng": 4.542919 }, "geometry": { "type": "Point", "coordinates": [ 4.542919, 51.960825 ] } },
{ "type": "Feature", "properties": { "_uid_": 274, "osm_id": "2770971829", "code": "2101", "name": "Apotheek De Jonge", "fclass": "pharmacy", "lat": 51.92325, "lng": 4.255016 }, "geometry": { "type": "Point", "coordinates": [ 4.255016, 51.92325 ] } },
{ "type": "Feature", "properties": { "_uid_": 275, "osm_id": "2770972425", "code": "2120", "name": "Het Anker", "fclass": "doctors", "lat": 51.925031, "lng": 4.251629 }, "geometry": { "type": "Point", "coordinates": [ 4.251629, 51.925031 ] } },
{ "type": "Feature", "properties": { "_uid_": 276, "osm_id": "2774038672", "code": "2101", "name": "Centraal Apotheek Leiden", "fclass": "pharmacy", "lat": 52.15904, "lng": 4.489498 }, "geometry": { "type": "Point", "coordinates": [ 4.489498, 52.15904 ] } },
{ "type": "Feature", "properties": { "_uid_": 277, "osm_id": "2778361935", "code": "2101", "name": "Apotheek Pernis", "fclass": "pharmacy", "lat": 51.891689, "lng": 4.386525 }, "geometry": { "type": "Point", "coordinates": [ 4.386525, 51.891689 ] } },
{ "type": "Feature", "properties": { "_uid_": 278, "osm_id": "2778471392", "code": "2101", "name": "Apotheek Billiton", "fclass": "pharmacy", "lat": 51.912082, "lng": 4.332759 }, "geometry": { "type": "Point", "coordinates": [ 4.332759, 51.912082 ] } },
{ "type": "Feature", "properties": { "_uid_": 279, "osm_id": "2780061312", "code": "2101", "name": "Apotheek Bakker", "fclass": "pharmacy", "lat": 51.908394, "lng": 4.342649 }, "geometry": { "type": "Point", "coordinates": [ 4.342649, 51.908394 ] } },
{ "type": "Feature", "properties": { "_uid_": 280, "osm_id": "2780226084", "code": "2101", "name": "BENU Apotheek Walrave", "fclass": "pharmacy", "lat": 51.909493, "lng": 4.344623 }, "geometry": { "type": "Point", "coordinates": [ 4.344623, 51.909493 ] } },
{ "type": "Feature", "properties": { "_uid_": 281, "osm_id": "2780342713", "code": "2101", "name": "Apotheek de Polder", "fclass": "pharmacy", "lat": 51.914247, "lng": 4.360887 }, "geometry": { "type": "Point", "coordinates": [ 4.360887, 51.914247 ] } },
{ "type": "Feature", "properties": { "_uid_": 282, "osm_id": "2783879683", "code": "2101", "name": "Oude Maas", "fclass": "pharmacy", "lat": 51.94345, "lng": 4.538312 }, "geometry": { "type": "Point", "coordinates": [ 4.538312, 51.94345 ] } },
{ "type": "Feature", "properties": { "_uid_": 283, "osm_id": "2784029336", "code": "2101", "name": "Apotheek Copenhaege", "fclass": "pharmacy", "lat": 51.936684, "lng": 4.354395 }, "geometry": { "type": "Point", "coordinates": [ 4.354395, 51.936684 ] } },
{ "type": "Feature", "properties": { "_uid_": 284, "osm_id": "2784479274", "code": "2101", "name": "Apotheek Fascinatio", "fclass": "pharmacy", "lat": 51.91892, "lng": 4.547617 }, "geometry": { "type": "Point", "coordinates": [ 4.547617, 51.91892 ] } },
{ "type": "Feature", "properties": { "_uid_": 285, "osm_id": "2784625275", "code": "2101", "name": "Apotheek Prinsenland", "fclass": "pharmacy", "lat": 51.929483, "lng": 4.545846 }, "geometry": { "type": "Point", "coordinates": [ 4.545846, 51.929483 ] } },
{ "type": "Feature", "properties": { "_uid_": 286, "osm_id": "2785234814", "code": "2101", "name": "Apotheek Woudhoek", "fclass": "pharmacy", "lat": 51.941956, "lng": 4.368261 }, "geometry": { "type": "Point", "coordinates": [ 4.368261, 51.941956 ] } },
{ "type": "Feature", "properties": { "_uid_": 287, "osm_id": "2785476175", "code": "2120", "name": "Huisartsen Schiedam Noord", "fclass": "doctors", "lat": 51.937089, "lng": 4.382579 }, "geometry": { "type": "Point", "coordinates": [ 4.382579, 51.937089 ] } },
{ "type": "Feature", "properties": { "_uid_": 288, "osm_id": "2785476746", "code": "2101", "name": "Apotheek De Slimme Watering", "fclass": "pharmacy", "lat": 51.93715, "lng": 4.382792 }, "geometry": { "type": "Point", "coordinates": [ 4.382792, 51.93715 ] } },
{ "type": "Feature", "properties": { "_uid_": 289, "osm_id": "2785478218", "code": "2120", "name": "Huisartsenpraktijk Klein", "fclass": "doctors", "lat": 51.937076, "lng": 4.382373 }, "geometry": { "type": "Point", "coordinates": [ 4.382373, 51.937076 ] } },
{ "type": "Feature", "properties": { "_uid_": 290, "osm_id": "2786125506", "code": "2101", "name": "Apotheek de Poldervaart", "fclass": "pharmacy", "lat": 51.922502, "lng": 4.379958 }, "geometry": { "type": "Point", "coordinates": [ 4.379958, 51.922502 ] } },
{ "type": "Feature", "properties": { "_uid_": 291, "osm_id": "2786295576", "code": "2101", "name": "Apotheek De Gorzen", "fclass": "pharmacy", "lat": 51.907294, "lng": 4.401843 }, "geometry": { "type": "Point", "coordinates": [ 4.401843, 51.907294 ] } },
{ "type": "Feature", "properties": { "_uid_": 292, "osm_id": "2787593332", "code": "2120", "name": "Huisartsenpraktijk Schenkel", "fclass": "doctors", "lat": 51.932786, "lng": 4.566768 }, "geometry": { "type": "Point", "coordinates": [ 4.566768, 51.932786 ] } },
{ "type": "Feature", "properties": { "_uid_": 293, "osm_id": "2788160350", "code": "2101", "name": "Apotheek Tarwezigt", "fclass": "pharmacy", "lat": 51.892958, "lng": 4.489828 }, "geometry": { "type": "Point", "coordinates": [ 4.489828, 51.892958 ] } },
{ "type": "Feature", "properties": { "_uid_": 294, "osm_id": "2788215856", "code": "2120", "name": "Mediskin", "fclass": "doctors", "lat": 52.176996, "lng": 4.504291 }, "geometry": { "type": "Point", "coordinates": [ 4.504291, 52.176996 ] } },
{ "type": "Feature", "properties": { "_uid_": 295, "osm_id": "2788382428", "code": "2101", "name": "Rembrandt", "fclass": "pharmacy", "lat": 51.91168, "lng": 4.384051 }, "geometry": { "type": "Point", "coordinates": [ 4.384051, 51.91168 ] } },
{ "type": "Feature", "properties": { "_uid_": 296, "osm_id": "2788385108", "code": "2120", "name": "Huisartsenpraktijk Havenbogen", "fclass": "doctors", "lat": 51.91547, "lng": 4.394241 }, "geometry": { "type": "Point", "coordinates": [ 4.394241, 51.91547 ] } },
{ "type": "Feature", "properties": { "_uid_": 297, "osm_id": "2788934949", "code": "2101", "name": "Apotheek Schollevaar", "fclass": "pharmacy", "lat": 51.953206, "lng": 4.58301 }, "geometry": { "type": "Point", "coordinates": [ 4.58301, 51.953206 ] } },
{ "type": "Feature", "properties": { "_uid_": 298, "osm_id": "2789043985", "code": "2101", "name": "Apotheker Overschie", "fclass": "pharmacy", "lat": 51.933857, "lng": 4.428163 }, "geometry": { "type": "Point", "coordinates": [ 4.428163, 51.933857 ] } },
{ "type": "Feature", "properties": { "_uid_": 299, "osm_id": "2789217385", "code": "2120", "name": "Huisartsenpraktijk Van der Spek", "fclass": "doctors", "lat": 51.948937, "lng": 4.572048 }, "geometry": { "type": "Point", "coordinates": [ 4.572048, 51.948937 ] } },
{ "type": "Feature", "properties": { "_uid_": 300, "osm_id": "2791288877", "code": "2101", "name": "Apotheek Beverwaard", "fclass": "pharmacy", "lat": 51.891704, "lng": 4.566161 }, "geometry": { "type": "Point", "coordinates": [ 4.566161, 51.891704 ] } },
{ "type": "Feature", "properties": { "_uid_": 301, "osm_id": "2791452579", "code": "2101", "name": "Apotheek Abtsweg", "fclass": "pharmacy", "lat": 51.936143, "lng": 4.436988 }, "geometry": { "type": "Point", "coordinates": [ 4.436988, 51.936143 ] } },
{ "type": "Feature", "properties": { "_uid_": 302, "osm_id": "2791455051", "code": "2121", "name": null, "fclass": "dentist", "lat": 51.936064, "lng": 4.437069 }, "geometry": { "type": "Point", "coordinates": [ 4.437069, 51.936064 ] } },
{ "type": "Feature", "properties": { "_uid_": 303, "osm_id": "2792523480", "code": "2120", "name": "Huisartsen Delfshaven", "fclass": "doctors", "lat": 51.905296, "lng": 4.459011 }, "geometry": { "type": "Point", "coordinates": [ 4.459011, 51.905296 ] } },
{ "type": "Feature", "properties": { "_uid_": 304, "osm_id": "2796631375", "code": "2120", "name": "Medisch Centrum Spangen", "fclass": "doctors", "lat": 51.915408, "lng": 4.436954 }, "geometry": { "type": "Point", "coordinates": [ 4.436954, 51.915408 ] } },
{ "type": "Feature", "properties": { "_uid_": 305, "osm_id": "2797786547", "code": "2101", "name": "Benu", "fclass": "pharmacy", "lat": 51.916956, "lng": 4.435343 }, "geometry": { "type": "Point", "coordinates": [ 4.435343, 51.916956 ] } },
{ "type": "Feature", "properties": { "_uid_": 306, "osm_id": "2804760568", "code": "2101", "name": "Apotheek Rozenburg", "fclass": "pharmacy", "lat": 51.925026, "lng": 4.513956 }, "geometry": { "type": "Point", "coordinates": [ 4.513956, 51.925026 ] } },
{ "type": "Feature", "properties": { "_uid_": 307, "osm_id": "2805490676", "code": "2101", "name": "Apotheek Ramleh", "fclass": "pharmacy", "lat": 51.927641, "lng": 4.506372 }, "geometry": { "type": "Point", "coordinates": [ 4.506372, 51.927641 ] } },
{ "type": "Feature", "properties": { "_uid_": 308, "osm_id": "2812242128", "code": "2101", "name": "Apotheek Spanhoff", "fclass": "pharmacy", "lat": 51.924368, "lng": 4.491898 }, "geometry": { "type": "Point", "coordinates": [ 4.491898, 51.924368 ] } },
{ "type": "Feature", "properties": { "_uid_": 309, "osm_id": "2816558475", "code": "2110", "name": "Sint Franciscus Gasthuis", "fclass": "hospital", "lat": 51.942213, "lng": 4.462354 }, "geometry": { "type": "Point", "coordinates": [ 4.462354, 51.942213 ] } },
{ "type": "Feature", "properties": { "_uid_": 310, "osm_id": "2819188948", "code": "2101", "name": "Apotheek Kostense", "fclass": "pharmacy", "lat": 51.960342, "lng": 4.469054 }, "geometry": { "type": "Point", "coordinates": [ 4.469054, 51.960342 ] } },
{ "type": "Feature", "properties": { "_uid_": 311, "osm_id": "2821438373", "code": "2101", "name": "Apotheek Hillegersberg", "fclass": "pharmacy", "lat": 51.957822, "lng": 4.494606 }, "geometry": { "type": "Point", "coordinates": [ 4.494606, 51.957822 ] } },
{ "type": "Feature", "properties": { "_uid_": 312, "osm_id": "2821678710", "code": "2101", "name": "Apotheek Hillegersberg", "fclass": "pharmacy", "lat": 51.961377, "lng": 4.490778 }, "geometry": { "type": "Point", "coordinates": [ 4.490778, 51.961377 ] } },
{ "type": "Feature", "properties": { "_uid_": 313, "osm_id": "2842315717", "code": "2101", "name": "Kring-apotheek Waterryck", "fclass": "pharmacy", "lat": 52.202114, "lng": 4.632042 }, "geometry": { "type": "Point", "coordinates": [ 4.632042, 52.202114 ] } },
{ "type": "Feature", "properties": { "_uid_": 314, "osm_id": "2850090356", "code": "2101", "name": "Beker Apotheek", "fclass": "pharmacy", "lat": 52.183974, "lng": 4.470715 }, "geometry": { "type": "Point", "coordinates": [ 4.470715, 52.183974 ] } },
{ "type": "Feature", "properties": { "_uid_": 315, "osm_id": "2853644400", "code": "2101", "name": "Linnaeus Apotheek", "fclass": "pharmacy", "lat": 52.1776, "lng": 4.469429 }, "geometry": { "type": "Point", "coordinates": [ 4.469429, 52.1776 ] } },
{ "type": "Feature", "properties": { "_uid_": 316, "osm_id": "2871276863", "code": "2101", "name": "Apotheek Rijnwoude", "fclass": "pharmacy", "lat": 52.129504, "lng": 4.592477 }, "geometry": { "type": "Point", "coordinates": [ 4.592477, 52.129504 ] } },
{ "type": "Feature", "properties": { "_uid_": 317, "osm_id": "2873943153", "code": "2101", "name": "Carlina Apotheek", "fclass": "pharmacy", "lat": 52.191618, "lng": 4.475176 }, "geometry": { "type": "Point", "coordinates": [ 4.475176, 52.191618 ] } },
{ "type": "Feature", "properties": { "_uid_": 318, "osm_id": "2877489181", "code": "2101", "name": "Apotheek de Herenhof", "fclass": "pharmacy", "lat": 52.150984, "lng": 4.662094 }, "geometry": { "type": "Point", "coordinates": [ 4.662094, 52.150984 ] } },
{ "type": "Feature", "properties": { "_uid_": 319, "osm_id": "2884257287", "code": "2101", "name": "Katwijkse Apotheek", "fclass": "pharmacy", "lat": 52.199769, "lng": 4.404655 }, "geometry": { "type": "Point", "coordinates": [ 4.404655, 52.199769 ] } },
{ "type": "Feature", "properties": { "_uid_": 320, "osm_id": "2884342303", "code": "2101", "name": "Katwijkse Apotheek", "fclass": "pharmacy", "lat": 52.197632, "lng": 4.390133 }, "geometry": { "type": "Point", "coordinates": [ 4.390133, 52.197632 ] } },
{ "type": "Feature", "properties": { "_uid_": 321, "osm_id": "2884343122", "code": "2101", "name": "De Katwijkse Apotheek", "fclass": "pharmacy", "lat": 52.204079, "lng": 4.394162 }, "geometry": { "type": "Point", "coordinates": [ 4.394162, 52.204079 ] } },
{ "type": "Feature", "properties": { "_uid_": 322, "osm_id": "2892902136", "code": "2101", "name": "Apotheek De Nachtwacht \/ LUMC Hoofdingang", "fclass": "pharmacy", "lat": 52.166346, "lng": 4.478973 }, "geometry": { "type": "Point", "coordinates": [ 4.478973, 52.166346 ] } },
{ "type": "Feature", "properties": { "_uid_": 323, "osm_id": "2892921372", "code": "2101", "name": "Apotheek Kok", "fclass": "pharmacy", "lat": 52.15612, "lng": 4.465059 }, "geometry": { "type": "Point", "coordinates": [ 4.465059, 52.15612 ] } },
{ "type": "Feature", "properties": { "_uid_": 324, "osm_id": "2893645529", "code": "2110", "name": "Alrijne Ziekenhuis Alphen aan den Rijn", "fclass": "hospital", "lat": 52.142721, "lng": 4.661661 }, "geometry": { "type": "Point", "coordinates": [ 4.661661, 52.142721 ] } },
{ "type": "Feature", "properties": { "_uid_": 325, "osm_id": "2894353961", "code": "2101", "name": "Apotheek Rijnsburg", "fclass": "pharmacy", "lat": 52.189866, "lng": 4.444952 }, "geometry": { "type": "Point", "coordinates": [ 4.444952, 52.189866 ] } },
{ "type": "Feature", "properties": { "_uid_": 326, "osm_id": "2898795701", "code": "2101", "name": "Apotheek De Alo√´", "fclass": "pharmacy", "lat": 52.151416, "lng": 4.498376 }, "geometry": { "type": "Point", "coordinates": [ 4.498376, 52.151416 ] } },
{ "type": "Feature", "properties": { "_uid_": 327, "osm_id": "2901879044", "code": "2101", "name": "Apotheek Roomburgh", "fclass": "pharmacy", "lat": 52.151289, "lng": 4.514106 }, "geometry": { "type": "Point", "coordinates": [ 4.514106, 52.151289 ] } },
{ "type": "Feature", "properties": { "_uid_": 328, "osm_id": "2902521687", "code": "2101", "name": "Apotheek Allart", "fclass": "pharmacy", "lat": 52.128211, "lng": 4.664746 }, "geometry": { "type": "Point", "coordinates": [ 4.664746, 52.128211 ] } },
{ "type": "Feature", "properties": { "_uid_": 329, "osm_id": "2904324565", "code": "2101", "name": "Boots apotheek", "fclass": "pharmacy", "lat": 52.163673, "lng": 4.504228 }, "geometry": { "type": "Point", "coordinates": [ 4.504228, 52.163673 ] } },
{ "type": "Feature", "properties": { "_uid_": 330, "osm_id": "2907296978", "code": "2101", "name": "Haven Apotheek", "fclass": "pharmacy", "lat": 52.158873, "lng": 4.500417 }, "geometry": { "type": "Point", "coordinates": [ 4.500417, 52.158873 ] } },
{ "type": "Feature", "properties": { "_uid_": 331, "osm_id": "2938738535", "code": "2101", "name": null, "fclass": "pharmacy", "lat": 52.164582, "lng": 4.528631 }, "geometry": { "type": "Point", "coordinates": [ 4.528631, 52.164582 ] } },
{ "type": "Feature", "properties": { "_uid_": 332, "osm_id": "2938738750", "code": "2101", "name": "Alrijne Apotheek", "fclass": "pharmacy", "lat": 52.156429, "lng": 4.540961 }, "geometry": { "type": "Point", "coordinates": [ 4.540961, 52.156429 ] } },
{ "type": "Feature", "properties": { "_uid_": 333, "osm_id": "2938739027", "code": "2101", "name": "Apotheek Boehmer", "fclass": "pharmacy", "lat": 52.16187, "lng": 4.534012 }, "geometry": { "type": "Point", "coordinates": [ 4.534012, 52.16187 ] } },
{ "type": "Feature", "properties": { "_uid_": 334, "osm_id": "3028054305", "code": "2120", "name": "Together In Motion", "fclass": "doctors", "lat": 51.981241, "lng": 4.244733 }, "geometry": { "type": "Point", "coordinates": [ 4.244733, 51.981241 ] } },
{ "type": "Feature", "properties": { "_uid_": 335, "osm_id": "3044090389", "code": "2120", "name": "Huisartspraktijken Van Rijnstraat", "fclass": "doctors", "lat": 51.976283, "lng": 4.253005 }, "geometry": { "type": "Point", "coordinates": [ 4.253005, 51.976283 ] } },
{ "type": "Feature", "properties": { "_uid_": 336, "osm_id": "3046937319", "code": "2120", "name": "van Pelt", "fclass": "doctors", "lat": 52.082859, "lng": 4.295253 }, "geometry": { "type": "Point", "coordinates": [ 4.295253, 52.082859 ] } },
{ "type": "Feature", "properties": { "_uid_": 337, "osm_id": "3105445762", "code": "2101", "name": "Apotheek Huis te Lande", "fclass": "pharmacy", "lat": 52.041066, "lng": 4.322493 }, "geometry": { "type": "Point", "coordinates": [ 4.322493, 52.041066 ] } },
{ "type": "Feature", "properties": { "_uid_": 338, "osm_id": "3115636801", "code": "2121", "name": "W.A.L. Huysmans, tandarts", "fclass": "dentist", "lat": 52.087355, "lng": 4.2902 }, "geometry": { "type": "Point", "coordinates": [ 4.2902, 52.087355 ] } },
{ "type": "Feature", "properties": { "_uid_": 339, "osm_id": "3161517195", "code": "2101", "name": "Centrum Apotheek Schiedam", "fclass": "pharmacy", "lat": 51.920748, "lng": 4.401738 }, "geometry": { "type": "Point", "coordinates": [ 4.401738, 51.920748 ] } },
{ "type": "Feature", "properties": { "_uid_": 340, "osm_id": "3180340692", "code": "2120", "name": "Praktijk Voerman", "fclass": "doctors", "lat": 52.091563, "lng": 4.306507 }, "geometry": { "type": "Point", "coordinates": [ 4.306507, 52.091563 ] } },
{ "type": "Feature", "properties": { "_uid_": 341, "osm_id": "3186398220", "code": "2121", "name": "Centrum Voor Mondzorg Stella Maris", "fclass": "dentist", "lat": 52.090765, "lng": 4.306804 }, "geometry": { "type": "Point", "coordinates": [ 4.306804, 52.090765 ] } },
{ "type": "Feature", "properties": { "_uid_": 342, "osm_id": "3187740883", "code": "2120", "name": "Katherine Fortier - Educational & Child Psychologist", "fclass": "doctors", "lat": 52.090599, "lng": 4.305535 }, "geometry": { "type": "Point", "coordinates": [ 4.305535, 52.090599 ] } },
{ "type": "Feature", "properties": { "_uid_": 343, "osm_id": "3315409748", "code": "2121", "name": "M.G. Zaanen", "fclass": "dentist", "lat": 52.010233, "lng": 4.328577 }, "geometry": { "type": "Point", "coordinates": [ 4.328577, 52.010233 ] } },
{ "type": "Feature", "properties": { "_uid_": 344, "osm_id": "3318600831", "code": "2120", "name": "Jong Florence", "fclass": "doctors", "lat": 52.080096, "lng": 4.338199 }, "geometry": { "type": "Point", "coordinates": [ 4.338199, 52.080096 ] } },
{ "type": "Feature", "properties": { "_uid_": 345, "osm_id": "3326068556", "code": "2101", "name": "Apotheek Kipp", "fclass": "pharmacy", "lat": 52.012856, "lng": 4.337947 }, "geometry": { "type": "Point", "coordinates": [ 4.337947, 52.012856 ] } },
{ "type": "Feature", "properties": { "_uid_": 346, "osm_id": "3334973515", "code": "2120", "name": null, "fclass": "doctors", "lat": 52.012894, "lng": 4.334242 }, "geometry": { "type": "Point", "coordinates": [ 4.334242, 52.012894 ] } },
{ "type": "Feature", "properties": { "_uid_": 347, "osm_id": "3410364254", "code": "2120", "name": "Oogartsenpraktijk Delfland", "fclass": "doctors", "lat": 52.00979, "lng": 4.366564 }, "geometry": { "type": "Point", "coordinates": [ 4.366564, 52.00979 ] } },
{ "type": "Feature", "properties": { "_uid_": 348, "osm_id": "3438972526", "code": "2101", "name": "Apotheek Middelwaard", "fclass": "pharmacy", "lat": 52.055433, "lng": 4.468339 }, "geometry": { "type": "Point", "coordinates": [ 4.468339, 52.055433 ] } },
{ "type": "Feature", "properties": { "_uid_": 349, "osm_id": "3439117215", "code": "2101", "name": "BENU Apotheek", "fclass": "pharmacy", "lat": 52.055886, "lng": 4.470525 }, "geometry": { "type": "Point", "coordinates": [ 4.470525, 52.055886 ] } },
{ "type": "Feature", "properties": { "_uid_": 350, "osm_id": "3439388393", "code": "2110", "name": "LangeLand Ziekenhuis", "fclass": "hospital", "lat": 52.068878, "lng": 4.499618 }, "geometry": { "type": "Point", "coordinates": [ 4.499618, 52.068878 ] } },
{ "type": "Feature", "properties": { "_uid_": 351, "osm_id": "3479218206", "code": "2101", "name": "Apotheek Beckers", "fclass": "pharmacy", "lat": 52.018291, "lng": 4.433063 }, "geometry": { "type": "Point", "coordinates": [ 4.433063, 52.018291 ] } },
{ "type": "Feature", "properties": { "_uid_": 352, "osm_id": "3499345618", "code": "2101", "name": "Huygens Apotheek", "fclass": "pharmacy", "lat": 52.067755, "lng": 4.364856 }, "geometry": { "type": "Point", "coordinates": [ 4.364856, 52.067755 ] } },
{ "type": "Feature", "properties": { "_uid_": 353, "osm_id": "3519271603", "code": "2120", "name": "Huisartsenpraktijk Stokdijkkade", "fclass": "doctors", "lat": 51.995893, "lng": 4.212878 }, "geometry": { "type": "Point", "coordinates": [ 4.212878, 51.995893 ] } },
{ "type": "Feature", "properties": { "_uid_": 354, "osm_id": "3519271605", "code": "2120", "name": "Huisartsenpraktijk De Zorghoek", "fclass": "doctors", "lat": 52.0081, "lng": 4.228524 }, "geometry": { "type": "Point", "coordinates": [ 4.228524, 52.0081 ] } },
{ "type": "Feature", "properties": { "_uid_": 355, "osm_id": "3519272822", "code": "2120", "name": "Huisartsenpraktijk Pijletuinen", "fclass": "doctors", "lat": 51.995824, "lng": 4.213007 }, "geometry": { "type": "Point", "coordinates": [ 4.213007, 51.995824 ] } },
{ "type": "Feature", "properties": { "_uid_": 356, "osm_id": "3519272823", "code": "2101", "name": "Apotheek Hofzicht", "fclass": "pharmacy", "lat": 52.008151, "lng": 4.228502 }, "geometry": { "type": "Point", "coordinates": [ 4.228502, 52.008151 ] } },
{ "type": "Feature", "properties": { "_uid_": 357, "osm_id": "3519272824", "code": "2120", "name": "Huisartspraktijk Van Gulik", "fclass": "doctors", "lat": 51.995915, "lng": 4.212999 }, "geometry": { "type": "Point", "coordinates": [ 4.212999, 51.995915 ] } },
{ "type": "Feature", "properties": { "_uid_": 358, "osm_id": "3519272910", "code": "2120", "name": "Huisartsenpraktijk De Woerd", "fclass": "doctors", "lat": 51.998341, "lng": 4.205238 }, "geometry": { "type": "Point", "coordinates": [ 4.205238, 51.998341 ] } },
{ "type": "Feature", "properties": { "_uid_": 359, "osm_id": "3590818090", "code": "2120", "name": "Huisartsenpraktijk Van Oosterom en Brooijmans", "fclass": "doctors", "lat": 51.996563, "lng": 4.340316 }, "geometry": { "type": "Point", "coordinates": [ 4.340316, 51.996563 ] } },
{ "type": "Feature", "properties": { "_uid_": 360, "osm_id": "3590818091", "code": "2120", "name": "Huisartspraktijk Vlasveld", "fclass": "doctors", "lat": 51.99655, "lng": 4.340247 }, "geometry": { "type": "Point", "coordinates": [ 4.340247, 51.99655 ] } },
{ "type": "Feature", "properties": { "_uid_": 361, "osm_id": "3633079240", "code": "2121", "name": "Tandartspraktijk Mariahoeve", "fclass": "dentist", "lat": 52.090287, "lng": 4.354062 }, "geometry": { "type": "Point", "coordinates": [ 4.354062, 52.090287 ] } },
{ "type": "Feature", "properties": { "_uid_": 362, "osm_id": "3634561513", "code": "2120", "name": "Fysiotherapie Meeuwenlaan", "fclass": "doctors", "lat": 52.199291, "lng": 4.405927 }, "geometry": { "type": "Point", "coordinates": [ 4.405927, 52.199291 ] } },
{ "type": "Feature", "properties": { "_uid_": 363, "osm_id": "3666978646", "code": "2101", "name": "Service Apotheek Veenland", "fclass": "pharmacy", "lat": 52.056445, "lng": 4.399216 }, "geometry": { "type": "Point", "coordinates": [ 4.399216, 52.056445 ] } },
{ "type": "Feature", "properties": { "_uid_": 364, "osm_id": "3691138259", "code": "2121", "name": "Dental XL", "fclass": "dentist", "lat": 52.080289, "lng": 4.282747 }, "geometry": { "type": "Point", "coordinates": [ 4.282747, 52.080289 ] } },
{ "type": "Feature", "properties": { "_uid_": 365, "osm_id": "3691138261", "code": "2120", "name": null, "fclass": "doctors", "lat": 52.080454, "lng": 4.281159 }, "geometry": { "type": "Point", "coordinates": [ 4.281159, 52.080454 ] } },
{ "type": "Feature", "properties": { "_uid_": 366, "osm_id": "3699697840", "code": "2101", "name": "Apotheek Loudon", "fclass": "pharmacy", "lat": 52.086456, "lng": 4.346304 }, "geometry": { "type": "Point", "coordinates": [ 4.346304, 52.086456 ] } },
{ "type": "Feature", "properties": { "_uid_": 367, "osm_id": "3720148835", "code": "2120", "name": "Huisartenpraktijk Veur", "fclass": "doctors", "lat": 52.092309, "lng": 4.401694 }, "geometry": { "type": "Point", "coordinates": [ 4.401694, 52.092309 ] } },
{ "type": "Feature", "properties": { "_uid_": 368, "osm_id": "3720148836", "code": "2101", "name": "BENU Apotheek Veur", "fclass": "pharmacy", "lat": 52.09236, "lng": 4.401788 }, "geometry": { "type": "Point", "coordinates": [ 4.401788, 52.09236 ] } },
{ "type": "Feature", "properties": { "_uid_": 369, "osm_id": "3736627800", "code": "2120", "name": "Huisartsengroep Savalle", "fclass": "doctors", "lat": 52.079202, "lng": 4.354094 }, "geometry": { "type": "Point", "coordinates": [ 4.354094, 52.079202 ] } },
{ "type": "Feature", "properties": { "_uid_": 370, "osm_id": "3736627801", "code": "2120", "name": "Huisartsenpraktijk Tuinenburg", "fclass": "doctors", "lat": 52.079141, "lng": 4.354296 }, "geometry": { "type": "Point", "coordinates": [ 4.354296, 52.079141 ] } },
{ "type": "Feature", "properties": { "_uid_": 371, "osm_id": "3736627805", "code": "2101", "name": "Service Apotheek Savalle", "fclass": "pharmacy", "lat": 52.079218, "lng": 4.35398 }, "geometry": { "type": "Point", "coordinates": [ 4.35398, 52.079218 ] } },
{ "type": "Feature", "properties": { "_uid_": 372, "osm_id": "3736627815", "code": "2120", "name": "Werker", "fclass": "doctors", "lat": 52.079339, "lng": 4.354191 }, "geometry": { "type": "Point", "coordinates": [ 4.354191, 52.079339 ] } },
{ "type": "Feature", "properties": { "_uid_": 373, "osm_id": "3741970991", "code": "2121", "name": "Tandartspraktijk van Putten", "fclass": "dentist", "lat": 52.06748, "lng": 4.363374 }, "geometry": { "type": "Point", "coordinates": [ 4.363374, 52.06748 ] } },
{ "type": "Feature", "properties": { "_uid_": 374, "osm_id": "3759181449", "code": "2121", "name": "Tandheelkundig Centrum Brigantijn", "fclass": "dentist", "lat": 52.053735, "lng": 4.387215 }, "geometry": { "type": "Point", "coordinates": [ 4.387215, 52.053735 ] } },
{ "type": "Feature", "properties": { "_uid_": 375, "osm_id": "3761677993", "code": "2121", "name": "Orthocenter Ypenburg", "fclass": "dentist", "lat": 52.054415, "lng": 4.389564 }, "geometry": { "type": "Point", "coordinates": [ 4.389564, 52.054415 ] } },
{ "type": "Feature", "properties": { "_uid_": 376, "osm_id": "3769725313", "code": "2101", "name": "Benu", "fclass": "pharmacy", "lat": 52.074145, "lng": 4.36099 }, "geometry": { "type": "Point", "coordinates": [ 4.36099, 52.074145 ] } },
{ "type": "Feature", "properties": { "_uid_": 377, "osm_id": "3771481683", "code": "2101", "name": "De Doc", "fclass": "pharmacy", "lat": 52.076129, "lng": 4.321846 }, "geometry": { "type": "Point", "coordinates": [ 4.321846, 52.076129 ] } },
{ "type": "Feature", "properties": { "_uid_": 378, "osm_id": "3771494851", "code": "2121", "name": "Tandarts Bezuidenhout", "fclass": "dentist", "lat": 52.08739, "lng": 4.334521 }, "geometry": { "type": "Point", "coordinates": [ 4.334521, 52.08739 ] } },
{ "type": "Feature", "properties": { "_uid_": 379, "osm_id": "3771494852", "code": "2121", "name": "Tandartspraktijk Draisma", "fclass": "dentist", "lat": 52.087412, "lng": 4.334499 }, "geometry": { "type": "Point", "coordinates": [ 4.334499, 52.087412 ] } },
{ "type": "Feature", "properties": { "_uid_": 380, "osm_id": "3793341063", "code": "2120", "name": "Medicor", "fclass": "doctors", "lat": 52.067263, "lng": 4.297515 }, "geometry": { "type": "Point", "coordinates": [ 4.297515, 52.067263 ] } },
{ "type": "Feature", "properties": { "_uid_": 381, "osm_id": "3793368678", "code": "2101", "name": "Apotheek Klapwijk", "fclass": "pharmacy", "lat": 51.993465, "lng": 4.466799 }, "geometry": { "type": "Point", "coordinates": [ 4.466799, 51.993465 ] } },
{ "type": "Feature", "properties": { "_uid_": 382, "osm_id": "3809856216", "code": "2101", "name": "Apotheek Blankenburg", "fclass": "pharmacy", "lat": 51.900987, "lng": 4.255424 }, "geometry": { "type": "Point", "coordinates": [ 4.255424, 51.900987 ] } },
{ "type": "Feature", "properties": { "_uid_": 383, "osm_id": "3814116501", "code": "2120", "name": "A.P.M.T. Bruijs huisarts", "fclass": "doctors", "lat": 52.070756, "lng": 4.254514 }, "geometry": { "type": "Point", "coordinates": [ 4.254514, 52.070756 ] } },
{ "type": "Feature", "properties": { "_uid_": 384, "osm_id": "3814117830", "code": "2121", "name": "Jeukens tandarts", "fclass": "dentist", "lat": 52.071472, "lng": 4.253792 }, "geometry": { "type": "Point", "coordinates": [ 4.253792, 52.071472 ] } },
{ "type": "Feature", "properties": { "_uid_": 385, "osm_id": "3814118516", "code": "2101", "name": "Akelei apotheek", "fclass": "pharmacy", "lat": 52.071576, "lng": 4.253374 }, "geometry": { "type": "Point", "coordinates": [ 4.253374, 52.071576 ] } },
{ "type": "Feature", "properties": { "_uid_": 386, "osm_id": "3814118517", "code": "2120", "name": "Akelei huisartsenzorg", "fclass": "doctors", "lat": 52.07166, "lng": 4.253613 }, "geometry": { "type": "Point", "coordinates": [ 4.253613, 52.07166 ] } },
{ "type": "Feature", "properties": { "_uid_": 387, "osm_id": "3833596922", "code": "2101", "name": "Apotheek De Watertoren", "fclass": "pharmacy", "lat": 52.042013, "lng": 4.475997 }, "geometry": { "type": "Point", "coordinates": [ 4.475997, 52.042013 ] } },
{ "type": "Feature", "properties": { "_uid_": 388, "osm_id": "3833596923", "code": "2101", "name": "Apotheek Roggeveen Oost", "fclass": "pharmacy", "lat": 52.038436, "lng": 4.493122 }, "geometry": { "type": "Point", "coordinates": [ 4.493122, 52.038436 ] } },
{ "type": "Feature", "properties": { "_uid_": 389, "osm_id": "3850010578", "code": "2101", "name": "Apotheek Oosterheem", "fclass": "pharmacy", "lat": 52.059917, "lng": 4.541736 }, "geometry": { "type": "Point", "coordinates": [ 4.541736, 52.059917 ] } },
{ "type": "Feature", "properties": { "_uid_": 390, "osm_id": "3850010579", "code": "2101", "name": "Apotheek Seghwaert", "fclass": "pharmacy", "lat": 52.064256, "lng": 4.513815 }, "geometry": { "type": "Point", "coordinates": [ 4.513815, 52.064256 ] } },
{ "type": "Feature", "properties": { "_uid_": 391, "osm_id": "3850010620", "code": "2120", "name": "Gezondheidscentrum Oosterheem", "fclass": "doctors", "lat": 52.059753, "lng": 4.541903 }, "geometry": { "type": "Point", "coordinates": [ 4.541903, 52.059753 ] } },