{
"type": "FeatureCollection",
"name": "Restaurants",
"crs": { "type": "name", "properties": { "name": "urn:ogc:def:crs:OGC:1.3:CRS84" } },
"features": [
{ "type": "Feature", "properties": { "name": "Burger Shoppe", "type": "restaurant", "reach": null }, "geometry": { "type": "Point", "coordinates": [ -112.13330299166492, 33.480135181610812 ] } },
{ "type": "Feature", "properties": { "name": "Green", "type": "restaurant", "reach": null }, "geometry": { "type": "Point", "coordinates": [ -112.065430600710215, 33.470183257122869 ] } },
{ "type": "Feature", "properties": { "name": "First Watch", "type": "restaurant", "reach": null }, "geometry": { "type": "Point", "coordinates": [ -112.077126575877926, 33.480027811979262 ] } },
{ "type": "Feature", "properties": { "name": "Wild Thaiger", "type": "restaurant", "reach": null }, "geometry": { "type": "Point", "coordinates": [ -112.073440069614946, 33.477905717189756 ] } },
{ "type": "Feature", "properties": { "name": "The good egg", "type": "restaurant", "reach": null }, "geometry": { "type": "Point", "coordinates": [ -112.074986339713519, 33.484027372021551 ] } },
{ "type": "Feature", "properties": { "name": "China Chili", "type": "restaurant", "reach": null }, "geometry": { "type": "Point", "coordinates": [ -112.069134444458172, 33.485963212336252 ] } },
{ "type": "Feature", "properties": { "name": "Middle Eastern Bakery", "type": "restaurant", "reach": null }, "geometry": { "type": "Point", "coordinates": [ -112.047896384679476, 33.483534451826728 ] } },
{ "type": "Feature", "properties": { "name": "Jerry's", "type": "restaurant", "reach": null }, "geometry": { "type": "Point", "coordinates": [ -112.032064565943699, 33.47997558818156 ] } },
{ "type": "Feature", "properties": { "name": "Long Wongs Wings", "type": "restaurant", "reach": null }, "geometry": { "type": "Point", "coordinates": [ -112.021045830668669, 33.48062542381318 ] } },
{ "type": "Feature", "properties": { "name": "Great Wall Chinese Food", "type": "restaurant", "reach": null }, "geometry": { "type": "Point", "coordinates": [ -112.133373599246255, 33.510938473736061 ] } },
{ "type": "Feature", "properties": { "name": "Mariscos Chihuahua", "type": "restaurant", "reach": null }, "geometry": { "type": "Point", "coordinates": [ -112.099266903527976, 33.495212961751307 ] } },
{ "type": "Feature", "properties": { "name": "Eriberto's Mexican Food", "type": "restaurant", "reach": null }, "geometry": { "type": "Point", "coordinates": [ -112.082990059400444, 33.488880152321073 ] } },
{ "type": "Feature", "properties": { "name": "Crazy Jim's", "type": "restaurant", "reach": null }, "geometry": { "type": "Point", "coordinates": [ -112.091094659893756, 33.494359619232682 ] } },
{ "type": "Feature", "properties": { "name": "Filiberto's", "type": "restaurant", "reach": null }, "geometry": { "type": "Point", "coordinates": [ -112.083362500917218, 33.496822460763518 ] } },
{ "type": "Feature", "properties": { "name": "Filiberto's", "type": "restaurant", "reach": null }, "geometry": { "type": "Point", "coordinates": [ -112.082873997065718, 33.498691120124477 ] } },
{ "type": "Feature", "properties": { "name": "Los Compadres", "type": "restaurant", "reach": null }, "geometry": { "type": "Point", "coordinates": [ -112.082716791891002, 33.501253166703798 ] } },
{ "type": "Feature", "properties": { "name": "Peter Piper Pizza", "type": "restaurant", "reach": null }, "geometry": { "type": "Point", "coordinates": [ -112.082461670350312, 33.488364484278257 ] } },
{ "type": "Feature", "properties": { "name": "Pho Noodles", "type": "restaurant", "reach": null }, "geometry": { "type": "Point", "coordinates": [ -112.082433463250382, 33.488751516544362 ] } },
{ "type": "Feature", "properties": { "name": "Thai E-San", "type": "restaurant", "reach": null }, "geometry": { "type": "Point", "coordinates": [ -112.082095247545922, 33.495010770302166 ] } },
{ "type": "Feature", "properties": { "name": "Taco Guild", "type": "restaurant", "reach": null }, "geometry": { "type": "Point", "coordinates": [ -112.065670001733437, 33.487703768404849 ] } },
{ "type": "Feature", "properties": { "name": "Joe's Dinner", "type": "restaurant", "reach": null }, "geometry": { "type": "Point", "coordinates": [ -112.082220113370411, 33.502721279153185 ] } },
{ "type": "Feature", "properties": { "name": "The Prime", "type": "restaurant", "reach": null }, "geometry": { "type": "Point", "coordinates": [ -112.075347282794667, 33.51007652287992 ] } },
{ "type": "Feature", "properties": { "name": "Flower Child", "type": "restaurant", "reach": null }, "geometry": { "type": "Point", "coordinates": [ -112.072036631646583, 33.509645768934718 ] } },
{ "type": "Feature", "properties": { "name": "Zooks", "type": "restaurant", "reach": null }, "geometry": { "type": "Point", "coordinates": [ -112.071712070334414, 33.509632361674406 ] } },
{ "type": "Feature", "properties": { "name": "Cheese 'N Stuff", "type": "restaurant", "reach": null }, "geometry": { "type": "Point", "coordinates": [ -112.074047420578566, 33.510173968397616 ] } },
{ "type": "Feature", "properties": { "name": "Shack Shack", "type": "restaurant", "reach": null }, "geometry": { "type": "Point", "coordinates": [ -112.07329481203351, 33.510676024540949 ] } },
{ "type": "Feature", "properties": { "name": "Postino Central", "type": "restaurant", "reach": null }, "geometry": { "type": "Point", "coordinates": [ -112.074172466066102, 33.512623777067517 ] } },
{ "type": "Feature", "properties": { "name": "Sun Up Brewing", "type": "restaurant", "reach": null }, "geometry": { "type": "Point", "coordinates": [ -112.068669206972515, 33.509504505741226 ] } },
{ "type": "Feature", "properties": { "name": "Denney's", "type": "restaurant", "reach": null }, "geometry": { "type": "Point", "coordinates": [ -112.065291810998829, 33.509410954326555 ] } },
{ "type": "Feature", "properties": { "name": "Pizza Heaven Bistro", "type": "restaurant", "reach": null }, "geometry": { "type": "Point", "coordinates": [ -112.065260190300819, 33.512663398265509 ] } },
{ "type": "Feature", "properties": { "name": "Flavors of India", "type": "restaurant", "reach": null }, "geometry": { "type": "Point", "coordinates": [ -112.04723693142941, 33.502730118164934 ] } },
{ "type": "Feature", "properties": { "name": "Double Dose", "type": "restaurant", "reach": null }, "geometry": { "type": "Point", "coordinates": [ -112.041283077389338, 33.50586701144325 ] } },
{ "type": "Feature", "properties": { "name": "Five and Dinner", "type": "restaurant", "reach": null }, "geometry": { "type": "Point", "coordinates": [ -112.047979389011729, 33.513468551004692 ] } },
{ "type": "Feature", "properties": { "name": "Zupas", "type": "restaurant", "reach": null }, "geometry": { "type": "Point", "coordinates": [ -112.04147369989262, 33.508696619653612 ] } },
{ "type": "Feature", "properties": { "name": "Cheesecake Restaurant", "type": "restaurant", "reach": null }, "geometry": { "type": "Point", "coordinates": [ -112.029470500897745, 33.510153520577099 ] } },
{ "type": "Feature", "properties": { "name": "Zipp's Sports Grill", "type": "restaurant", "reach": null }, "geometry": { "type": "Point", "coordinates": [ -112.00248717588795, 33.49462069454205 ] } },
{ "type": "Feature", "properties": { "name": "Beckett's Table", "type": "restaurant", "reach": null }, "geometry": { "type": "Point", "coordinates": [ -112.001583021554467, 33.494854200830446 ] } },
{ "type": "Feature", "properties": { "name": "Gino's East", "type": "restaurant", "reach": null }, "geometry": { "type": "Point", "coordinates": [ -112.002768977392577, 33.495462497860998 ] } },
{ "type": "Feature", "properties": { "name": "Matt's Big Breakfast", "type": "restaurant", "reach": null }, "geometry": { "type": "Point", "coordinates": [ -112.015361381382306, 33.510996296339833 ] } },
{ "type": "Feature", "properties": { "name": "Tortas Paquime", "type": "restaurant", "reach": "outside" }, "geometry": { "type": "Point", "coordinates": [ -112.286080729676527, 33.493420565665005 ] } },
{ "type": "Feature", "properties": { "name": "Fired Pie", "type": "restaurant", "reach": "outside" }, "geometry": { "type": "Point", "coordinates": [ -112.266976078866094, 33.533748288564269 ] } },
{ "type": "Feature", "properties": { "name": "McFadden's", "type": "restaurant", "reach": "outside" }, "geometry": { "type": "Point", "coordinates": [ -112.261670628798086, 33.532915094560352 ] } },
{ "type": "Feature", "properties": { "name": "Saddle Ranch Chop House", "type": "restaurant", "reach": "outside" }, "geometry": { "type": "Point", "coordinates": [ -112.260872116342028, 33.532930669753334 ] } },
{ "type": "Feature", "properties": { "name": "Kabuki", "type": "restaurant", "reach": "outside" }, "geometry": { "type": "Point", "coordinates": [ -112.261172423141517, 33.533507923364056 ] } },
{ "type": "Feature", "properties": { "name": "Hot Juicy Crawfish", "type": "restaurant", "reach": "outside" }, "geometry": { "type": "Point", "coordinates": [ -112.261659759183161, 33.534211869528797 ] } },
{ "type": "Feature", "properties": { "name": "Yard House", "type": "restaurant", "reach": "outside" }, "geometry": { "type": "Point", "coordinates": [ -112.261280310807152, 33.53406211016096 ] } },
{ "type": "Feature", "properties": { "name": "Buffalo Wild Wings", "type": "restaurant", "reach": "outside" }, "geometry": { "type": "Point", "coordinates": [ -112.261726683671824, 33.534556764366208 ] } },
{ "type": "Feature", "properties": { "name": "Johnny Rockets", "type": "restaurant", "reach": "outside" }, "geometry": { "type": "Point", "coordinates": [ -112.260704670373073, 33.535104205343849 ] } },
{ "type": "Feature", "properties": { "name": "Cracker Barrel Old Country Store", "type": "restaurant", "reach": "outside" }, "geometry": { "type": "Point", "coordinates": [ -112.259980268927961, 33.538145505939191 ] } },
{ "type": "Feature", "properties": { "name": "Native New Yorker Restaurant", "type": "restaurant", "reach": "outside" }, "geometry": { "type": "Point", "coordinates": [ -112.263372576935396, 33.540528258785386 ] } },
{ "type": "Feature", "properties": { "name": "Doughboys pizza", "type": "restaurant", "reach": "outside" }, "geometry": { "type": "Point", "coordinates": [ -112.257743733365075, 33.552174522045824 ] } },
{ "type": "Feature", "properties": { "name": "Tru Burger Company", "type": "restaurant", "reach": "outside" }, "geometry": { "type": "Point", "coordinates": [ -112.270834343011387, 33.553743957886176 ] } },
{ "type": "Feature", "properties": { "name": "Streets Of New York", "type": "restaurant", "reach": "outside" }, "geometry": { "type": "Point", "coordinates": [ -112.258241220369442, 33.552576466234129 ] } },
{ "type": "Feature", "properties": { "name": "LIN'S", "type": "restaurant", "reach": "outside" }, "geometry": { "type": "Point", "coordinates": [ -111.997553269021438, 33.377355057588368 ] } },
{ "type": "Feature", "properties": { "name": "Wingstop", "type": "restaurant", "reach": null }, "geometry": { "type": "Point", "coordinates": [ -111.977905137464134, 33.379698575811567 ] } },
{ "type": "Feature", "properties": { "name": "Aunt Chilada's", "type": "restaurant", "reach": null }, "geometry": { "type": "Point", "coordinates": [ -111.970888845937523, 33.377654667772944 ] } },
{ "type": "Feature", "properties": { "name": "Popeyes Louisiana Kitchen", "type": "restaurant", "reach": "outside" }, "geometry": { "type": "Point", "coordinates": [ -111.964508831126636, 33.37770575293176 ] } },
{ "type": "Feature", "properties": { "name": "Joe's Crab Shack", "type": "restaurant", "reach": null }, "geometry": { "type": "Point", "coordinates": [ -111.966386579565039, 33.378702095065947 ] } },
{ "type": "Feature", "properties": { "name": "Bosa Donuts", "type": "restaurant", "reach": "outside" }, "geometry": { "type": "Point", "coordinates": [ -111.94055453542336, 33.3779281718124 ] } },
{ "type": "Feature", "properties": { "name": "Someburros", "type": "restaurant", "reach": "outside" }, "geometry": { "type": "Point", "coordinates": [ -111.93892903391675, 33.37749661115172 ] } },
{ "type": "Feature", "properties": { "name": "Solo Cafe", "type": "restaurant", "reach": "outside" }, "geometry": { "type": "Point", "coordinates": [ -111.938569617971581, 33.377823601252686 ] } },
{ "type": "Feature", "properties": { "name": "Opa Life Greek Cafe", "type": "restaurant", "reach": "outside" }, "geometry": { "type": "Point", "coordinates": [ -111.935699680301866, 33.377814599476963 ] } },
{ "type": "Feature", "properties": { "name": "Sushi Time", "type": "restaurant", "reach": "outside" }, "geometry": { "type": "Point", "coordinates": [ -111.930120513566791, 33.379183758857494 ] } },
{ "type": "Feature", "properties": { "name": "Chipotle", "type": "restaurant", "reach": "outside" }, "geometry": { "type": "Point", "coordinates": [ -111.929113502133291, 33.377838754239725 ] } },
{ "type": "Feature", "properties": { "name": "Cafe Rio", "type": "restaurant", "reach": "outside" }, "geometry": { "type": "Point", "coordinates": [ -111.928925664407387, 33.379002525761358 ] } },
{ "type": "Feature", "properties": { "name": "Jimmy John's", "type": "restaurant", "reach": "outside" }, "geometry": { "type": "Point", "coordinates": [ -111.929846078247493, 33.379227116719377 ] } },
{ "type": "Feature", "properties": { "name": "Pier 54", "type": "restaurant", "reach": "outside" }, "geometry": { "type": "Point", "coordinates": [ -111.919802643876437, 33.375453176479283 ] } },
{ "type": "Feature", "properties": { "name": "The Watershed", "type": "restaurant", "reach": "outside" }, "geometry": { "type": "Point", "coordinates": [ -111.919947092974127, 33.376011900097076 ] } },
{ "type": "Feature", "properties": { "name": "Peter Piper's Pizza", "type": "restaurant", "reach": "outside" }, "geometry": { "type": "Point", "coordinates": [ -111.908245009262487, 33.377305472528384 ] } },
{ "type": "Feature", "properties": { "name": "Cold Stone Creamery", "type": "restaurant", "reach": "outside" }, "geometry": { "type": "Point", "coordinates": [ -111.909705041093787, 33.391747482526455 ] } },
{ "type": "Feature", "properties": { "name": "Boston Market", "type": "restaurant", "reach": "outside" }, "geometry": { "type": "Point", "coordinates": [ -111.908835202404177, 33.391251787731377 ] } },
{ "type": "Feature", "properties": { "name": "Sweet Tomatoes", "type": "restaurant", "reach": "outside" }, "geometry": { "type": "Point", "coordinates": [ -111.914894159332476, 33.393588706303078 ] } },
{ "type": "Feature", "properties": { "name": "Joe's Crab Shack", "type": "restaurant", "reach": "outside" }, "geometry": { "type": "Point", "coordinates": [ -111.912442117932954, 33.393355002273054 ] } },
{ "type": "Feature", "properties": { "name": "Outback Steakhouse", "type": "restaurant", "reach": "outside" }, "geometry": { "type": "Point", "coordinates": [ -111.910244209927299, 33.393749283707891 ] } },
{ "type": "Feature", "properties": { "name": "YC's Mongolian BBQ", "type": "restaurant", "reach": "outside" }, "geometry": { "type": "Point", "coordinates": [ -111.909552237663945, 33.39487129223243 ] } },
{ "type": "Feature", "properties": { "name": "Nello's", "type": "restaurant", "reach": "outside" }, "geometry": { "type": "Point", "coordinates": [ -111.90743221359341, 33.394012912012656 ] } },
{ "type": "Feature", "properties": { "name": "Baskin Robbins 31 Flavors", "type": "restaurant", "reach": "outside" }, "geometry": { "type": "Point", "coordinates": [ -111.909595895786765, 33.396061610441258 ] } },
{ "type": "Feature", "properties": { "name": "Hangar Cafe", "type": "restaurant", "reach": "outside" }, "geometry": { "type": "Point", "coordinates": [ -111.81171294714629, 33.272677099500484 ] } },
{ "type": "Feature", "properties": { "name": "Cold Stone Creamery", "type": "restaurant", "reach": "outside" }, "geometry": { "type": "Point", "coordinates": [ -111.807927626202073, 33.319336823086189 ] } },
{ "type": "Feature", "properties": { "name": "Applebees", "type": "restaurant", "reach": "outside" }, "geometry": { "type": "Point", "coordinates": [ -111.807624983782858, 33.335997453544508 ] } },
{ "type": "Feature", "properties": { "name": "Otaku", "type": "restaurant", "reach": "outside" }, "geometry": { "type": "Point", "coordinates": [ -111.790798191038363, 33.271115795246722 ] } },
{ "type": "Feature", "properties": { "name": "Paradise Bakery", "type": "restaurant", "reach": "outside" }, "geometry": { "type": "Point", "coordinates": [ -111.791420543867204, 33.278046892747781 ] } },
{ "type": "Feature", "properties": { "name": "Cold Stone Creamery", "type": "restaurant", "reach": "outside" }, "geometry": { "type": "Point", "coordinates": [ -111.791322986827353, 33.27822337931827 ] } },
{ "type": "Feature", "properties": { "name": "Rubios", "type": "restaurant", "reach": "outside" }, "geometry": { "type": "Point", "coordinates": [ -111.791168386766941, 33.278296752566185 ] } },
{ "type": "Feature", "properties": { "name": "Ono's Hawaiian BBQ", "type": "restaurant", "reach": "outside" }, "geometry": { "type": "Point", "coordinates": [ -111.790821098078112, 33.278574774282752 ] } },
{ "type": "Feature", "properties": { "name": "YC's Mongolian Grill", "type": "restaurant", "reach": "outside" }, "geometry": { "type": "Point", "coordinates": [ -111.790631823047747, 33.278842656606408 ] } },
{ "type": "Feature", "properties": { "name": "Cafe Zupas", "type": "restaurant", "reach": "outside" }, "geometry": { "type": "Point", "coordinates": [ -111.788486646149281, 33.279610401139678 ] } },
{ "type": "Feature", "properties": { "name": "My Big Fat Greek Restaurant", "type": "restaurant", "reach": "outside" }, "geometry": { "type": "Point", "coordinates": [ -111.790272137607985, 33.280826852730442 ] } },
{ "type": "Feature", "properties": { "name": "Jamba Juice", "type": "restaurant", "reach": "outside" }, "geometry": { "type": "Point", "coordinates": [ -111.789036325271624, 33.28167636116067 ] } },
{ "type": "Feature", "properties": { "name": "Chipotle", "type": "restaurant", "reach": "outside" }, "geometry": { "type": "Point", "coordinates": [ -111.78885926732913, 33.281887159930143 ] } },
{ "type": "Feature", "properties": { "name": "Streamers", "type": "restaurant", "reach": "outside" }, "geometry": { "type": "Point", "coordinates": [ -111.795475000070539, 33.328885419576615 ] } },
{ "type": "Feature", "properties": { "name": "Phoenicia Cafe", "type": "restaurant", "reach": "outside" }, "geometry": { "type": "Point", "coordinates": [ -111.790804658908399, 33.329011290039382 ] } },
{ "type": "Feature", "properties": { "name": "Gilbert Pizza", "type": "restaurant", "reach": "outside" }, "geometry": { "type": "Point", "coordinates": [ -111.790659760653085, 33.329006861683908 ] } },
{ "type": "Feature", "properties": { "name": "Mike's", "type": "restaurant", "reach": "outside" }, "geometry": { "type": "Point", "coordinates": [ -111.790509831832182, 33.329007011797664 ] } },
{ "type": "Feature", "properties": { "name": "Pei Wei", "type": "restaurant", "reach": "outside" }, "geometry": { "type": "Point", "coordinates": [ -111.790917487308093, 33.330212717082226 ] } },
{ "type": "Feature", "properties": { "name": "Buffalo Wild Wings", "type": "restaurant", "reach": "outside" }, "geometry": { "type": "Point", "coordinates": [ -111.791258128463824, 33.331732059112731 ] } },
{ "type": "Feature", "properties": { "name": "Ahi", "type": "restaurant", "reach": "outside" }, "geometry": { "type": "Point", "coordinates": [ -111.791185724251932, 33.332406571532253 ] } },
{ "type": "Feature", "properties": { "name": "International House of Pancakes", "type": "restaurant", "reach": "outside" }, "geometry": { "type": "Point", "coordinates": [ -111.790654640255966, 33.332998219775639 ] } },
{ "type": "Feature", "properties": { "name": "The Gilbert House Restaurant", "type": "restaurant", "reach": "outside" }, "geometry": { "type": "Point", "coordinates": [ -111.789379841036265, 33.343149280922781 ] } },
{ "type": "Feature", "properties": { "name": "Zipp's Sports Bar", "type": "restaurant", "reach": "outside" }, "geometry": { "type": "Point", "coordinates": [ -111.785187134110686, 33.334927522031514 ] } },
{ "type": "Feature", "properties": { "name": "Over Easy", "type": "restaurant", "reach": "outside" }, "geometry": { "type": "Point", "coordinates": [ -111.785197824062593, 33.335169563664991 ] } },
{ "type": "Feature", "properties": { "name": "Euro Cafe", "type": "restaurant", "reach": "outside" }, "geometry": { "type": "Point", "coordinates": [ -111.789249675151595, 33.353748172814591 ] } },
{ "type": "Feature", "properties": { "name": "SoCal Taco Shop", "type": "restaurant", "reach": "outside" }, "geometry": { "type": "Point", "coordinates": [ -111.789451796090532, 33.3543997791256 ] } },
{ "type": "Feature", "properties": { "name": "Farmhouse Cafe", "type": "restaurant", "reach": "outside" }, "geometry": { "type": "Point", "coordinates": [ -111.789886311193456, 33.354546772551167 ] } },
{ "type": "Feature", "properties": { "name": "Liberty Market", "type": "restaurant", "reach": "outside" }, "geometry": { "type": "Point", "coordinates": [ -111.789877417872148, 33.354684686524635 ] } },
{ "type": "Feature", "properties": { "name": "Postino Wine Bar", "type": "restaurant", "reach": "outside" }, "geometry": { "type": "Point", "coordinates": [ -111.789939940615909, 33.355102403956529 ] } },
{ "type": "Feature", "properties": { "name": "Joe's Real BBQ", "type": "restaurant", "reach": "outside" }, "geometry": { "type": "Point", "coordinates": [ -111.789379571541687, 33.35503157146686 ] } },
{ "type": "Feature", "properties": { "name": "Joyride Taco Shop", "type": "restaurant", "reach": "outside" }, "geometry": { "type": "Point", "coordinates": [ -111.789938862637584, 33.355243018283232 ] } },
{ "type": "Feature", "properties": { "name": "Pomo", "type": "restaurant", "reach": "outside" }, "geometry": { "type": "Point", "coordinates": [ -111.790021687306776, 33.356421798608551 ] } },
{ "type": "Feature", "properties": { "name": "Lolo's Chicken and Waffles", "type": "restaurant", "reach": "outside" }, "geometry": { "type": "Point", "coordinates": [ -111.790036509508951, 33.356673759894292 ] } },
{ "type": "Feature", "properties": { "name": "Barrio Queen", "type": "restaurant", "reach": "outside" }, "geometry": { "type": "Point", "coordinates": [ -111.790065974250297, 33.356897883271934 ] } },
{ "type": "Feature", "properties": { "name": "Zinburger", "type": "restaurant", "reach": "outside" }, "geometry": { "type": "Point", "coordinates": [ -111.789984227559415, 33.356193322065202 ] } },
{ "type": "Feature", "properties": { "name": "Flancer's Cafe", "type": "restaurant", "reach": "outside" }, "geometry": { "type": "Point", "coordinates": [ -111.790070465826716, 33.360818710969966 ] } },
{ "type": "Feature", "properties": { "name": "Lulu's Taco Shop", "type": "restaurant", "reach": "outside" }, "geometry": { "type": "Point", "coordinates": [ -111.790113405297291, 33.361145763764483 ] } },
{ "type": "Feature", "properties": { "name": "International House Of Food", "type": "restaurant", "reach": null }, "geometry": { "type": "Point", "coordinates": [ -112.090602922107223, 33.451487573895967 ] } },
{ "type": "Feature", "properties": { "name": "Irma's Kitchen", "type": "restaurant", "reach": null }, "geometry": { "type": "Point", "coordinates": [ -112.091408890580155, 33.457936884108307 ] } },
{ "type": "Feature", "properties": { "name": "The Mill At Crown King", "type": "restaurant", "reach": "outside" }, "geometry": { "type": "Point", "coordinates": [ -112.336827817717847, 34.206392505961702 ] } },
{ "type": "Feature", "properties": { "name": "Little Ceaser's Pizza", "type": "restaurant", "reach": "outside" }, "geometry": { "type": "Point", "coordinates": [ -112.328715132386947, 34.587095074071108 ] } },
{ "type": "Feature", "properties": { "name": "Denny's", "type": "restaurant", "reach": "outside" }, "geometry": { "type": "Point", "coordinates": [ -112.326379063490606, 34.585484760438291 ] } },
{ "type": "Feature", "properties": { "name": null, "type": "restaurant", "reach": "outside" }, "geometry": { "type": "Point", "coordinates": [ -112.333296630167496, 34.634885591742581 ] } },
{ "type": "Feature", "properties": { "name": null, "type": "restaurant", "reach": "outside" }, "geometry": { "type": "Point", "coordinates": [ -112.332657119516725, 34.63506800765574 ] } },
{ "type": "Feature", "properties": { "name": null, "type": "restaurant", "reach": "outside" }, "geometry": { "type": "Point", "coordinates": [ -112.333710124692786, 34.635373191242294 ] } },
{ "type": "Feature", "properties": { "name": "Blossom Asian Cuisine", "type": "restaurant", "reach": "outside" }, "geometry": { "type": "Point", "coordinates": [ -112.240543510956996, 33.423228396310385 ] } },
{ "type": "Feature", "properties": { "name": "Ruby Tuesday", "type": "restaurant", "reach": "outside" }, "geometry": { "type": "Point", "coordinates": [ -112.306140199802442, 33.457911252703376 ] } },
{ "type": "Feature", "properties": { "name": "Smash Burger", "type": "restaurant", "reach": "outside" }, "geometry": { "type": "Point", "coordinates": [ -112.273061446263782, 33.463894556199349 ] } },
{ "type": "Feature", "properties": { "name": "Rumbi Island Grill", "type": "restaurant", "reach": "outside" }, "geometry": { "type": "Point", "coordinates": [ -112.273094863592362, 33.464240180944877 ] } },
{ "type": "Feature", "properties": { "name": "Chipotle", "type": "restaurant", "reach": "outside" }, "geometry": { "type": "Point", "coordinates": [ -112.273149930319278, 33.464330858501164 ] } },
{ "type": "Feature", "properties": { "name": "Yan's Chinese Food", "type": "restaurant", "reach": "outside" }, "geometry": { "type": "Point", "coordinates": [ -112.257457889441696, 33.480092773244678 ] } },
{ "type": "Feature", "properties": { "name": "Cicis", "type": "restaurant", "reach": "outside" }, "geometry": { "type": "Point", "coordinates": [ -112.221570732830273, 33.472618686308145 ] } },
{ "type": "Feature", "properties": { "name": "Filiberto's Mexican Food", "type": "restaurant", "reach": null }, "geometry": { "type": "Point", "coordinates": [ -112.152899200598824, 33.466267513610923 ] } },
{ "type": "Feature", "properties": { "name": "Masa Sushi Japanese Cuisine Gilbert", "type": "restaurant", "reach": "outside" }, "geometry": { "type": "Point", "coordinates": [ -111.789262610891683, 33.366114504137826 ] } },
{ "type": "Feature", "properties": { "name": "275 Cleaners", "type": "restaurant", "reach": "outside" }, "geometry": { "type": "Point", "coordinates": [ -111.787878576533458, 33.365855367774493 ] } },
{ "type": "Feature", "properties": { "name": "Thai Food Corner", "type": "restaurant", "reach": "outside" }, "geometry": { "type": "Point", "coordinates": [ -111.716910860604258, 33.436215673770896 ] } },
{ "type": "Feature", "properties": { "name": "Anzio Landing", "type": "restaurant", "reach": "outside" }, "geometry": { "type": "Point", "coordinates": [ -111.719342689909894, 33.462968586841427 ] } },
{ "type": "Feature", "properties": { "name": "Desert Peaks Pizza & Grille", "type": "restaurant", "reach": "outside" }, "geometry": { "type": "Point", "coordinates": [ -111.702110936635322, 33.450135219000899 ] } },
{ "type": "Feature", "properties": { "name": "Castle Rock Bar & Grill", "type": "restaurant", "reach": "outside" }, "geometry": { "type": "Point", "coordinates": [ -114.139374959912686, 35.233993809638122 ] } },
{ "type": "Feature", "properties": { "name": "Country Pride Restaurant", "type": "restaurant", "reach": "outside" }, "geometry": { "type": "Point", "coordinates": [ -114.070025469136297, 35.190078508860658 ] } },
{ "type": "Feature", "properties": { "name": null, "type": "restaurant", "reach": "outside" }, "geometry": { "type": "Point", "coordinates": [ -114.061584808895176, 35.190593508828726 ] } },
{ "type": "Feature", "properties": { "name": "Mr. D'z", "type": "restaurant", "reach": "outside" }, "geometry": { "type": "Point", "coordinates": [ -114.057371620381119, 35.18925567676348 ] } },
{ "type": "Feature", "properties": { "name": "Mattina's", "type": "restaurant", "reach": "outside" }, "geometry": { "type": "Point", "coordinates": [ -114.053542461651034, 35.19048661815583 ] } },
{ "type": "Feature", "properties": { "name": "Ma's and Pa's Hot Rod Cafe", "type": "restaurant", "reach": "outside" }, "geometry": { "type": "Point", "coordinates": [ -114.026238527916348, 35.193084256614448 ] } },
{ "type": "Feature", "properties": { "name": "Mexican Restaurant", "type": "restaurant", "reach": "outside" }, "geometry": { "type": "Point", "coordinates": [ -114.015769920921315, 35.211800008993571 ] } },
{ "type": "Feature", "properties": { "name": "ABC Chinese Restaurant", "type": "restaurant", "reach": "outside" }, "geometry": { "type": "Point", "coordinates": [ -114.015789863520638, 35.212000009329749 ] } },
{ "type": "Feature", "properties": { "name": "JBs", "type": "restaurant", "reach": "outside" }, "geometry": { "type": "Point", "coordinates": [ -114.014659872724749, 35.21284000536145 ] } },
{ "type": "Feature", "properties": { "name": "Sonic", "type": "restaurant", "reach": "outside" }, "geometry": { "type": "Point", "coordinates": [ -114.014299917790396, 35.21320998250787 ] } },
{ "type": "Feature", "properties": { "name": "Arby's", "type": "restaurant", "reach": "outside" }, "geometry": { "type": "Point", "coordinates": [ -114.009280760803435, 35.219459559845944 ] } },
{ "type": "Feature", "properties": { "name": "Pizza Hut", "type": "restaurant", "reach": "outside" }, "geometry": { "type": "Point", "coordinates": [ -114.008559862787934, 35.220049962421569 ] } },
{ "type": "Feature", "properties": { "name": "Cracker Barrel", "type": "restaurant", "reach": "outside" }, "geometry": { "type": "Point", "coordinates": [ -114.035457129193503, 35.225573852913286 ] } },
{ "type": "Feature", "properties": { "name": "Iron Skillet", "type": "restaurant", "reach": "outside" }, "geometry": { "type": "Point", "coordinates": [ -113.788643387914149, 35.177872164370847 ] } },
{ "type": "Feature", "properties": { "name": "Diamond Creek Restaurant", "type": "restaurant", "reach": "outside" }, "geometry": { "type": "Point", "coordinates": [ -113.424965475703956, 35.528883368126898 ] } },
{ "type": "Feature", "properties": { "name": null, "type": "restaurant", "reach": "outside" }, "geometry": { "type": "Point", "coordinates": [ -113.219021666253965, 35.517642462762296 ] } },
{ "type": "Feature", "properties": { "name": "Westside LILO'S Cafe", "type": "restaurant", "reach": "outside" }, "geometry": { "type": "Point", "coordinates": [ -112.88336571118505, 35.328101253345345 ] } },
{ "type": "Feature", "properties": { "name": "Roadkill Cafe", "type": "restaurant", "reach": "outside" }, "geometry": { "type": "Point", "coordinates": [ -112.883149127370061, 35.328557698555912 ] } },
{ "type": "Feature", "properties": { "name": null, "type": "restaurant", "reach": "outside" }, "geometry": { "type": "Point", "coordinates": [ -113.827142575877204, 36.030455561907274 ] } },
{ "type": "Feature", "properties": { "name": null, "type": "restaurant", "reach": "outside" }, "geometry": { "type": "Point", "coordinates": [ -113.811317135179905, 36.01157840722351 ] } },
{ "type": "Feature", "properties": { "name": "Ihop", "type": "restaurant", "reach": "outside" }, "geometry": { "type": "Point", "coordinates": [ -111.667831764382498, 35.175658799945921 ] } },
{ "type": "Feature", "properties": { "name": "Buffalo Wild Wings", "type": "restaurant", "reach": "outside" }, "geometry": { "type": "Point", "coordinates": [ -111.665769142658633, 35.176525752247677 ] } },
{ "type": "Feature", "properties": { "name": "Woody's Sandwich Shoppe", "type": "restaurant", "reach": "outside" }, "geometry": { "type": "Point", "coordinates": [ -111.690126063272245, 35.188654184752515 ] } },
{ "type": "Feature", "properties": { "name": null, "type": "restaurant", "reach": "outside" }, "geometry": { "type": "Point", "coordinates": [ -111.662745143917704, 35.179351672071547 ] } },
{ "type": "Feature", "properties": { "name": "Busters Restaurant and Bar", "type": "restaurant", "reach": "outside" }, "geometry": { "type": "Point", "coordinates": [ -111.659757526945768, 35.182952894193029 ] } },
{ "type": "Feature", "properties": { "name": "Plaza Bonita", "type": "restaurant", "reach": "outside" }, "geometry": { "type": "Point", "coordinates": [ -111.661892463050009, 35.185320386130805 ] } },
{ "type": "Feature", "properties": { "name": "Hiro's Sushi Bar", "type": "restaurant", "reach": "outside" }, "geometry": { "type": "Point", "coordinates": [ -111.663480414977741, 35.187363454351775 ] } },
{ "type": "Feature", "properties": { "name": "Picazzo's Organic Italian Kitchen", "type": "restaurant", "reach": "outside" }, "geometry": { "type": "Point", "coordinates": [ -111.660830384889593, 35.188003572855706 ] } },
{ "type": "Feature", "properties": { "name": "The Garden Toss", "type": "restaurant", "reach": "outside" }, "geometry": { "type": "Point", "coordinates": [ -111.655566616650773, 35.188999898207612 ] } },
{ "type": "Feature", "properties": { "name": "Hot Spot at the Union", "type": "restaurant", "reach": "outside" }, "geometry": { "type": "Point", "coordinates": [ -111.65525202663828, 35.188711962830915 ] } },
{ "type": "Feature", "properties": { "name": "Oregano's Pizza Bistro", "type": "restaurant", "reach": "outside" }, "geometry": { "type": "Point", "coordinates": [ -111.660562147945768, 35.18981862167886 ] } },
{ "type": "Feature", "properties": { "name": "Himalayan Grill", "type": "restaurant", "reach": "outside" }, "geometry": { "type": "Point", "coordinates": [ -111.659578941867295, 35.19255400271804 ] } },
{ "type": "Feature", "properties": { "name": "Jamba Juice", "type": "restaurant", "reach": "outside" }, "geometry": { "type": "Point", "coordinates": [ -111.655118626818577, 35.189491705916311 ] } },
{ "type": "Feature", "properties": { "name": "Sub Connection", "type": "restaurant", "reach": "outside" }, "geometry": { "type": "Point", "coordinates": [ -111.655258764002909, 35.189575619070432 ] } },
{ "type": "Feature", "properties": { "name": "Cobrizo Mexican Grill", "type": "restaurant", "reach": "outside" }, "geometry": { "type": "Point", "coordinates": [ -111.655180161415558, 35.189687282897069 ] } },
{ "type": "Feature", "properties": { "name": "Pizzicletta", "type": "restaurant", "reach": "outside" }, "geometry": { "type": "Point", "coordinates": [ -111.652137926874346, 35.197036495531812 ] } },
{ "type": "Feature", "properties": { "name": "LA SANTISIMA", "type": "restaurant", "reach": "outside" }, "geometry": { "type": "Point", "coordinates": [ -111.649420792634459, 35.194751123867221 ] } },
{ "type": "Feature", "properties": { "name": "La Bellavia", "type": "restaurant", "reach": "outside" }, "geometry": { "type": "Point", "coordinates": [ -111.650836986679877, 35.196215422305393 ] } },
{ "type": "Feature", "properties": { "name": "Beaver Street Brewery", "type": "restaurant", "reach": "outside" }, "geometry": { "type": "Point", "coordinates": [ -111.651037310988229, 35.19647616992799 ] } },
{ "type": "Feature", "properties": { "name": "Biff's Bagels", "type": "restaurant", "reach": "outside" }, "geometry": { "type": "Point", "coordinates": [ -111.650945772660791, 35.196746973653426 ] } },
{ "type": "Feature", "properties": { "name": "Altitudes Bar and Grill", "type": "restaurant", "reach": "outside" }, "geometry": { "type": "Point", "coordinates": [ -111.650452417906749, 35.197007058897078 ] } },
{ "type": "Feature", "properties": { "name": "The Macmillan", "type": "restaurant", "reach": "outside" }, "geometry": { "type": "Point", "coordinates": [ -111.649213281803839, 35.197748770750714 ] } },
{ "type": "Feature", "properties": { "name": "Dara Thai", "type": "restaurant", "reach": "outside" }, "geometry": { "type": "Point", "coordinates": [ -111.6484577986499, 35.19611081470466 ] } },
{ "type": "Feature", "properties": { "name": "MartAnne's Breakfast Palace", "type": "restaurant", "reach": "outside" }, "geometry": { "type": "Point", "coordinates": [ -111.647610867000012, 35.197172814172518 ] } },
{ "type": "Feature", "properties": { "name": "Kachina Downtown Restaurant", "type": "restaurant", "reach": "outside" }, "geometry": { "type": "Point", "coordinates": [ -111.643098000507194, 35.19589741478147 ] } },
{ "type": "Feature", "properties": { "name": "Flagstaff Coffee Company", "type": "restaurant", "reach": "outside" }, "geometry": { "type": "Point", "coordinates": [ -111.648429861044548, 35.197634695555976 ] } },
{ "type": "Feature", "properties": { "name": "The Pita Pit", "type": "restaurant", "reach": "outside" }, "geometry": { "type": "Point", "coordinates": [ -111.647794392812571, 35.198068165762251 ] } },
{ "type": "Feature", "properties": { "name": "Pato Thai Cuisine", "type": "restaurant", "reach": "outside" }, "geometry": { "type": "Point", "coordinates": [ -111.647399583245203, 35.198429621621976 ] } },
{ "type": "Feature", "properties": { "name": "Swaddee Thai", "type": "restaurant", "reach": "outside" }, "geometry": { "type": "Point", "coordinates": [ -111.646988514171198, 35.197815718280737 ] } },
{ "type": "Feature", "properties": { "name": "Diabolo Burger", "type": "restaurant", "reach": "outside" }, "geometry": { "type": "Point", "coordinates": [ -111.648049963510914, 35.198864922746189 ] } },
{ "type": "Feature", "properties": { "name": "Pita Jungle", "type": "restaurant", "reach": "outside" }, "geometry": { "type": "Point", "coordinates": [ -111.641798048459535, 35.191578203172469 ] } },
{ "type": "Feature", "properties": { "name": "Northern Pines", "type": "restaurant", "reach": "outside" }, "geometry": { "type": "Point", "coordinates": [ -111.624286919131606, 35.192548496810055 ] } },
{ "type": "Feature", "properties": { "name": "China Star", "type": "restaurant", "reach": "outside" }, "geometry": { "type": "Point", "coordinates": [ -111.624938826533295, 35.196531299737636 ] } },
{ "type": "Feature", "properties": { "name": "China Gate", "type": "restaurant", "reach": "outside" }, "geometry": { "type": "Point", "coordinates": [ -111.624502335136739, 35.196459065731787 ] } },
{ "type": "Feature", "properties": { "name": "Black Bart'sSteakhouse", "type": "restaurant", "reach": "outside" }, "geometry": { "type": "Point", "coordinates": [ -111.616900342044886, 35.194173163947717 ] } },
{ "type": "Feature", "properties": { "name": "Salsa Brava", "type": "restaurant", "reach": "outside" }, "geometry": { "type": "Point", "coordinates": [ -111.615359282174992, 35.204174087388459 ] } },
{ "type": "Feature", "properties": { "name": "Mason Jar", "type": "restaurant", "reach": "outside" }, "geometry": { "type": "Point", "coordinates": [ -111.612614030666705, 35.206601001710695 ] } },
{ "type": "Feature", "properties": { "name": "Satchmo's", "type": "restaurant", "reach": "outside" }, "geometry": { "type": "Point", "coordinates": [ -111.612651310750991, 35.211395162768305 ] } },
{ "type": "Feature", "properties": { "name": "Sizzler", "type": "restaurant", "reach": "outside" }, "geometry": { "type": "Point", "coordinates": [ -111.595956660184811, 35.215822086210395 ] } },
{ "type": "Feature", "properties": { "name": "Village Inn", "type": "restaurant", "reach": "outside" }, "geometry": { "type": "Point", "coordinates": [ -111.594250759460266, 35.217377888655868 ] } },
{ "type": "Feature", "properties": { "name": "2-bar-3 dinner", "type": "restaurant", "reach": "outside" }, "geometry": { "type": "Point", "coordinates": [ -111.433856206154616, 35.222535477140092 ] } },
{ "type": "Feature", "properties": { "name": "Hermit's Rest Restaurant", "type": "restaurant", "reach": "outside" }, "geometry": { "type": "Point", "coordinates": [ -112.211129344788361, 36.06209082036905 ] } },
{ "type": "Feature", "properties": { "name": "We Cook Pizza & Pasta", "type": "restaurant", "reach": "outside" }, "geometry": { "type": "Point", "coordinates": [ -112.124477223661515, 35.976014093343373 ] } },
{ "type": "Feature", "properties": { "name": "Maswik Cafeteria", "type": "restaurant", "reach": "outside" }, "geometry": { "type": "Point", "coordinates": [ -112.144270343305692, 36.053240152804797 ] } },
{ "type": "Feature", "properties": { "name": "Bright Angel Restaurant", "type": "restaurant", "reach": "outside" }, "geometry": { "type": "Point", "coordinates": [ -112.140707175731222, 36.056948065540958 ] } },
{ "type": "Feature", "properties": { "name": "Yavapai Cafeteria", "type": "restaurant", "reach": "outside" }, "geometry": { "type": "Point", "coordinates": [ -112.119739508853058, 36.054260761299361 ] } },
{ "type": "Feature", "properties": { "name": "Grand Canyon Lodge Dining Room", "type": "restaurant", "reach": "outside" }, "geometry": { "type": "Point", "coordinates": [ -112.053135808574112, 36.197192210040285 ] } },
{ "type": "Feature", "properties": { "name": "Cameron Trading Post", "type": "restaurant", "reach": "outside" }, "geometry": { "type": "Point", "coordinates": [ -111.413785866413761, 35.875440392501623 ] } },
{ "type": "Feature", "properties": { "name": "China Star Restaurant", "type": "restaurant", "reach": "outside" }, "geometry": { "type": "Point", "coordinates": [ -111.223621863244603, 36.122854964559785 ] } },
{ "type": "Feature", "properties": { "name": "West Side Deli", "type": "restaurant", "reach": "outside" }, "geometry": { "type": "Point", "coordinates": [ -111.800238137201532, 34.864817917583764 ] } },
{ "type": "Feature", "properties": { "name": "Coffee Pot Restaurant", "type": "restaurant", "reach": "outside" }, "geometry": { "type": "Point", "coordinates": [ -111.796738300854614, 34.864340368269119 ] } },
{ "type": "Feature", "properties": { "name": "Cruiser's Route 66 Cafe", "type": "restaurant", "reach": "outside" }, "geometry": { "type": "Point", "coordinates": [ -112.189216740062847, 35.250028178692808 ] } },
{ "type": "Feature", "properties": { "name": "Pine Country Restaurant", "type": "restaurant", "reach": "outside" }, "geometry": { "type": "Point", "coordinates": [ -112.188781506307691, 35.250747985127866 ] } },
{ "type": "Feature", "properties": { "name": "Pancho McGillicuddy's", "type": "restaurant", "reach": "outside" }, "geometry": { "type": "Point", "coordinates": [ -112.188347530193951, 35.25092918284647 ] } },
{ "type": "Feature", "properties": { "name": "Red Raven Restaurant", "type": "restaurant", "reach": "outside" }, "geometry": { "type": "Point", "coordinates": [ -112.188021531577334, 35.250376565218559 ] } },
{ "type": "Feature", "properties": { "name": "Old Smokeys Restaurant", "type": "restaurant", "reach": "outside" }, "geometry": { "type": "Point", "coordinates": [ -112.187979220927446, 35.250560698153436 ] } },
{ "type": "Feature", "properties": { "name": "Station 66 Italian Bistro", "type": "restaurant", "reach": "outside" }, "geometry": { "type": "Point", "coordinates": [ -112.188254644393567, 35.250727077672749 ] } },
{ "type": "Feature", "properties": { "name": "Rod's Steak House", "type": "restaurant", "reach": "outside" }, "geometry": { "type": "Point", "coordinates": [ -112.184920367553488, 35.251813597963057 ] } },
{ "type": "Feature", "properties": { "name": "Twister's 50's Soda Fountain", "type": "restaurant", "reach": "outside" }, "geometry": { "type": "Point", "coordinates": [ -112.183794598839441, 35.252229319618259 ] } },
{ "type": "Feature", "properties": { "name": "Goldies Route 66 Diner", "type": "restaurant", "reach": "outside" }, "geometry": { "type": "Point", "coordinates": [ -112.183509743062842, 35.252305098543268 ] } },
{ "type": "Feature", "properties": { "name": "The Haunted Hamburger", "type": "restaurant", "reach": "outside" }, "geometry": { "type": "Point", "coordinates": [ -112.116019225935403, 34.750172574301885 ] } },
{ "type": "Feature", "properties": { "name": "Grapes", "type": "restaurant", "reach": "outside" }, "geometry": { "type": "Point", "coordinates": [ -112.117050222386993, 34.751452497455837 ] } },
{ "type": "Feature", "properties": { "name": "House of Joy", "type": "restaurant", "reach": "outside" }, "geometry": { "type": "Point", "coordinates": [ -112.114452833574504, 34.749980890428716 ] } },
{ "type": "Feature", "properties": { "name": "Vinnie's Pizzeria", "type": "restaurant", "reach": "outside" }, "geometry": { "type": "Point", "coordinates": [ -112.023645195774819, 34.730398522787191 ] } },
{ "type": "Feature", "properties": { "name": "Juanita's Taqueria", "type": "restaurant", "reach": "outside" }, "geometry": { "type": "Point", "coordinates": [ -112.022399771464904, 34.729195497962941 ] } },
{ "type": "Feature", "properties": { "name": "The Tavern Grille", "type": "restaurant", "reach": "outside" }, "geometry": { "type": "Point", "coordinates": [ -112.027473725684203, 34.747282802297718 ] } },
{ "type": "Feature", "properties": { "name": "Nik's", "type": "restaurant", "reach": "outside" }, "geometry": { "type": "Point", "coordinates": [ -112.027123921712572, 34.747582110341803 ] } },
{ "type": "Feature", "properties": { "name": "Ancient Pillars", "type": "restaurant", "reach": "outside" }, "geometry": { "type": "Point", "coordinates": [ -112.027139821893087, 34.747918101704855 ] } },
{ "type": "Feature", "properties": { "name": "Bocce", "type": "restaurant", "reach": "outside" }, "geometry": { "type": "Point", "coordinates": [ -112.027583140485802, 34.749560763879948 ] } },
{ "type": "Feature", "properties": { "name": "Stromboli's", "type": "restaurant", "reach": "outside" }, "geometry": { "type": "Point", "coordinates": [ -112.00952179304636, 34.733036995019582 ] } },
{ "type": "Feature", "properties": { "name": "Mimi's Cafe", "type": "restaurant", "reach": null }, "geometry": { "type": "Point", "coordinates": [ -111.976885280122062, 33.677955676026144 ] } },
{ "type": "Feature", "properties": { "name": "Macaroni Grill", "type": "restaurant", "reach": null }, "geometry": { "type": "Point", "coordinates": [ -111.974699768867339, 33.675941755932904 ] } },
{ "type": "Feature", "properties": { "name": "Peaks & Valleys", "type": "restaurant", "reach": "outside" }, "geometry": { "type": "Point", "coordinates": [ -112.063640617675091, 33.798384189142197 ] } },
{ "type": "Feature", "properties": { "name": "Denny's", "type": "restaurant", "reach": "outside" }, "geometry": { "type": "Point", "coordinates": [ -111.881541060306049, 34.57600410337691 ] } },
{ "type": "Feature", "properties": { "name": "Valley View", "type": "restaurant", "reach": "outside" }, "geometry": { "type": "Point", "coordinates": [ -111.855581814720153, 34.56582649435633 ] } },
{ "type": "Feature", "properties": { "name": "Manzanita Restaurant", "type": "restaurant", "reach": "outside" }, "geometry": { "type": "Point", "coordinates": [ -111.90169602134668, 34.717227788351963 ] } },
{ "type": "Feature", "properties": { "name": "America's Taco Shop", "type": "restaurant", "reach": null }, "geometry": { "type": "Point", "coordinates": [ -111.88166278202705, 33.55285840250194 ] } },
{ "type": "Feature", "properties": { "name": "Goldie's Neighborhood Sports Cafe", "type": "restaurant", "reach": null }, "geometry": { "type": "Point", "coordinates": [ -111.861919878207274, 33.574045083833774 ] } },
{ "type": "Feature", "properties": { "name": "Flower Child Healthy Food", "type": "restaurant", "reach": null }, "geometry": { "type": "Point", "coordinates": [ -111.886842018797637, 33.581106654674706 ] } },
{ "type": "Feature", "properties": { "name": "Chipotle Mexican Grill", "type": "restaurant", "reach": null }, "geometry": { "type": "Point", "coordinates": [ -111.881931468128542, 33.580859985055234 ] } },
{ "type": "Feature", "properties": { "name": "Chompies", "type": "restaurant", "reach": null }, "geometry": { "type": "Point", "coordinates": [ -111.880566567885836, 33.580877871619919 ] } },
{ "type": "Feature", "properties": { "name": "Ling & Louis's Asian Bar and Grill", "type": "restaurant", "reach": null }, "geometry": { "type": "Point", "coordinates": [ -111.878527931180074, 33.581565416381991 ] } },
{ "type": "Feature", "properties": { "name": "Rosati's Pizza", "type": "restaurant", "reach": "outside" }, "geometry": { "type": "Point", "coordinates": [ -111.830375986163048, 33.584782966252384 ] } },
{ "type": "Feature", "properties": { "name": "Sweet Tomatoes", "type": "restaurant", "reach": null }, "geometry": { "type": "Point", "coordinates": [ -111.887951887331184, 33.538047792427541 ] } },
{ "type": "Feature", "properties": { "name": "5&Diner", "type": "restaurant", "reach": null }, "geometry": { "type": "Point", "coordinates": [ -111.885071169878074, 33.538067784396382 ] } },
{ "type": "Feature", "properties": { "name": "Denny's", "type": "restaurant", "reach": null }, "geometry": { "type": "Point", "coordinates": [ -111.884893213620273, 33.538790861599658 ] } },
{ "type": "Feature", "properties": { "name": "Streets of New York", "type": "restaurant", "reach": "outside" }, "geometry": { "type": "Point", "coordinates": [ -111.715681605969465, 33.572726153407466 ] } },
{ "type": "Feature", "properties": { "name": "Ping's Cafe", "type": "restaurant", "reach": "outside" }, "geometry": { "type": "Point", "coordinates": [ -111.712827029491109, 33.571208183398227 ] } },
{ "type": "Feature", "properties": { "name": "Denny's", "type": "restaurant", "reach": "outside" }, "geometry": { "type": "Point", "coordinates": [ -111.714403572814746, 33.572646966045561 ] } },
{ "type": "Feature", "properties": { "name": null, "type": "restaurant", "reach": "outside" }, "geometry": { "type": "Point", "coordinates": [ -111.729591119828768, 33.608601555337884 ] } },
{ "type": "Feature", "properties": { "name": "Pisa Pizza", "type": "restaurant", "reach": "outside" }, "geometry": { "type": "Point", "coordinates": [ -111.720826527096193, 33.609414492644667 ] } },
{ "type": "Feature", "properties": { "name": null, "type": "restaurant", "reach": "outside" }, "geometry": { "type": "Point", "coordinates": [ -111.682484364644822, 33.582028815617591 ] } },
{ "type": "Feature", "properties": { "name": null, "type": "restaurant", "reach": "outside" }, "geometry": { "type": "Point", "coordinates": [ -111.681174441297529, 33.581670265167169 ] } },
{ "type": "Feature", "properties": { "name": "87 Cafe", "type": "restaurant", "reach": "outside" }, "geometry": { "type": "Point", "coordinates": [ -111.681196090695877, 33.582081875868703 ] } },
{ "type": "Feature", "properties": { "name": "Streets of New York", "type": "restaurant", "reach": "outside" }, "geometry": { "type": "Point", "coordinates": [ -111.680976362777372, 33.582076188170568 ] } },
{ "type": "Feature", "properties": { "name": "The Silver Platter", "type": "restaurant", "reach": "outside" }, "geometry": { "type": "Point", "coordinates": [ -111.680988220539135, 33.58225115955473 ] } },
{ "type": "Feature", "properties": { "name": "Red Rock Buffet", "type": "restaurant", "reach": "outside" }, "geometry": { "type": "Point", "coordinates": [ -111.680819247434187, 33.5821707835224 ] } },
{ "type": "Feature", "properties": { "name": "Lakeside Restaurant", "type": "restaurant", "reach": "outside" }, "geometry": { "type": "Point", "coordinates": [ -111.423076782071291, 33.53586369814424 ] } },
{ "type": "Feature", "properties": { "name": "Pandra Express", "type": "restaurant", "reach": "outside" }, "geometry": { "type": "Point", "coordinates": [ -114.565702098689599, 35.167601509420713 ] } },
{ "type": "Feature", "properties": { "name": "Chili's Grill & Bar", "type": "restaurant", "reach": "outside" }, "geometry": { "type": "Point", "coordinates": [ -114.565530430638802, 35.168513709451695 ] } },
{ "type": "Feature", "properties": { "name": null, "type": "restaurant", "reach": "outside" }, "geometry": { "type": "Point", "coordinates": [ -114.486238296466254, 35.72302899383385 ] } },
{ "type": "Feature", "properties": { "name": null, "type": "restaurant", "reach": "outside" }, "geometry": { "type": "Point", "coordinates": [ -114.660485500273722, 35.869922656890033 ] } },
{ "type": "Feature", "properties": { "name": "Roundhouse Cafe", "type": "restaurant", "reach": "outside" }, "geometry": { "type": "Point", "coordinates": [ -111.864370931459987, 33.486366887804493 ] } },
{ "type": "Feature", "properties": { "name": "Victorian Cake Company", "type": "restaurant", "reach": null }, "geometry": { "type": "Point", "coordinates": [ -112.066606495417133, 33.638436103376179 ] } },
{ "type": "Feature", "properties": { "name": "Einstein Bros Bagels", "type": "restaurant", "reach": null }, "geometry": { "type": "Point", "coordinates": [ -112.066049899267085, 33.638965759021957 ] } },
{ "type": "Feature", "properties": { "name": "Subway", "type": "restaurant", "reach": null }, "geometry": { "type": "Point", "coordinates": [ -112.0648405872316, 33.639122366548463 ] } },
{ "type": "Feature", "properties": { "name": "The Codfather", "type": "restaurant", "reach": null }, "geometry": { "type": "Point", "coordinates": [ -112.047186446110445, 33.640682517953998 ] } },
{ "type": "Feature", "properties": { "name": "Cowboy Lookout Grill", "type": "restaurant", "reach": null }, "geometry": { "type": "Point", "coordinates": [ -112.047866380949003, 33.641759373142897 ] } },
{ "type": "Feature", "properties": { "name": "Denny's", "type": "restaurant", "reach": "outside" }, "geometry": { "type": "Point", "coordinates": [ -112.300169906592672, 33.605247602895318 ] } },
{ "type": "Feature", "properties": { "name": "Coco's", "type": "restaurant", "reach": "outside" }, "geometry": { "type": "Point", "coordinates": [ -112.280414875516527, 33.599483653304532 ] } },
{ "type": "Feature", "properties": { "name": "Dillions", "type": "restaurant", "reach": null }, "geometry": { "type": "Point", "coordinates": [ -112.246466013793665, 33.610264305438115 ] } },
{ "type": "Feature", "properties": { "name": "Kabuki Sushi & Grill", "type": "restaurant", "reach": "outside" }, "geometry": { "type": "Point", "coordinates": [ -112.239122016851411, 33.611393760183816 ] } },
{ "type": "Feature", "properties": { "name": "Heidi's Brooklyn Deli", "type": "restaurant", "reach": "outside" }, "geometry": { "type": "Point", "coordinates": [ -112.238733585322564, 33.611440667734556 ] } },
{ "type": "Feature", "properties": { "name": "Prime Pizza", "type": "restaurant", "reach": null }, "geometry": { "type": "Point", "coordinates": [ -112.236975492480013, 33.627172857871045 ] } },
{ "type": "Feature", "properties": { "name": "3rd Place Neighborhood Grill", "type": "restaurant", "reach": null }, "geometry": { "type": "Point", "coordinates": [ -112.238076737186816, 33.628235371163036 ] } },
{ "type": "Feature", "properties": { "name": "Koi Sushi Bar Grill", "type": "restaurant", "reach": null }, "geometry": { "type": "Point", "coordinates": [ -112.238118688510582, 33.630541215540411 ] } },
{ "type": "Feature", "properties": { "name": "Buca Di Beppo", "type": "restaurant", "reach": null }, "geometry": { "type": "Point", "coordinates": [ -112.236764927377394, 33.632438397184359 ] } },
{ "type": "Feature", "properties": { "name": "Streets Of New York", "type": "restaurant", "reach": "outside" }, "geometry": { "type": "Point", "coordinates": [ -112.185048107986887, 33.609454667978142 ] } },
{ "type": "Feature", "properties": { "name": "Wing Stop", "type": "restaurant", "reach": "outside" }, "geometry": { "type": "Point", "coordinates": [ -112.18472040257123, 33.609454667978142 ] } },
{ "type": "Feature", "properties": { "name": "Smash burger", "type": "restaurant", "reach": "outside" }, "geometry": { "type": "Point", "coordinates": [ -112.184947406843548, 33.612598311065625 ] } },
{ "type": "Feature", "properties": { "name": "Cafe China", "type": "restaurant", "reach": "outside" }, "geometry": { "type": "Point", "coordinates": [ -112.183561845349317, 33.611642287618132 ] } },
{ "type": "Feature", "properties": { "name": "Anna's Fresh Mexican Restaurant", "type": "restaurant", "reach": "outside" }, "geometry": { "type": "Point", "coordinates": [ -112.183556814783714, 33.611809792609883 ] } },
{ "type": "Feature", "properties": { "name": "Barro's Pizza", "type": "restaurant", "reach": "outside" }, "geometry": { "type": "Point", "coordinates": [ -112.185408961236519, 33.612954563432979 ] } },
{ "type": "Feature", "properties": { "name": "Pita Kabob Grill", "type": "restaurant", "reach": "outside" }, "geometry": { "type": "Point", "coordinates": [ -112.185396205159492, 33.613105382975199 ] } },
{ "type": "Feature", "properties": { "name": "Cheesecake Factory", "type": "restaurant", "reach": null }, "geometry": { "type": "Point", "coordinates": [ -112.236128560830124, 33.633289777988146 ] } },
{ "type": "Feature", "properties": { "name": "Famous Dave's Legendary Pit Bar-B-Que", "type": "restaurant", "reach": null }, "geometry": { "type": "Point", "coordinates": [ -112.235755041334997, 33.633670851005796 ] } },
{ "type": "Feature", "properties": { "name": "Elephant Bar Restaurant", "type": "restaurant", "reach": null }, "geometry": { "type": "Point", "coordinates": [ -112.235339301021511, 33.634079072203058 ] } },
{ "type": "Feature", "properties": { "name": "PF Chang's", "type": "restaurant", "reach": null }, "geometry": { "type": "Point", "coordinates": [ -112.234973596869338, 33.63453882358727 ] } },
{ "type": "Feature", "properties": { "name": "Red Robin", "type": "restaurant", "reach": null }, "geometry": { "type": "Point", "coordinates": [ -112.233554438383493, 33.634641962530978 ] } },
{ "type": "Feature", "properties": { "name": "Satara Thai Cuisine", "type": "restaurant", "reach": null }, "geometry": { "type": "Point", "coordinates": [ -112.234871009263884, 33.635475895066207 ] } },
{ "type": "Feature", "properties": { "name": "Corner Bakery Cafe", "type": "restaurant", "reach": null }, "geometry": { "type": "Point", "coordinates": [ -112.234541866543807, 33.635331471991826 ] } },
{ "type": "Feature", "properties": { "name": "The Moon", "type": "restaurant", "reach": null }, "geometry": { "type": "Point", "coordinates": [ -112.234438021296953, 33.635949251026489 ] } },
{ "type": "Feature", "properties": { "name": "Skye", "type": "restaurant", "reach": null }, "geometry": { "type": "Point", "coordinates": [ -112.235505758843658, 33.636889298781576 ] } },
{ "type": "Feature", "properties": { "name": "Chipotle Mexican Grill", "type": "restaurant", "reach": null }, "geometry": { "type": "Point", "coordinates": [ -112.234120466844033, 33.636411984066399 ] } },
{ "type": "Feature", "properties": { "name": "Tilted Kilt Pub & Eatery", "type": "restaurant", "reach": null }, "geometry": { "type": "Point", "coordinates": [ -112.234008446928087, 33.636882492839803 ] } },
{ "type": "Feature", "properties": { "name": "IHOP", "type": "restaurant", "reach": null }, "geometry": { "type": "Point", "coordinates": [ -112.236240760409117, 33.637612819677919 ] } },
{ "type": "Feature", "properties": { "name": "Cucina Tagliani", "type": "restaurant", "reach": null }, "geometry": { "type": "Point", "coordinates": [ -112.235736536040136, 33.637594870091007 ] } },
{ "type": "Feature", "properties": { "name": "Denny's", "type": "restaurant", "reach": null }, "geometry": { "type": "Point", "coordinates": [ -112.23156260390401, 33.637757912034751 ] } },
{ "type": "Feature", "properties": { "name": "Pacific Seafood Buffet", "type": "restaurant", "reach": null }, "geometry": { "type": "Point", "coordinates": [ -112.231807843976569, 33.63870235259715 ] } },
{ "type": "Feature", "properties": { "name": "Applebee's Neighborhood Grill", "type": "restaurant", "reach": null }, "geometry": { "type": "Point", "coordinates": [ -112.230811791989552, 33.637762922951985 ] } },
{ "type": "Feature", "properties": { "name": "Olive Garden", "type": "restaurant", "reach": null }, "geometry": { "type": "Point", "coordinates": [ -112.227926313465431, 33.637663153291264 ] } },
{ "type": "Feature", "properties": { "name": "On the border", "type": "restaurant", "reach": null }, "geometry": { "type": "Point", "coordinates": [ -112.226827494209886, 33.637554857456735 ] } },
{ "type": "Feature", "properties": { "name": "Panera Bread", "type": "restaurant", "reach": null }, "geometry": { "type": "Point", "coordinates": [ -112.227823276702352, 33.639533478647493 ] } },
{ "type": "Feature", "properties": { "name": "Caramba", "type": "restaurant", "reach": null }, "geometry": { "type": "Point", "coordinates": [ -112.235603226051978, 33.652378078828086 ] } },
{ "type": "Feature", "properties": { "name": "Macayo's", "type": "restaurant", "reach": null }, "geometry": { "type": "Point", "coordinates": [ -112.188988208654564, 33.639235072934994 ] } },
{ "type": "Feature", "properties": { "name": "The Place", "type": "restaurant", "reach": null }, "geometry": { "type": "Point", "coordinates": [ -112.170989294127367, 33.63867767222645 ] } },
{ "type": "Feature", "properties": { "name": "Pizza Hut", "type": "restaurant", "reach": "outside" }, "geometry": { "type": "Point", "coordinates": [ -112.27774364518767, 33.678327356493824 ] } },
{ "type": "Feature", "properties": { "name": "Sardella's Pizza and Wings", "type": "restaurant", "reach": null }, "geometry": { "type": "Point", "coordinates": [ -112.23825379512931, 33.670421922829696 ] } },
{ "type": "Feature", "properties": { "name": "Denny's", "type": "restaurant", "reach": null }, "geometry": { "type": "Point", "coordinates": [ -112.036948616311932, 33.59704610881024 ] } },
{ "type": "Feature", "properties": { "name": "Carolina's", "type": "restaurant", "reach": null }, "geometry": { "type": "Point", "coordinates": [ -112.036216489355368, 33.597143680751834 ] } },
{ "type": "Feature", "properties": { "name": "CC's Mesquite Broiler", "type": "restaurant", "reach": null }, "geometry": { "type": "Point", "coordinates": [ -112.037120014868137, 33.597984261449859 ] } },
{ "type": "Feature", "properties": { "name": "Classic Crust Pizza", "type": "restaurant", "reach": null }, "geometry": { "type": "Point", "coordinates": [ -112.035187289534349, 33.597430110629844 ] } },
{ "type": "Feature", "properties": { "name": "Dairy Queen", "type": "restaurant", "reach": null }, "geometry": { "type": "Point", "coordinates": [ -112.036577342605, 33.602250864072751 ] } },
{ "type": "Feature", "properties": { "name": "Bogey's Bar and Grill", "type": "restaurant", "reach": "outside" }, "geometry": { "type": "Point", "coordinates": [ -114.352664742598563, 34.457786488893859 ] } },
{ "type": "Feature", "properties": { "name": "Turtle Grille", "type": "restaurant", "reach": "outside" }, "geometry": { "type": "Point", "coordinates": [ -114.348714490968177, 34.459090925165526 ] } },
{ "type": "Feature", "properties": { "name": "Barley Brothers Brewery", "type": "restaurant", "reach": "outside" }, "geometry": { "type": "Point", "coordinates": [ -114.348993058537772, 34.471058404387179 ] } },
{ "type": "Feature", "properties": { "name": "Shugrue's", "type": "restaurant", "reach": "outside" }, "geometry": { "type": "Point", "coordinates": [ -114.34903069794818, 34.471352489009327 ] } },
{ "type": "Feature", "properties": { "name": "Golden Corral", "type": "restaurant", "reach": "outside" }, "geometry": { "type": "Point", "coordinates": [ -114.350532681103232, 34.482289760535345 ] } },
{ "type": "Feature", "properties": { "name": "Azul Agave Mexican Restraunt", "type": "restaurant", "reach": "outside" }, "geometry": { "type": "Point", "coordinates": [ -114.35049854512242, 34.482885624586892 ] } },
{ "type": "Feature", "properties": { "name": "Sho-Gun Teppan Grill & Sushi Bar", "type": "restaurant", "reach": "outside" }, "geometry": { "type": "Point", "coordinates": [ -114.343663892946267, 34.471123057176911 ] } },
{ "type": "Feature", "properties": { "name": "Chili's", "type": "restaurant", "reach": "outside" }, "geometry": { "type": "Point", "coordinates": [ -114.342902031753809, 34.470396987918853 ] } },
{ "type": "Feature", "properties": { "name": "Dennys", "type": "restaurant", "reach": "outside" }, "geometry": { "type": "Point", "coordinates": [ -114.343157422789091, 34.47432245603045 ] } },
{ "type": "Feature", "properties": { "name": "Luchia's", "type": "restaurant", "reach": "outside" }, "geometry": { "type": "Point", "coordinates": [ -113.626204808011011, 34.773562859148562 ] } },
{ "type": "Feature", "properties": { "name": "La Fonda Mexican Restaurant", "type": "restaurant", "reach": "outside" }, "geometry": { "type": "Point", "coordinates": [ -112.480543979963954, 34.55267590884965 ] } },
{ "type": "Feature", "properties": { "name": "Taco Don's", "type": "restaurant", "reach": "outside" }, "geometry": { "type": "Point", "coordinates": [ -112.480425312514924, 34.552397204230786 ] } },
{ "type": "Feature", "properties": { "name": "Roman Ristorante", "type": "restaurant", "reach": "outside" }, "geometry": { "type": "Point", "coordinates": [ -112.479882730083304, 34.552541624686064 ] } },
{ "type": "Feature", "properties": { "name": "Bill's Pizza", "type": "restaurant", "reach": "outside" }, "geometry": { "type": "Point", "coordinates": [ -112.46851562814112, 34.541409268824836 ] } },
{ "type": "Feature", "properties": { "name": "Canton Dragon", "type": "restaurant", "reach": "outside" }, "geometry": { "type": "Point", "coordinates": [ -112.469118577359808, 34.547008484800571 ] } },
{ "type": "Feature", "properties": { "name": "Icha Maajoh", "type": "restaurant", "reach": "outside" }, "geometry": { "type": "Point", "coordinates": [ -112.447069788037226, 34.550488714680732 ] } },
{ "type": "Feature", "properties": { "name": "Painted Desert Diner", "type": "restaurant", "reach": "outside" }, "geometry": { "type": "Point", "coordinates": [ -109.781482765625768, 35.065863597363624 ] } },
{ "type": "Feature", "properties": { "name": "TLC'S Family Kitchen", "type": "restaurant", "reach": "outside" }, "geometry": { "type": "Point", "coordinates": [ -109.366346030174654, 34.506631417549166 ] } },
{ "type": "Feature", "properties": { "name": "La Cantina", "type": "restaurant", "reach": "outside" }, "geometry": { "type": "Point", "coordinates": [ -109.360929009348368, 34.50323397034964 ] } },
{ "type": "Feature", "properties": { "name": "Pizza Hut", "type": "restaurant", "reach": "outside" }, "geometry": { "type": "Point", "coordinates": [ -109.578661500103379, 36.159397598739119 ] } },
{ "type": "Feature", "properties": { "name": "Junction Restaurant", "type": "restaurant", "reach": "outside" }, "geometry": { "type": "Point", "coordinates": [ -109.578792025314158, 36.159486082918974 ] } },
{ "type": "Feature", "properties": { "name": "Denny's", "type": "restaurant", "reach": "outside" }, "geometry": { "type": "Point", "coordinates": [ -109.563840286062231, 36.156270561723154 ] } },
{ "type": "Feature", "properties": { "name": "Pho 602 Vietnamese Restaurant", "type": "restaurant", "reach": null }, "geometry": { "type": "Point", "coordinates": [ -112.130424699663067, 33.52542489878175 ] } },
{ "type": "Feature", "properties": { "name": "Spinato's Pizzeria", "type": "restaurant", "reach": null }, "geometry": { "type": "Point", "coordinates": [ -112.064629932297464, 33.516999525392997 ] } },
{ "type": "Feature", "properties": { "name": "Scott's Generations NY Deli", "type": "restaurant", "reach": null }, "geometry": { "type": "Point", "coordinates": [ -112.063711225256398, 33.518424307083414 ] } },
{ "type": "Feature", "properties": { "name": "Christo's", "type": "restaurant", "reach": null }, "geometry": { "type": "Point", "coordinates": [ -112.064766835546763, 33.529835868727311 ] } },
{ "type": "Feature", "properties": { "name": "Bobby Q", "type": "restaurant", "reach": null }, "geometry": { "type": "Point", "coordinates": [ -112.115569619135698, 33.560864903574284 ] } },
{ "type": "Feature", "properties": { "name": "Akaihana", "type": "restaurant", "reach": null }, "geometry": { "type": "Point", "coordinates": [ -112.110948595482682, 33.554468101721326 ] } },
{ "type": "Feature", "properties": { "name": "Los Compadres", "type": "restaurant", "reach": null }, "geometry": { "type": "Point", "coordinates": [ -112.109816718224693, 33.554342857387958 ] } },
{ "type": "Feature", "properties": { "name": "Denny's", "type": "restaurant", "reach": null }, "geometry": { "type": "Point", "coordinates": [ -112.118179764025243, 33.568875078595113 ] } },
{ "type": "Feature", "properties": { "name": "LaBella Pizzeria and Restaurant", "type": "restaurant", "reach": null }, "geometry": { "type": "Point", "coordinates": [ -112.064591304740262, 33.531253175394575 ] } },
{ "type": "Feature", "properties": { "name": "Sierra Bonita Grill", "type": "restaurant", "reach": null }, "geometry": { "type": "Point", "coordinates": [ -112.064832143067932, 33.537811856895424 ] } },
{ "type": "Feature", "properties": { "name": "Boston Market", "type": "restaurant", "reach": null }, "geometry": { "type": "Point", "coordinates": [ -112.099154164959813, 33.553479991612484 ] } },
{ "type": "Feature", "properties": { "name": "Las Jicaras Mexican Grill", "type": "restaurant", "reach": null }, "geometry": { "type": "Point", "coordinates": [ -112.083518897608201, 33.571598811927664 ] } },
{ "type": "Feature", "properties": { "name": "Greek Town", "type": "restaurant", "reach": null }, "geometry": { "type": "Point", "coordinates": [ -112.06503049108268, 33.561720808848484 ] } },
{ "type": "Feature", "properties": { "name": "Z'Tejas Mexican Restaurant and Grill", "type": "restaurant", "reach": null }, "geometry": { "type": "Point", "coordinates": [ -112.048184564222638, 33.523573067559077 ] } },
{ "type": "Feature", "properties": { "name": "Luci's Healthy Marketplace", "type": "restaurant", "reach": null }, "geometry": { "type": "Point", "coordinates": [ -112.047837994186011, 33.524004351269774 ] } },
{ "type": "Feature", "properties": { "name": "TexAZ Grill", "type": "restaurant", "reach": null }, "geometry": { "type": "Point", "coordinates": [ -112.047141081188599, 33.523921899037113 ] } },
{ "type": "Feature", "properties": { "name": "Dick's Hideaway", "type": "restaurant", "reach": null }, "geometry": { "type": "Point", "coordinates": [ -112.047837994186011, 33.524165361306736 ] } },
{ "type": "Feature", "properties": { "name": "Moto", "type": "restaurant", "reach": null }, "geometry": { "type": "Point", "coordinates": [ -112.047136499780649, 33.53737158194933 ] } },
{ "type": "Feature", "properties": { "name": "Babbo Itialian Eatery", "type": "restaurant", "reach": null }, "geometry": { "type": "Point", "coordinates": [ -112.04714817787935, 33.537578316773867 ] } },
{ "type": "Feature", "properties": { "name": "Lantana Grille", "type": "restaurant", "reach": null }, "geometry": { "type": "Point", "coordinates": [ -112.047341315665435, 33.547728905090288 ] } },
{ "type": "Feature", "properties": { "name": "Gallagher's", "type": "restaurant", "reach": null }, "geometry": { "type": "Point", "coordinates": [ -112.046779599118267, 33.546802185138844 ] } },
{ "type": "Feature", "properties": { "name": null, "type": "restaurant", "reach": null }, "geometry": { "type": "Point", "coordinates": [ -112.055922562248512, 33.566715790846587 ] } },
{ "type": "Feature", "properties": { "name": "Garcia's", "type": "restaurant", "reach": null }, "geometry": { "type": "Point", "coordinates": [ -112.131882216211565, 33.581308420319807 ] } },
{ "type": "Feature", "properties": { "name": "Panera Bread", "type": "restaurant", "reach": null }, "geometry": { "type": "Point", "coordinates": [ -112.122326746702853, 33.580467377768649 ] } },
{ "type": "Feature", "properties": { "name": "Ashleigh's Cafe", "type": "restaurant", "reach": null }, "geometry": { "type": "Point", "coordinates": [ -112.119314785386734, 33.5891142032972 ] } },
{ "type": "Feature", "properties": { "name": "Our Gang", "type": "restaurant", "reach": null }, "geometry": { "type": "Point", "coordinates": [ -112.066002468220077, 33.576003683032525 ] } },
{ "type": "Feature", "properties": { "name": "Il Posto", "type": "restaurant", "reach": null }, "geometry": { "type": "Point", "coordinates": [ -112.065602717918665, 33.576191090706821 ] } },
{ "type": "Feature", "properties": { "name": "Scrambles", "type": "restaurant", "reach": null }, "geometry": { "type": "Point", "coordinates": [ -112.065441021167516, 33.57619296178779 ] } },
{ "type": "Feature", "properties": { "name": "Noodle and Rice", "type": "restaurant", "reach": null }, "geometry": { "type": "Point", "coordinates": [ -112.036051019680031, 33.596160997558457 ] } },
{ "type": "Feature", "properties": { "name": "Pizza Hut", "type": "restaurant", "reach": null }, "geometry": { "type": "Point", "coordinates": [ -112.008568231372251, 33.581939608464609 ] } },
{ "type": "Feature", "properties": { "name": "Peter Piper Pizza", "type": "restaurant", "reach": "outside" }, "geometry": { "type": "Point", "coordinates": [ -111.638677301162531, 33.378757155350968 ] } },
{ "type": "Feature", "properties": { "name": "Panda Express", "type": "restaurant", "reach": "outside" }, "geometry": { "type": "Point", "coordinates": [ -111.620450214553131, 33.377332177949974 ] } },
{ "type": "Feature", "properties": { "name": "Streets of New York", "type": "restaurant", "reach": "outside" }, "geometry": { "type": "Point", "coordinates": [ -111.600130771983999, 33.379341812412406 ] } },
{ "type": "Feature", "properties": { "name": "Rubio's", "type": "restaurant", "reach": "outside" }, "geometry": { "type": "Point", "coordinates": [ -111.600503932153018, 33.382629966325212 ] } },
{ "type": "Feature", "properties": { "name": "Panda Express", "type": "restaurant", "reach": "outside" }, "geometry": { "type": "Point", "coordinates": [ -111.599444189612356, 33.382836020330387 ] } },
{ "type": "Feature", "properties": { "name": "#1 Eastern Super Buffet", "type": "restaurant", "reach": "outside" }, "geometry": { "type": "Point", "coordinates": [ -111.598523146951536, 33.381473594490508 ] } },
{ "type": "Feature", "properties": { "name": "Barro's Pizza", "type": "restaurant", "reach": "outside" }, "geometry": { "type": "Point", "coordinates": [ -111.597471579079951, 33.394826592169856 ] } },
{ "type": "Feature", "properties": { "name": "Rosotis Pizza", "type": "restaurant", "reach": "outside" }, "geometry": { "type": "Point", "coordinates": [ -111.470598918242629, 33.361352919073958 ] } },
{ "type": "Feature", "properties": { "name": "AJ's Fairways Grille", "type": "restaurant", "reach": "outside" }, "geometry": { "type": "Point", "coordinates": [ -111.471157221191689, 33.361495999255133 ] } },
{ "type": "Feature", "properties": { "name": "Subway", "type": "restaurant", "reach": "outside" }, "geometry": { "type": "Point", "coordinates": [ -111.47533753136635, 33.367082019767302 ] } },
{ "type": "Feature", "properties": { "name": "Chicago's #1 Gyros", "type": "restaurant", "reach": "outside" }, "geometry": { "type": "Point", "coordinates": [ -111.563677047922909, 33.407256523724158 ] } },
{ "type": "Feature", "properties": { "name": "Lotus Garden", "type": "restaurant", "reach": "outside" }, "geometry": { "type": "Point", "coordinates": [ -111.548096577803605, 33.411931911750926 ] } },
{ "type": "Feature", "properties": { "name": "Cornish Pasty Company", "type": "restaurant", "reach": "outside" }, "geometry": { "type": "Point", "coordinates": [ -111.876072925340097, 33.362725488734746 ] } },
{ "type": "Feature", "properties": { "name": "Rosita's", "type": "restaurant", "reach": "outside" }, "geometry": { "type": "Point", "coordinates": [ -111.877132578049242, 33.362735167322256 ] } },
{ "type": "Feature", "properties": { "name": "Pink Pepper Thai", "type": "restaurant", "reach": "outside" }, "geometry": { "type": "Point", "coordinates": [ -111.876090981477319, 33.363069490583598 ] } },
{ "type": "Feature", "properties": { "name": "Auntie Pasta's", "type": "restaurant", "reach": "outside" }, "geometry": { "type": "Point", "coordinates": [ -111.874430805000728, 33.363548389911543 ] } },
{ "type": "Feature", "properties": { "name": "Baby Kay's Cajun Kitchen", "type": "restaurant", "reach": "outside" }, "geometry": { "type": "Point", "coordinates": [ -111.877863716858997, 33.376435366398539 ] } },
{ "type": "Feature", "properties": { "name": "Pho' Number One Restaurant", "type": "restaurant", "reach": "outside" }, "geometry": { "type": "Point", "coordinates": [ -111.87731646318791, 33.37740306730182 ] } },
{ "type": "Feature", "properties": { "name": "Drunken Tiger Korean Bar\/Eatery", "type": "restaurant", "reach": "outside" }, "geometry": { "type": "Point", "coordinates": [ -111.878861475645067, 33.378814090949646 ] } },
{ "type": "Feature", "properties": { "name": "Macayo's Mexican Kitchen", "type": "restaurant", "reach": "outside" }, "geometry": { "type": "Point", "coordinates": [ -111.878362641167783, 33.379611485470065 ] } },
{ "type": "Feature", "properties": { "name": "China Express", "type": "restaurant", "reach": "outside" }, "geometry": { "type": "Point", "coordinates": [ -111.876613800972663, 33.379571203344618 ] } },
{ "type": "Feature", "properties": { "name": "First Watch the Daytime Cafe", "type": "restaurant", "reach": "outside" }, "geometry": { "type": "Point", "coordinates": [ -111.874553874194646, 33.383002393393618 ] } },
{ "type": "Feature", "properties": { "name": "Fiesta Bar & Grill", "type": "restaurant", "reach": "outside" }, "geometry": { "type": "Point", "coordinates": [ -111.875503303618444, 33.383875884257542 ] } },
{ "type": "Feature", "properties": { "name": "Gangnam BBQ", "type": "restaurant", "reach": "outside" }, "geometry": { "type": "Point", "coordinates": [ -111.865499574782945, 33.389351260641185 ] } },
{ "type": "Feature", "properties": { "name": "Karaoke Cafe Asian Bar & Grill", "type": "restaurant", "reach": "outside" }, "geometry": { "type": "Point", "coordinates": [ -111.864660099149944, 33.389109669687137 ] } },
{ "type": "Feature", "properties": { "name": "Crazy Sushi Crab", "type": "restaurant", "reach": "outside" }, "geometry": { "type": "Point", "coordinates": [ -111.864365900894384, 33.390597382269206 ] } },
{ "type": "Feature", "properties": { "name": "Cheba Hut", "type": "restaurant", "reach": "outside" }, "geometry": { "type": "Point", "coordinates": [ -111.86826872147779, 33.393760383863174 ] } },
{ "type": "Feature", "properties": { "name": "Z-Cafe", "type": "restaurant", "reach": "outside" }, "geometry": { "type": "Point", "coordinates": [ -111.861285218459031, 33.378170694011018 ] } },
{ "type": "Feature", "properties": { "name": "All Pierogi", "type": "restaurant", "reach": "outside" }, "geometry": { "type": "Point", "coordinates": [ -111.86115092032405, 33.37817301946032 ] } },
{ "type": "Feature", "properties": { "name": "Your Pie", "type": "restaurant", "reach": "outside" }, "geometry": { "type": "Point", "coordinates": [ -111.859316201187767, 33.378344802478288 ] } },
{ "type": "Feature", "properties": { "name": "Dragon Express Asian Diner", "type": "restaurant", "reach": "outside" }, "geometry": { "type": "Point", "coordinates": [ -111.858224837949109, 33.378272488620375 ] } },
{ "type": "Feature", "properties": { "name": "TC Eggington's", "type": "restaurant", "reach": "outside" }, "geometry": { "type": "Point", "coordinates": [ -111.859332820020541, 33.383776196478024 ] } },
{ "type": "Feature", "properties": { "name": "Beaver Choice", "type": "restaurant", "reach": "outside" }, "geometry": { "type": "Point", "coordinates": [ -111.847482873613131, 33.378500907188553 ] } },
{ "type": "Feature", "properties": { "name": "Chipotle ", "type": "restaurant", "reach": "outside" }, "geometry": { "type": "Point", "coordinates": [ -111.856850864722034, 33.389610852035652 ] } },
{ "type": "Feature", "properties": { "name": "smashburger ", "type": "restaurant", "reach": "outside" }, "geometry": { "type": "Point", "coordinates": [ -111.856799121761668, 33.38971518340631 ] } },
{ "type": "Feature", "properties": { "name": "Tom's BBQ Mesa", "type": "restaurant", "reach": "outside" }, "geometry": { "type": "Point", "coordinates": [ -111.841255572400541, 33.393684782777591 ] } },
{ "type": "Feature", "properties": { "name": "Pizza Hut", "type": "restaurant", "reach": "outside" }, "geometry": { "type": "Point", "coordinates": [ -111.841367502484957, 33.393827659773919 ] } },
{ "type": "Feature", "properties": { "name": "Alfonso's Mexican Food", "type": "restaurant", "reach": "outside" }, "geometry": { "type": "Point", "coordinates": [ -111.841463981546468, 33.39394856127975 ] } },
{ "type": "Feature", "properties": { "name": "Tropical Smoothie Cafe", "type": "restaurant", "reach": "outside" }, "geometry": { "type": "Point", "coordinates": [ -111.811819846665102, 33.378528887484222 ] } },
{ "type": "Feature", "properties": { "name": "Jason's Deli", "type": "restaurant", "reach": "outside" }, "geometry": { "type": "Point", "coordinates": [ -111.810177636494203, 33.378521911164704 ] } },
{ "type": "Feature", "properties": { "name": "Villiage Inn", "type": "restaurant", "reach": "outside" }, "geometry": { "type": "Point", "coordinates": [ -111.806702324154529, 33.379849877256902 ] } },
{ "type": "Feature", "properties": { "name": "Eklectic Pie", "type": "restaurant", "reach": "outside" }, "geometry": { "type": "Point", "coordinates": [ -111.806506940580235, 33.379843501147761 ] } },
{ "type": "Feature", "properties": { "name": "Firehouse Subs", "type": "restaurant", "reach": "outside" }, "geometry": { "type": "Point", "coordinates": [ -111.806808864347232, 33.384842152206225 ] } },
{ "type": "Feature", "properties": { "name": "Volcano Buffet", "type": "restaurant", "reach": "outside" }, "geometry": { "type": "Point", "coordinates": [ -111.873577764806939, 33.430779985709094 ] } },
{ "type": "Feature", "properties": { "name": "Peter Piper Pizza", "type": "restaurant", "reach": "outside" }, "geometry": { "type": "Point", "coordinates": [ -111.872042723649429, 33.430183154784835 ] } },
{ "type": "Feature", "properties": { "name": "Angel Sweet Gelato", "type": "restaurant", "reach": "outside" }, "geometry": { "type": "Point", "coordinates": [ -111.867553123522455, 33.433990777184832 ] } },
{ "type": "Feature", "properties": { "name": "Rita's", "type": "restaurant", "reach": "outside" }, "geometry": { "type": "Point", "coordinates": [ -111.858527929525948, 33.422376219395375 ] } },
{ "type": "Feature", "properties": { "name": "Blue Adobe", "type": "restaurant", "reach": "outside" }, "geometry": { "type": "Point", "coordinates": [ -111.840371360666381, 33.418349821522384 ] } },
{ "type": "Feature", "properties": { "name": "Lombardo's Gelato", "type": "restaurant", "reach": "outside" }, "geometry": { "type": "Point", "coordinates": [ -111.815263717969842, 33.408018187680455 ] } },
{ "type": "Feature", "properties": { "name": "La Cocina Boricua", "type": "restaurant", "reach": "outside" }, "geometry": { "type": "Point", "coordinates": [ -111.839303892614268, 33.426638294857575 ] } },
{ "type": "Feature", "properties": { "name": "Rosa's Mexican Grill", "type": "restaurant", "reach": "outside" }, "geometry": { "type": "Point", "coordinates": [ -111.824013847826322, 33.423373773887825 ] } },
{ "type": "Feature", "properties": { "name": "Steve's Krazy Sub", "type": "restaurant", "reach": "outside" }, "geometry": { "type": "Point", "coordinates": [ -111.839459390989958, 33.436501512510588 ] } },
{ "type": "Feature", "properties": { "name": "Swirl It", "type": "restaurant", "reach": "outside" }, "geometry": { "type": "Point", "coordinates": [ -111.759853295625604, 33.306101823077832 ] } },
{ "type": "Feature", "properties": { "name": "Chipotle", "type": "restaurant", "reach": "outside" }, "geometry": { "type": "Point", "coordinates": [ -111.742840821111898, 33.307794708897156 ] } },
{ "type": "Feature", "properties": { "name": "Wok Box", "type": "restaurant", "reach": "outside" }, "geometry": { "type": "Point", "coordinates": [ -111.742735089402942, 33.307764979135683 ] } },
{ "type": "Feature", "properties": { "name": "Blue Wasabi", "type": "restaurant", "reach": "outside" }, "geometry": { "type": "Point", "coordinates": [ -111.744174639645735, 33.307849063283342 ] } },
{ "type": "Feature", "properties": { "name": "Cantina Laredo", "type": "restaurant", "reach": "outside" }, "geometry": { "type": "Point", "coordinates": [ -111.743862115758418, 33.30841805557678 ] } },
{ "type": "Feature", "properties": { "name": "Panera Bread", "type": "restaurant", "reach": "outside" }, "geometry": { "type": "Point", "coordinates": [ -111.743874692172398, 33.308817301416141 ] } },
{ "type": "Feature", "properties": { "name": "Brio Tuscan Grille", "type": "restaurant", "reach": "outside" }, "geometry": { "type": "Point", "coordinates": [ -111.743312795962169, 33.308390052744329 ] } },
{ "type": "Feature", "properties": { "name": "Kona Grill", "type": "restaurant", "reach": "outside" }, "geometry": { "type": "Point", "coordinates": [ -111.742258263650129, 33.30787556478807 ] } },
{ "type": "Feature", "properties": { "name": "Grimaldi's Pizzeria", "type": "restaurant", "reach": "outside" }, "geometry": { "type": "Point", "coordinates": [ -111.743862295421451, 33.309931096053582 ] } },
{ "type": "Feature", "properties": { "name": "Geno's - Giant Slice", "type": "restaurant", "reach": "outside" }, "geometry": { "type": "Point", "coordinates": [ -111.720425069995727, 33.290529771490988 ] } },
{ "type": "Feature", "properties": { "name": "Hungry Howie's Pizza & Subs", "type": "restaurant", "reach": "outside" }, "geometry": { "type": "Point", "coordinates": [ -111.721812428120515, 33.293691979508147 ] } },
{ "type": "Feature", "properties": { "name": "Subway", "type": "restaurant", "reach": "outside" }, "geometry": { "type": "Point", "coordinates": [ -111.677044346947255, 33.307218580350842 ] } },
{ "type": "Feature", "properties": { "name": "Udder Delight", "type": "restaurant", "reach": "outside" }, "geometry": { "type": "Point", "coordinates": [ -111.759689981906945, 33.335303980914233 ] } },
{ "type": "Feature", "properties": { "name": "Native New Yorker", "type": "restaurant", "reach": "outside" }, "geometry": { "type": "Point", "coordinates": [ -111.757056031662387, 33.348058265923676 ] } },
{ "type": "Feature", "properties": { "name": "Crepe Club", "type": "restaurant", "reach": "outside" }, "geometry": { "type": "Point", "coordinates": [ -111.741461098667031, 33.310938198597349 ] } },
{ "type": "Feature", "properties": { "name": "Johnny Rocket's", "type": "restaurant", "reach": "outside" }, "geometry": { "type": "Point", "coordinates": [ -111.741221697643795, 33.311334354941494 ] } },
{ "type": "Feature", "properties": { "name": "Joe's Farm Grill", "type": "restaurant", "reach": "outside" }, "geometry": { "type": "Point", "coordinates": [ -111.725441172710731, 33.321821070592684 ] } },
{ "type": "Feature", "properties": { "name": "Tutti Santi", "type": "restaurant", "reach": "outside" }, "geometry": { "type": "Point", "coordinates": [ -111.738838467195023, 33.335357792786702 ] } },
{ "type": "Feature", "properties": { "name": "Cafe Rio Rico", "type": "restaurant", "reach": "outside" }, "geometry": { "type": "Point", "coordinates": [ -111.755444364211158, 33.363837318812521 ] } },
{ "type": "Feature", "properties": { "name": "Temari", "type": "restaurant", "reach": "outside" }, "geometry": { "type": "Point", "coordinates": [ -111.755720596161012, 33.367034304453426 ] } },
{ "type": "Feature", "properties": { "name": "Casanova Brothers", "type": "restaurant", "reach": "outside" }, "geometry": { "type": "Point", "coordinates": [ -111.754846176063452, 33.366937898432823 ] } },
{ "type": "Feature", "properties": { "name": "Wildflower Bread", "type": "restaurant", "reach": "outside" }, "geometry": { "type": "Point", "coordinates": [ -111.757816006392744, 33.378597300394446 ] } },
{ "type": "Feature", "properties": { "name": "IHOP", "type": "restaurant", "reach": "outside" }, "geometry": { "type": "Point", "coordinates": [ -111.756083335872731, 33.37858387286478 ] } },
{ "type": "Feature", "properties": { "name": "Prima Pizza", "type": "restaurant", "reach": "outside" }, "geometry": { "type": "Point", "coordinates": [ -111.753588804160259, 33.377768615391446 ] } },
{ "type": "Feature", "properties": { "name": "Nando's", "type": "restaurant", "reach": "outside" }, "geometry": { "type": "Point", "coordinates": [ -111.755455593152206, 33.378059822517592 ] } },
{ "type": "Feature", "properties": { "name": "Sauce", "type": "restaurant", "reach": "outside" }, "geometry": { "type": "Point", "coordinates": [ -111.756989286836784, 33.381129665416658 ] } },
{ "type": "Feature", "properties": { "name": "First Watch", "type": "restaurant", "reach": "outside" }, "geometry": { "type": "Point", "coordinates": [ -111.753465375640218, 33.380218865647173 ] } },
{ "type": "Feature", "properties": { "name": "Streets of New York", "type": "restaurant", "reach": "outside" }, "geometry": { "type": "Point", "coordinates": [ -111.753448846639003, 33.380457780856595 ] } },
{ "type": "Feature", "properties": { "name": "California Pizza Kitchen", "type": "restaurant", "reach": "outside" }, "geometry": { "type": "Point", "coordinates": [ -111.754403665954499, 33.38123715746309 ] } },
{ "type": "Feature", "properties": { "name": "Bucca di Beppo", "type": "restaurant", "reach": "outside" }, "geometry": { "type": "Point", "coordinates": [ -111.754350036532017, 33.383736666378802 ] } },
{ "type": "Feature", "properties": { "name": "Ra", "type": "restaurant", "reach": "outside" }, "geometry": { "type": "Point", "coordinates": [ -111.754854260901013, 33.385295503844446 ] } },
{ "type": "Feature", "properties": { "name": "Rancho de Tia Rosa", "type": "restaurant", "reach": "outside" }, "geometry": { "type": "Point", "coordinates": [ -111.720130871740182, 33.366631574157978 ] } },
{ "type": "Feature", "properties": { "name": "Dos Gringos", "type": "restaurant", "reach": "outside" }, "geometry": { "type": "Point", "coordinates": [ -111.740939536813059, 33.379811320542728 ] } },
{ "type": "Feature", "properties": { "name": "Moki's Hawaiian Grill", "type": "restaurant", "reach": "outside" }, "geometry": { "type": "Point", "coordinates": [ -111.752844999105022, 33.395443391003219 ] } },
{ "type": "Feature", "properties": { "name": "Wendy's", "type": "restaurant", "reach": "outside" }, "geometry": { "type": "Point", "coordinates": [ -111.689501195160616, 33.322106309768934 ] } },
{ "type": "Feature", "properties": { "name": "Applebee's", "type": "restaurant", "reach": "outside" }, "geometry": { "type": "Point", "coordinates": [ -111.688810480538649, 33.322164558496461 ] } },
{ "type": "Feature", "properties": { "name": "YC's Mongolian Grill", "type": "restaurant", "reach": "outside" }, "geometry": { "type": "Point", "coordinates": [ -111.687662164110961, 33.322084391423246 ] } },
{ "type": "Feature", "properties": { "name": "Rubio's", "type": "restaurant", "reach": "outside" }, "geometry": { "type": "Point", "coordinates": [ -111.687495885951876, 33.322252982392435 ] } },
{ "type": "Feature", "properties": { "name": "Texas Roadhouse", "type": "restaurant", "reach": "outside" }, "geometry": { "type": "Point", "coordinates": [ -111.687540981379129, 33.323761879563463 ] } },
{ "type": "Feature", "properties": { "name": "Native New Yorker", "type": "restaurant", "reach": "outside" }, "geometry": { "type": "Point", "coordinates": [ -111.68753181856323, 33.326009563968874 ] } },
{ "type": "Feature", "properties": { "name": "Sweet Tomatoes", "type": "restaurant", "reach": "outside" }, "geometry": { "type": "Point", "coordinates": [ -111.687546101776249, 33.326431472151079 ] } },
{ "type": "Feature", "properties": { "name": "Red Veit Cuisine", "type": "restaurant", "reach": "outside" }, "geometry": { "type": "Point", "coordinates": [ -111.685377209354272, 33.321018417553752 ] } },
{ "type": "Feature", "properties": { "name": "Red Koi Japanese", "type": "restaurant", "reach": "outside" }, "geometry": { "type": "Point", "coordinates": [ -111.685379095816373, 33.321111721751592 ] } },
{ "type": "Feature", "properties": { "name": "Flight Deck Cafe", "type": "restaurant", "reach": "outside" }, "geometry": { "type": "Point", "coordinates": [ -111.669641420522353, 33.310662382031644 ] } },
{ "type": "Feature", "properties": { "name": "Salerno's", "type": "restaurant", "reach": "outside" }, "geometry": { "type": "Point", "coordinates": [ -111.706485732068984, 33.364484573089264 ] } },
{ "type": "Feature", "properties": { "name": "Pizza Hut", "type": "restaurant", "reach": "outside" }, "geometry": { "type": "Point", "coordinates": [ -111.690517908399187, 33.37883336952995 ] } },
{ "type": "Feature", "properties": { "name": "Tum Nak Thai", "type": "restaurant", "reach": "outside" }, "geometry": { "type": "Point", "coordinates": [ -111.688740861104122, 33.378318622468214 ] } },
{ "type": "Feature", "properties": { "name": "Dickey's Barbecue Pit", "type": "restaurant", "reach": "outside" }, "geometry": { "type": "Point", "coordinates": [ -111.688427438901499, 33.380432576645703 ] } },
{ "type": "Feature", "properties": { "name": "Subway", "type": "restaurant", "reach": "outside" }, "geometry": { "type": "Point", "coordinates": [ -111.689717419649511, 33.390546079672852 ] } },
{ "type": "Feature", "properties": { "name": "Sakana Sushi & Grill", "type": "restaurant", "reach": "outside" }, "geometry": { "type": "Point", "coordinates": [ -111.686678059717224, 33.381079557424982 ] } },
{ "type": "Feature", "properties": { "name": "McDonalds", "type": "restaurant", "reach": "outside" }, "geometry": { "type": "Point", "coordinates": [ -109.954490474004217, 34.142139321128333 ] } },
{ "type": "Feature", "properties": { "name": "Kentucky Fried Chicken", "type": "restaurant", "reach": "outside" }, "geometry": { "type": "Point", "coordinates": [ -109.953854107456948, 34.14143999281147 ] } },
{ "type": "Feature", "properties": { "name": "La Hacienda", "type": "restaurant", "reach": "outside" }, "geometry": { "type": "Point", "coordinates": [ -109.973129887329009, 34.153301991318607 ] } },
{ "type": "Feature", "properties": { "name": null, "type": "restaurant", "reach": "outside" }, "geometry": { "type": "Point", "coordinates": [ -109.562133936180047, 33.940725103318577 ] } },
{ "type": "Feature", "properties": { "name": "Molly Butler Lodge", "type": "restaurant", "reach": "outside" }, "geometry": { "type": "Point", "coordinates": [ -109.458938620443888, 34.01223569961369 ] } },
{ "type": "Feature", "properties": { "name": "Rendezvous Diner", "type": "restaurant", "reach": "outside" }, "geometry": { "type": "Point", "coordinates": [ -109.45798173500323, 34.013999485973862 ] } },
{ "type": "Feature", "properties": { "name": "Bear Wallow Cafe", "type": "restaurant", "reach": "outside" }, "geometry": { "type": "Point", "coordinates": [ -109.145111367452984, 33.848211025196242 ] } },
{ "type": "Feature", "properties": { "name": "Alpine Grill and Still", "type": "restaurant", "reach": "outside" }, "geometry": { "type": "Point", "coordinates": [ -109.145181166550543, 33.84867216690926 ] } },
{ "type": "Feature", "properties": { "name": "Foxfire at Alpine", "type": "restaurant", "reach": "outside" }, "geometry": { "type": "Point", "coordinates": [ -109.142988468773552, 33.848610915257382 ] } },
{ "type": "Feature", "properties": { "name": "Talwiwi Restaurant", "type": "restaurant", "reach": "outside" }, "geometry": { "type": "Point", "coordinates": [ -109.155960321139275, 33.88410317313275 ] } },
{ "type": "Feature", "properties": { "name": "Denny's", "type": "restaurant", "reach": "outside" }, "geometry": { "type": "Point", "coordinates": [ -111.959801838700912, 33.40712941660491 ] } },
{ "type": "Feature", "properties": { "name": "Boulders on Broadway", "type": "restaurant", "reach": "outside" }, "geometry": { "type": "Point", "coordinates": [ -111.947591847527633, 33.407652466832836 ] } },
{ "type": "Feature", "properties": { "name": "Chipotle Mexican Grill", "type": "restaurant", "reach": "outside" }, "geometry": { "type": "Point", "coordinates": [ -111.940413140597641, 33.417979120508733 ] } },
{ "type": "Feature", "properties": { "name": "Tapacubo", "type": "restaurant", "reach": "outside" }, "geometry": { "type": "Point", "coordinates": [ -111.93655056453899, 33.414333059750199 ] } },
{ "type": "Feature", "properties": { "name": "The Normal Diner", "type": "restaurant", "reach": "outside" }, "geometry": { "type": "Point", "coordinates": [ -111.936027924706693, 33.414427988539281 ] } },
{ "type": "Feature", "properties": { "name": "Osaka Grill Teriyaki & Roll", "type": "restaurant", "reach": "outside" }, "geometry": { "type": "Point", "coordinates": [ -111.929034719882878, 33.41407039289966 ] } },
{ "type": "Feature", "properties": { "name": "Sacks Sandwiches", "type": "restaurant", "reach": "outside" }, "geometry": { "type": "Point", "coordinates": [ -111.9391005223045, 33.419770077628023 ] } },
{ "type": "Feature", "properties": { "name": "Cafe Lalibella", "type": "restaurant", "reach": null }, "geometry": { "type": "Point", "coordinates": [ -111.95161558134825, 33.421267162268578 ] } },
{ "type": "Feature", "properties": { "name": "Cornish Pasty Co.", "type": "restaurant", "reach": null }, "geometry": { "type": "Point", "coordinates": [ -111.951819229423165, 33.422943113662548 ] } },
{ "type": "Feature", "properties": { "name": "Chili's", "type": "restaurant", "reach": "outside" }, "geometry": { "type": "Point", "coordinates": [ -111.944529670387112, 33.422187503738755 ] } },
{ "type": "Feature", "properties": { "name": "P.F. Chang's China Bistro", "type": "restaurant", "reach": "outside" }, "geometry": { "type": "Point", "coordinates": [ -111.940290790055954, 33.422217794241277 ] } },
{ "type": "Feature", "properties": { "name": "Mellow Mushroom", "type": "restaurant", "reach": "outside" }, "geometry": { "type": "Point", "coordinates": [ -111.940217846854893, 33.423058876300736 ] } },
{ "type": "Feature", "properties": { "name": "Slices pizza by the slice", "type": "restaurant", "reach": "outside" }, "geometry": { "type": "Point", "coordinates": [ -111.939775785903564, 33.424249258153409 ] } },
{ "type": "Feature", "properties": { "name": "Zuma Grill", "type": "restaurant", "reach": "outside" }, "geometry": { "type": "Point", "coordinates": [ -111.939893824531893, 33.424617983062568 ] } },
{ "type": "Feature", "properties": { "name": "My Big Fat Greek Restaurant", "type": "restaurant", "reach": "outside" }, "geometry": { "type": "Point", "coordinates": [ -111.939860497034843, 33.424792298380282 ] } },
{ "type": "Feature", "properties": { "name": "Spinelli's Pizzeria", "type": "restaurant", "reach": null }, "geometry": { "type": "Point", "coordinates": [ -111.940509170501514, 33.425573901469313 ] } },
{ "type": "Feature", "properties": { "name": "Gordon Biersch Brewery& Restaurant", "type": "restaurant", "reach": null }, "geometry": { "type": "Point", "coordinates": [ -111.940395174291965, 33.425609888780194 ] } },
{ "type": "Feature", "properties": { "name": "Fatburger", "type": "restaurant", "reach": null }, "geometry": { "type": "Point", "coordinates": [ -111.940169427661061, 33.425814491353805 ] } },
{ "type": "Feature", "properties": { "name": "Med Fresh Grill", "type": "restaurant", "reach": null }, "geometry": { "type": "Point", "coordinates": [ -111.940090375916057, 33.426209000341402 ] } },
{ "type": "Feature", "properties": { "name": "Restaurant Mexico", "type": "restaurant", "reach": null }, "geometry": { "type": "Point", "coordinates": [ -111.939948172606577, 33.425916080213568 ] } },
{ "type": "Feature", "properties": { "name": "Ra Sushi Bar Restaurant", "type": "restaurant", "reach": null }, "geometry": { "type": "Point", "coordinates": [ -111.939916282414003, 33.426076897759572 ] } },
{ "type": "Feature", "properties": { "name": "Corleone's Cheesesteaks", "type": "restaurant", "reach": null },