{
"type": "FeatureCollection",
"name": "Restaurants",
"crs": { "type": "name", "properties": { "name": "urn:ogc:def:crs:OGC:1.3:CRS84" } },
"features": [
{ "type": "Feature", "properties": { "_uid_": 258, "osm_id": 3750146190, "name": "Lincoln Station Grill", "longitude": -122.680188911044, "latitude": 45.507398369048801, "type": "restaurant", "layer": "2813 Southeast Colt Drive", "path": "\/Users\/jasonsankovic\/Downloads\/2813 Southeast Colt Drive.geojson" }, "geometry": { "type": "Point", "coordinates": [ -122.680188911043771, 45.507398369048794 ] } },
{ "type": "Feature", "properties": { "_uid_": 259, "osm_id": 3059991397, "name": "Nel Centro", "longitude": -122.68099254389701, "latitude": 45.514171215355198, "type": "restaurant", "layer": "2813 Southeast Colt Drive", "path": "\/Users\/jasonsankovic\/Downloads\/2813 Southeast Colt Drive.geojson" }, "geometry": { "type": "Point", "coordinates": [ -122.680992543896949, 45.514171215355233 ] } },
{ "type": "Feature", "properties": { "_uid_": 260, "osm_id": 4040891582, "name": "Garden Bar", "longitude": -122.67785059635899, "latitude": 45.511337481291001, "type": "restaurant", "layer": "2813 Southeast Colt Drive", "path": "\/Users\/jasonsankovic\/Downloads\/2813 Southeast Colt Drive.geojson" }, "geometry": { "type": "Point", "coordinates": [ -122.677850596359193, 45.511337481290987 ] } },
{ "type": "Feature", "properties": { "_uid_": 261, "osm_id": 355218818, "name": "Murata", "longitude": -122.67819743589, "latitude": 45.511846816100501, "type": "restaurant", "layer": "2813 Southeast Colt Drive", "path": "\/Users\/jasonsankovic\/Downloads\/2813 Southeast Colt Drive.geojson" }, "geometry": { "type": "Point", "coordinates": [ -122.678197435890411, 45.511846816100537 ] } },
{ "type": "Feature", "properties": { "_uid_": 262, "osm_id": 865275934, "name": "Morton's", "longitude": -122.67785652524, "latitude": 45.512887378265198, "type": "restaurant", "layer": "2813 Southeast Colt Drive", "path": "\/Users\/jasonsankovic\/Downloads\/2813 Southeast Colt Drive.geojson" }, "geometry": { "type": "Point", "coordinates": [ -122.677856525240074, 45.512887378265219 ] } },
{ "type": "Feature", "properties": { "_uid_": 263, "osm_id": 3923008992, "name": "Mika Sushi", "longitude": -122.67743746116, "latitude": 45.5129739964867, "type": "restaurant", "layer": "2813 Southeast Colt Drive", "path": "\/Users\/jasonsankovic\/Downloads\/2813 Southeast Colt Drive.geojson" }, "geometry": { "type": "Point", "coordinates": [ -122.677437461160039, 45.51297399648665 ] } },
{ "type": "Feature", "properties": { "_uid_": 264, "osm_id": 3921024913, "name": "Three Degrees", "longitude": -122.674134445692, "latitude": 45.511240158851301, "type": "restaurant", "layer": "2813 Southeast Colt Drive", "path": "\/Users\/jasonsankovic\/Downloads\/2813 Southeast Colt Drive.geojson" }, "geometry": { "type": "Point", "coordinates": [ -122.674134445691848, 45.511240158851322 ] } },
{ "type": "Feature", "properties": { "_uid_": 265, "osm_id": 4039392753, "name": "Truss", "longitude": -122.675994497319, "latitude": 45.512776776170902, "type": "restaurant", "layer": "2813 Southeast Colt Drive", "path": "\/Users\/jasonsankovic\/Downloads\/2813 Southeast Colt Drive.geojson" }, "geometry": { "type": "Point", "coordinates": [ -122.675994497319152, 45.512776776170938 ] } },
{ "type": "Feature", "properties": { "_uid_": 266, "osm_id": 355218908, "name": "Plaza Deli", "longitude": -122.675202542565, "latitude": 45.513111918103398, "type": "restaurant", "layer": "2813 Southeast Colt Drive", "path": "\/Users\/jasonsankovic\/Downloads\/2813 Southeast Colt Drive.geojson" }, "geometry": { "type": "Point", "coordinates": [ -122.675202542564676, 45.513111918103355 ] } },
{ "type": "Feature", "properties": { "_uid_": 430, "osm_id": 3091796526, "name": "Kinara Thai", "longitude": -122.69205278133801, "latitude": 45.5188734159604, "type": "restaurant", "layer": "2813 Southeast Colt Drive", "path": "\/Users\/jasonsankovic\/Downloads\/2813 Southeast Colt Drive.geojson" }, "geometry": { "type": "Point", "coordinates": [ -122.692052781338091, 45.518873415960371 ] } },
{ "type": "Feature", "properties": { "_uid_": 431, "osm_id": 4503790309, "name": "Gracie's", "longitude": -122.68758770521799, "latitude": 45.521036775898899, "type": "restaurant", "layer": "2813 Southeast Colt Drive", "path": "\/Users\/jasonsankovic\/Downloads\/2813 Southeast Colt Drive.geojson" }, "geometry": { "type": "Point", "coordinates": [ -122.687587705218363, 45.521036775898899 ] } },
{ "type": "Feature", "properties": { "_uid_": 432, "osm_id": 1967622859, "name": "Nancy's Kitchen", "longitude": -122.687542340297, "latitude": 45.526807405893202, "type": "restaurant", "layer": "2813 Southeast Colt Drive", "path": "\/Users\/jasonsankovic\/Downloads\/2813 Southeast Colt Drive.geojson" }, "geometry": { "type": "Point", "coordinates": [ -122.687542340296503, 45.526807405893152 ] } },
{ "type": "Feature", "properties": { "_uid_": 433, "osm_id": 663797646, "name": "Café Nell", "longitude": -122.692360544154, "latitude": 45.529300912284803, "type": "restaurant", "layer": "2813 Southeast Colt Drive", "path": "\/Users\/jasonsankovic\/Downloads\/2813 Southeast Colt Drive.geojson" }, "geometry": { "type": "Point", "coordinates": [ -122.692360544154397, 45.529300912284754 ] } },
{ "type": "Feature", "properties": { "_uid_": 434, "osm_id": 1859689515, "name": "Marrakesh", "longitude": -122.694817166962, "latitude": 45.531436371479103, "type": "restaurant", "layer": "2813 Southeast Colt Drive", "path": "\/Users\/jasonsankovic\/Downloads\/2813 Southeast Colt Drive.geojson" }, "geometry": { "type": "Point", "coordinates": [ -122.694817166961911, 45.531436371479145 ] } },
{ "type": "Feature", "properties": { "_uid_": 435, "osm_id": 2146069469, "name": "Joe's Cellar Cafe", "longitude": -122.694515872016, "latitude": 45.532569074630501, "type": "restaurant", "layer": "2813 Southeast Colt Drive", "path": "\/Users\/jasonsankovic\/Downloads\/2813 Southeast Colt Drive.geojson" }, "geometry": { "type": "Point", "coordinates": [ -122.6945158720156, 45.532569074630544 ] } },
{ "type": "Feature", "properties": { "_uid_": 436, "osm_id": 1973266710, "name": "Justa Pasta", "longitude": -122.69037463855599, "latitude": 45.532254311299198, "type": "restaurant", "layer": "2813 Southeast Colt Drive", "path": "\/Users\/jasonsankovic\/Downloads\/2813 Southeast Colt Drive.geojson" }, "geometry": { "type": "Point", "coordinates": [ -122.690374638555824, 45.532254311299226 ] } },
{ "type": "Feature", "properties": { "_uid_": 592, "osm_id": 4729974834, "name": "China Wok", "longitude": -122.53846242732, "latitude": 45.566733763205299, "type": "restaurant", "layer": "2813 Southeast Colt Drive", "path": "\/Users\/jasonsankovic\/Downloads\/2813 Southeast Colt Drive.geojson" }, "geometry": { "type": "Point", "coordinates": [ -122.538462427320454, 45.566733763205328 ] } },
{ "type": "Feature", "properties": { "_uid_": 593, "osm_id": 4661420676, "name": "Buffalo Wild Wings", "longitude": -122.561946275309, "latitude": 45.573762561785799, "type": "restaurant", "layer": "2813 Southeast Colt Drive", "path": "\/Users\/jasonsankovic\/Downloads\/2813 Southeast Colt Drive.geojson" }, "geometry": { "type": "Point", "coordinates": [ -122.561946275309438, 45.573762561785777 ] } },
{ "type": "Feature", "properties": { "_uid_": 620, "osm_id": 2698337405, "name": "Flying Pie Pizzeria", "longitude": -122.582970715714, "latitude": 45.519022967477603, "type": "restaurant", "layer": "2813 Southeast Colt Drive", "path": "\/Users\/jasonsankovic\/Downloads\/2813 Southeast Colt Drive.geojson" }, "geometry": { "type": "Point", "coordinates": [ -122.582970715713572, 45.519022967477646 ] } },
{ "type": "Feature", "properties": { "_uid_": 621, "osm_id": 2285921950, "name": "Bipartisan Cafe", "longitude": -122.582282785869, "latitude": 45.519279583359499, "type": "restaurant", "layer": "2813 Southeast Colt Drive", "path": "\/Users\/jasonsankovic\/Downloads\/2813 Southeast Colt Drive.geojson" }, "geometry": { "type": "Point", "coordinates": [ -122.582282785868983, 45.519279583359506 ] } },
{ "type": "Feature", "properties": { "_uid_": 622, "osm_id": 3009693836, "name": "The Country Cat", "longitude": -122.581668517878, "latitude": 45.519273918562398, "type": "restaurant", "layer": "2813 Southeast Colt Drive", "path": "\/Users\/jasonsankovic\/Downloads\/2813 Southeast Colt Drive.geojson" }, "geometry": { "type": "Point", "coordinates": [ -122.581668517877702, 45.519273918562384 ] } },
{ "type": "Feature", "properties": { "_uid_": 623, "osm_id": 2698212421, "name": "Ya Hala", "longitude": -122.581265533641, "latitude": 45.519235272042401, "type": "restaurant", "layer": "2813 Southeast Colt Drive", "path": "\/Users\/jasonsankovic\/Downloads\/2813 Southeast Colt Drive.geojson" }, "geometry": { "type": "Point", "coordinates": [ -122.581265533641243, 45.519235272042366 ] } },
{ "type": "Feature", "properties": { "_uid_": 624, "osm_id": 3522237287, "name": "The Observatory", "longitude": -122.580167612701, "latitude": 45.519264477232603, "type": "restaurant", "layer": "2813 Southeast Colt Drive", "path": "\/Users\/jasonsankovic\/Downloads\/2813 Southeast Colt Drive.geojson" }, "geometry": { "type": "Point", "coordinates": [ -122.58016761270099, 45.519264477232582 ] } },
{ "type": "Feature", "properties": { "_uid_": 625, "osm_id": 3662486227, "name": "Pizzeria Otto", "longitude": -122.59418151079601, "latitude": 45.546134002009602, "type": "restaurant", "layer": "2813 Southeast Colt Drive", "path": "\/Users\/jasonsankovic\/Downloads\/2813 Southeast Colt Drive.geojson" }, "geometry": { "type": "Point", "coordinates": [ -122.594181510796318, 45.546134002009602 ] } },
{ "type": "Feature", "properties": { "_uid_": 626, "osm_id": 4921327679, "name": "El Burrito Azteca", "longitude": -122.59376657896701, "latitude": 45.546296378007497, "type": "restaurant", "layer": "2813 Southeast Colt Drive", "path": "\/Users\/jasonsankovic\/Downloads\/2813 Southeast Colt Drive.geojson" }, "geometry": { "type": "Point", "coordinates": [ -122.59376657896658, 45.546296378007483 ] } },
{ "type": "Feature", "properties": { "_uid_": 627, "osm_id": 4921327677, "name": "Brick House Pizzeria", "longitude": -122.59351630832801, "latitude": 45.546367468474998, "type": "restaurant", "layer": "2813 Southeast Colt Drive", "path": "\/Users\/jasonsankovic\/Downloads\/2813 Southeast Colt Drive.geojson" }, "geometry": { "type": "Point", "coordinates": [ -122.593516308328432, 45.546367468474962 ] } },
{ "type": "Feature", "properties": { "_uid_": 628, "osm_id": 3970075205, "name": "Macau Chinese Seafood Restaurant", "longitude": -122.57931484200201, "latitude": 45.533146996160497, "type": "restaurant", "layer": "2813 Southeast Colt Drive", "path": "\/Users\/jasonsankovic\/Downloads\/2813 Southeast Colt Drive.geojson" }, "geometry": { "type": "Point", "coordinates": [ -122.579314842001764, 45.533146996160461 ] } },
{ "type": "Feature", "properties": { "_uid_": 629, "osm_id": 4283496089, "name": "Cameo Pancake & Steak", "longitude": -122.579482287971, "latitude": 45.552269865552901, "type": "restaurant", "layer": "2813 Southeast Colt Drive", "path": "\/Users\/jasonsankovic\/Downloads\/2813 Southeast Colt Drive.geojson" }, "geometry": { "type": "Point", "coordinates": [ -122.579482287970748, 45.552269865552923 ] } },
{ "type": "Feature", "properties": { "_uid_": 630, "osm_id": 3409812506, "name": "Pizza Hut", "longitude": -122.578057020941, "latitude": 45.553053282353503, "type": "restaurant", "layer": "2813 Southeast Colt Drive", "path": "\/Users\/jasonsankovic\/Downloads\/2813 Southeast Colt Drive.geojson" }, "geometry": { "type": "Point", "coordinates": [ -122.57805702094096, 45.553053282353503 ] } },
{ "type": "Feature", "properties": { "_uid_": 853, "osm_id": 4469424291, "name": "Izzy's Pizza", "longitude": -122.559008694499, "latitude": 45.532832991187902, "type": "restaurant", "layer": "2813 Southeast Colt Drive", "path": "\/Users\/jasonsankovic\/Downloads\/2813 Southeast Colt Drive.geojson" }, "geometry": { "type": "Point", "coordinates": [ -122.559008694498829, 45.532832991187909 ] } },
{ "type": "Feature", "properties": { "_uid_": 854, "osm_id": 4469424289, "name": "Ichi 15 Teriyaki", "longitude": -122.558638229276, "latitude": 45.532764778252698, "type": "restaurant", "layer": "2813 Southeast Colt Drive", "path": "\/Users\/jasonsankovic\/Downloads\/2813 Southeast Colt Drive.geojson" }, "geometry": { "type": "Point", "coordinates": [ -122.558638229275672, 45.532764778252663 ] } },
{ "type": "Feature", "properties": { "_uid_": 855, "osm_id": 5038028774, "name": "Siam Grill Thai Cuisine", "longitude": -122.55597391597399, "latitude": 45.533953269835997, "type": "restaurant", "layer": "2813 Southeast Colt Drive", "path": "\/Users\/jasonsankovic\/Downloads\/2813 Southeast Colt Drive.geojson" }, "geometry": { "type": "Point", "coordinates": [ -122.555973915974491, 45.533953269835969 ] } },
{ "type": "Feature", "properties": { "_uid_": 1053, "osm_id": 470111658, "name": "Costello's Travel Caffé", "longitude": -122.642436672239, "latitude": 45.534852283131499, "type": "restaurant", "layer": "2813 Southeast Colt Drive", "path": "\/Users\/jasonsankovic\/Downloads\/2813 Southeast Colt Drive.geojson" }, "geometry": { "type": "Point", "coordinates": [ -122.642436672239455, 45.534852283131478 ] } },
{ "type": "Feature", "properties": { "_uid_": 1054, "osm_id": 471773641, "name": "Meiji-En", "longitude": -122.64235088313001, "latitude": 45.534852283131499, "type": "restaurant", "layer": "2813 Southeast Colt Drive", "path": "\/Users\/jasonsankovic\/Downloads\/2813 Southeast Colt Drive.geojson" }, "geometry": { "type": "Point", "coordinates": [ -122.642350883129851, 45.534852283131478 ] } },
{ "type": "Feature", "properties": { "_uid_": 1055, "osm_id": 4439711593, "name": "Taco Pedaler", "longitude": -122.642407746487, "latitude": 45.535141988000703, "type": "restaurant", "layer": "2813 Southeast Colt Drive", "path": "\/Users\/jasonsankovic\/Downloads\/2813 Southeast Colt Drive.geojson" }, "geometry": { "type": "Point", "coordinates": [ -122.642407746487336, 45.535141988000746 ] } },
{ "type": "Feature", "properties": { "_uid_": 1056, "osm_id": 471782053, "name": "Cha Cha Cha Taqueria", "longitude": -122.63829112686599, "latitude": 45.535315281642298, "type": "restaurant", "layer": "2813 Southeast Colt Drive", "path": "\/Users\/jasonsankovic\/Downloads\/2813 Southeast Colt Drive.geojson" }, "geometry": { "type": "Point", "coordinates": [ -122.638291126866307, 45.535315281642276 ] } },
{ "type": "Feature", "properties": { "_uid_": 1057, "osm_id": 3686316614, "name": "Pieology", "longitude": -122.63134319713301, "latitude": 45.534983669886202, "type": "restaurant", "layer": "2813 Southeast Colt Drive", "path": "\/Users\/jasonsankovic\/Downloads\/2813 Southeast Colt Drive.geojson" }, "geometry": { "type": "Point", "coordinates": [ -122.631343197132807, 45.534983669886152 ] } },
{ "type": "Feature", "properties": { "_uid_": 1058, "osm_id": 3983434028, "name": "Lucca", "longitude": -122.64129554233401, "latitude": 45.548117775503897, "type": "restaurant", "layer": "2813 Southeast Colt Drive", "path": "\/Users\/jasonsankovic\/Downloads\/2813 Southeast Colt Drive.geojson" }, "geometry": { "type": "Point", "coordinates": [ -122.641295542334078, 45.548117775503925 ] } },
{ "type": "Feature", "properties": { "_uid_": 1230, "osm_id": 475360429, "name": "McMenamins", "longitude": -122.563869298838, "latitude": 45.517909881755699, "type": "restaurant", "layer": "2813 Southeast Colt Drive", "path": "\/Users\/jasonsankovic\/Downloads\/2813 Southeast Colt Drive.geojson" }, "geometry": { "type": "Point", "coordinates": [ -122.563869298838142, 45.517909881755685 ] } },
{ "type": "Feature", "properties": { "_uid_": 1231, "osm_id": 3353295295, "name": "Elmer's", "longitude": -122.563491916587, "latitude": 45.518723989931203, "type": "restaurant", "layer": "2813 Southeast Colt Drive", "path": "\/Users\/jasonsankovic\/Downloads\/2813 Southeast Colt Drive.geojson" }, "geometry": { "type": "Point", "coordinates": [ -122.563491916587282, 45.518723989931217 ] } },
{ "type": "Feature", "properties": { "_uid_": 1232, "osm_id": 495995622, "name": "Umenoki Japanese Restaurant", "longitude": -122.56304662170101, "latitude": 45.517566207999003, "type": "restaurant", "layer": "2813 Southeast Colt Drive", "path": "\/Users\/jasonsankovic\/Downloads\/2813 Southeast Colt Drive.geojson" }, "geometry": { "type": "Point", "coordinates": [ -122.563046621700963, 45.51756620799901 ] } },
{ "type": "Feature", "properties": { "_uid_": 1233, "osm_id": 3353299095, "name": "Baja Fresh", "longitude": -122.560081911769, "latitude": 45.518123008785501, "type": "restaurant", "layer": "2813 Southeast Colt Drive", "path": "\/Users\/jasonsankovic\/Downloads\/2813 Southeast Colt Drive.geojson" }, "geometry": { "type": "Point", "coordinates": [ -122.560081911768776, 45.518123008785473 ] } },
{ "type": "Feature", "properties": { "_uid_": 1234, "osm_id": 4005007405, "name": "Old Chicago", "longitude": -122.557389481199, "latitude": 45.518183308607803, "type": "restaurant", "layer": "2813 Southeast Colt Drive", "path": "\/Users\/jasonsankovic\/Downloads\/2813 Southeast Colt Drive.geojson" }, "geometry": { "type": "Point", "coordinates": [ -122.557389481199209, 45.518183308607817 ] } },
{ "type": "Feature", "properties": { "_uid_": 1417, "osm_id": 2513535571, "name": "Gramma's Corner Restaurant", "longitude": -122.641998743538, "latitude": 45.444113166098198, "type": "restaurant", "layer": "2813 Southeast Colt Drive", "path": "\/Users\/jasonsankovic\/Downloads\/2813 Southeast Colt Drive.geojson" }, "geometry": { "type": "Point", "coordinates": [ -122.641998743538466, 45.444113166098184 ] } },
{ "type": "Feature", "properties": { "_uid_": 1418, "osm_id": 4870057195, "name": "Killer Burger", "longitude": -122.646877314183, "latitude": 45.459621218817603, "type": "restaurant", "layer": "2813 Southeast Colt Drive", "path": "\/Users\/jasonsankovic\/Downloads\/2813 Southeast Colt Drive.geojson" }, "geometry": { "type": "Point", "coordinates": [ -122.646877314183456, 45.459621218817638 ] } },
{ "type": "Feature", "properties": { "_uid_": 1708, "osm_id": 3686007671, "name": "Enat Kitchen", "longitude": -122.669738809344, "latitude": 45.562572301458999, "type": "restaurant", "layer": "2813 Southeast Colt Drive", "path": "\/Users\/jasonsankovic\/Downloads\/2813 Southeast Colt Drive.geojson" }, "geometry": { "type": "Point", "coordinates": [ -122.669738809343599, 45.562572301459014 ] } },
{ "type": "Feature", "properties": { "_uid_": 1709, "osm_id": 2307235177, "name": "Sparky's", "longitude": -122.661056861617, "latitude": 45.577777383626398, "type": "restaurant", "layer": "2813 Southeast Colt Drive", "path": "\/Users\/jasonsankovic\/Downloads\/2813 Southeast Colt Drive.geojson" }, "geometry": { "type": "Point", "coordinates": [ -122.661056861617183, 45.577777383626412 ] } },
{ "type": "Feature", "properties": { "_uid_": 1862, "osm_id": 566882063, "name": "Pizza Bella", "longitude": -122.67549853745101, "latitude": 45.407286784178098, "type": "restaurant", "layer": "2813 Southeast Colt Drive", "path": "\/Users\/jasonsankovic\/Downloads\/2813 Southeast Colt Drive.geojson" }, "geometry": { "type": "Point", "coordinates": [ -122.675498537450778, 45.407286784178062 ] } },
{ "type": "Feature", "properties": { "_uid_": 1863, "osm_id": 566882684, "name": "Holy Taco", "longitude": -122.664257558974, "latitude": 45.418494757711997, "type": "restaurant", "layer": "2813 Southeast Colt Drive", "path": "\/Users\/jasonsankovic\/Downloads\/2813 Southeast Colt Drive.geojson" }, "geometry": { "type": "Point", "coordinates": [ -122.664257558974484, 45.418494757711962 ] } },
{ "type": "Feature", "properties": { "_uid_": 1864, "osm_id": 4712538589, "name": "Five Spice Seafood", "longitude": -122.66406361270499, "latitude": 45.418241591994203, "type": "restaurant", "layer": "2813 Southeast Colt Drive", "path": "\/Users\/jasonsankovic\/Downloads\/2813 Southeast Colt Drive.geojson" }, "geometry": { "type": "Point", "coordinates": [ -122.664063612704666, 45.418241591994175 ] } },
{ "type": "Feature", "properties": { "_uid_": 1865, "osm_id": 4862716920, "name": "Clarke's", "longitude": -122.66502894230899, "latitude": 45.420198662725902, "type": "restaurant", "layer": "2813 Southeast Colt Drive", "path": "\/Users\/jasonsankovic\/Downloads\/2813 Southeast Colt Drive.geojson" }, "geometry": { "type": "Point", "coordinates": [ -122.665028942308979, 45.420198662725923 ] } },
{ "type": "Feature", "properties": { "_uid_": 1992, "osm_id": 4614660701, "name": "Three Mermaids Public House", "longitude": -122.75164791560201, "latitude": 45.3915033636573, "type": "restaurant", "layer": "2813 Southeast Colt Drive", "path": "\/Users\/jasonsankovic\/Downloads\/2813 Southeast Colt Drive.geojson" }, "geometry": { "type": "Point", "coordinates": [ -122.751647915601851, 45.39150336365725 ] } },
{ "type": "Feature", "properties": { "_uid_": 1993, "osm_id": 921103340, "name": "Claim Jumper", "longitude": -122.74956364448001, "latitude": 45.392080083478398, "type": "restaurant", "layer": "2813 Southeast Colt Drive", "path": "\/Users\/jasonsankovic\/Downloads\/2813 Southeast Colt Drive.geojson" }, "geometry": { "type": "Point", "coordinates": [ -122.749563644479636, 45.392080083478426 ] } },
{ "type": "Feature", "properties": { "_uid_": 2136, "osm_id": 2018625451, "name": "Giovanni's Italian Restaurant", "longitude": -122.803599195282, "latitude": 45.487394616487997, "type": "restaurant", "layer": "2813 Southeast Colt Drive", "path": "\/Users\/jasonsankovic\/Downloads\/2813 Southeast Colt Drive.geojson" }, "geometry": { "type": "Point", "coordinates": [ -122.803599195281535, 45.487394616487954 ] } },
{ "type": "Feature", "properties": { "_uid_": 2137, "osm_id": 2300370221, "name": "Qdoba", "longitude": -122.796127008748, "latitude": 45.486141658322197, "type": "restaurant", "layer": "2813 Southeast Colt Drive", "path": "\/Users\/jasonsankovic\/Downloads\/2813 Southeast Colt Drive.geojson" }, "geometry": { "type": "Point", "coordinates": [ -122.796127008748229, 45.486141658322161 ] } },
{ "type": "Feature", "properties": { "_uid_": 2138, "osm_id": 937436120, "name": "Izzy's Pizza", "longitude": -122.799455446539, "latitude": 45.488244810982401, "type": "restaurant", "layer": "2813 Southeast Colt Drive", "path": "\/Users\/jasonsankovic\/Downloads\/2813 Southeast Colt Drive.geojson" }, "geometry": { "type": "Point", "coordinates": [ -122.799455446538943, 45.488244810982444 ] } },
{ "type": "Feature", "properties": { "_uid_": 2139, "osm_id": 2985221202, "name": "Wok 'n Guys", "longitude": -122.79678762980799, "latitude": 45.486313276506301, "type": "restaurant", "layer": "2813 Southeast Colt Drive", "path": "\/Users\/jasonsankovic\/Downloads\/2813 Southeast Colt Drive.geojson" }, "geometry": { "type": "Point", "coordinates": [ -122.796787629808165, 45.486313276506273 ] } },
{ "type": "Feature", "properties": { "_uid_": 2140, "osm_id": 2300370353, "name": "Noodles & Company", "longitude": -122.796383028604, "latitude": 45.486312394799498, "type": "restaurant", "layer": "2813 Southeast Colt Drive", "path": "\/Users\/jasonsankovic\/Downloads\/2813 Southeast Colt Drive.geojson" }, "geometry": { "type": "Point", "coordinates": [ -122.796383028604197, 45.486312394799519 ] } },
{ "type": "Feature", "properties": { "_uid_": 2141, "osm_id": 4503712835, "name": "Asal Café", "longitude": -122.779740300661, "latitude": 45.486810808837298, "type": "restaurant", "layer": "2813 Southeast Colt Drive", "path": "\/Users\/jasonsankovic\/Downloads\/2813 Southeast Colt Drive.geojson" }, "geometry": { "type": "Point", "coordinates": [ -122.77974030066143, 45.486810808837269 ] } },
{ "type": "Feature", "properties": { "_uid_": 2142, "osm_id": 4503712838, "name": "Koreana", "longitude": -122.78030363417599, "latitude": 45.486854012070303, "type": "restaurant", "layer": "2813 Southeast Colt Drive", "path": "\/Users\/jasonsankovic\/Downloads\/2813 Southeast Colt Drive.geojson" }, "geometry": { "type": "Point", "coordinates": [ -122.780303634176107, 45.486854012070296 ] } },
{ "type": "Feature", "properties": { "_uid_": 2250, "osm_id": 4712567240, "name": "Pizza Mia", "longitude": -122.67610031885999, "latitude": 45.603279290474397, "type": "restaurant", "layer": "2813 Southeast Colt Drive", "path": "\/Users\/jasonsankovic\/Downloads\/2813 Southeast Colt Drive.geojson" }, "geometry": { "type": "Point", "coordinates": [ -122.676100318859611, 45.60327929047444 ] } },
{ "type": "Feature", "properties": { "_uid_": 2251, "osm_id": 4702902153, "name": "Cascade Grill", "longitude": -122.668820102303, "latitude": 45.597364401800803, "type": "restaurant", "layer": "2813 Southeast Colt Drive", "path": "\/Users\/jasonsankovic\/Downloads\/2813 Southeast Colt Drive.geojson" }, "geometry": { "type": "Point", "coordinates": [ -122.668820102302533, 45.597364401800789 ] } },
{ "type": "Feature", "properties": { "_uid_": 2252, "osm_id": 4206264289, "name": "The Deck", "longitude": -122.63552808871501, "latitude": 45.601098291451699, "type": "restaurant", "layer": "2813 Southeast Colt Drive", "path": "\/Users\/jasonsankovic\/Downloads\/2813 Southeast Colt Drive.geojson" }, "geometry": { "type": "Point", "coordinates": [ -122.635528088715418, 45.601098291451656 ] } },
{ "type": "Feature", "properties": { "_uid_": 2346, "osm_id": 4523949789, "name": "Pieology", "longitude": -122.777871715039, "latitude": 45.4472836738898, "type": "restaurant", "layer": "2813 Southeast Colt Drive", "path": "\/Users\/jasonsankovic\/Downloads\/2813 Southeast Colt Drive.geojson" }, "geometry": { "type": "Point", "coordinates": [ -122.777871715038927, 45.447283673889821 ] } },
{ "type": "Feature", "properties": { "_uid_": 2347, "osm_id": 1137097979, "name": "Thirsty Lion Pub & Grill", "longitude": -122.777071944941, "latitude": 45.445624010348098, "type": "restaurant", "layer": "2813 Southeast Colt Drive", "path": "\/Users\/jasonsankovic\/Downloads\/2813 Southeast Colt Drive.geojson" }, "geometry": { "type": "Point", "coordinates": [ -122.777071944941497, 45.445624010348105 ] } },
{ "type": "Feature", "properties": { "_uid_": 2348, "osm_id": 3430995993, "name": "Panera Bread", "longitude": -122.776777926349, "latitude": 45.446364984873497, "type": "restaurant", "layer": "2813 Southeast Colt Drive", "path": "\/Users\/jasonsankovic\/Downloads\/2813 Southeast Colt Drive.geojson" }, "geometry": { "type": "Point", "coordinates": [ -122.776777926348998, 45.446364984873533 ] } },
{ "type": "Feature", "properties": { "_uid_": 2349, "osm_id": 4523950089, "name": "Costa Vida", "longitude": -122.77770938946701, "latitude": 45.447288589658299, "type": "restaurant", "layer": "2813 Southeast Colt Drive", "path": "\/Users\/jasonsankovic\/Downloads\/2813 Southeast Colt Drive.geojson" }, "geometry": { "type": "Point", "coordinates": [ -122.777709389467091, 45.447288589658264 ] } },
{ "type": "Feature", "properties": { "_uid_": 2350, "osm_id": 566890171, "name": "The Cheesecake Factory", "longitude": -122.782367513541, "latitude": 45.451142294258197, "type": "restaurant", "layer": "2813 Southeast Colt Drive", "path": "\/Users\/jasonsankovic\/Downloads\/2813 Southeast Colt Drive.geojson" }, "geometry": { "type": "Point", "coordinates": [ -122.782367513541359, 45.451142294258247 ] } },
{ "type": "Feature", "properties": { "_uid_": 2565, "osm_id": 566889675, "name": "The Stockpot Broiler", "longitude": -122.77937935758, "latitude": 45.459958315368198, "type": "restaurant", "layer": "2813 Southeast Colt Drive", "path": "\/Users\/jasonsankovic\/Downloads\/2813 Southeast Colt Drive.geojson" }, "geometry": { "type": "Point", "coordinates": [ -122.779379357580254, 45.459958315368191 ] } },
{ "type": "Feature", "properties": { "_uid_": 2702, "osm_id": 3972510625, "name": "27 Ichi Teriyaki", "longitude": -122.677079213025, "latitude": 45.627129178301303, "type": "restaurant", "layer": "2813 Southeast Colt Drive", "path": "\/Users\/jasonsankovic\/Downloads\/2813 Southeast Colt Drive.geojson" }, "geometry": { "type": "Point", "coordinates": [ -122.677079213024726, 45.627129178301317 ] } },
{ "type": "Feature", "properties": { "_uid_": 2703, "osm_id": 3972510640, "name": "Tiger's Garden", "longitude": -122.67462923775, "latitude": 45.627420480517003, "type": "restaurant", "layer": "2813 Southeast Colt Drive", "path": "\/Users\/jasonsankovic\/Downloads\/2813 Southeast Colt Drive.geojson" }, "geometry": { "type": "Point", "coordinates": [ -122.674629237750338, 45.627420480517017 ] } },
{ "type": "Feature", "properties": { "_uid_": 2704, "osm_id": 4331337981, "name": "Woody's Tacos", "longitude": -122.67356949521, "latitude": 45.629059584794597, "type": "restaurant", "layer": "2813 Southeast Colt Drive", "path": "\/Users\/jasonsankovic\/Downloads\/2813 Southeast Colt Drive.geojson" }, "geometry": { "type": "Point", "coordinates": [ -122.673569495209662, 45.629059584794568 ] } },
{ "type": "Feature", "properties": { "_uid_": 2705, "osm_id": 4331337974, "name": "Orchid Restaurant & Bar", "longitude": -122.673518470902, "latitude": 45.629239310429, "type": "restaurant", "layer": "2813 Southeast Colt Drive", "path": "\/Users\/jasonsankovic\/Downloads\/2813 Southeast Colt Drive.geojson" }, "geometry": { "type": "Point", "coordinates": [ -122.673518470901527, 45.62923931042905 ] } },
{ "type": "Feature", "properties": { "_uid_": 2706, "osm_id": 4006268692, "name": "Mama's Kitchen", "longitude": -122.67148360712, "latitude": 45.626171017656503, "type": "restaurant", "layer": "2813 Southeast Colt Drive", "path": "\/Users\/jasonsankovic\/Downloads\/2813 Southeast Colt Drive.geojson" }, "geometry": { "type": "Point", "coordinates": [ -122.671483607119939, 45.626171017656482 ] } },
{ "type": "Feature", "properties": { "_uid_": 2707, "osm_id": 4032224842, "name": "Luxe", "longitude": -122.672980110552, "latitude": 45.626581058641598, "type": "restaurant", "layer": "2813 Southeast Colt Drive", "path": "\/Users\/jasonsankovic\/Downloads\/2813 Southeast Colt Drive.geojson" }, "geometry": { "type": "Point", "coordinates": [ -122.672980110551762, 45.62658105864157 ] } },
{ "type": "Feature", "properties": { "_uid_": 2708, "osm_id": 3972697308, "name": "Joe Brown's", "longitude": -122.67145288473699, "latitude": 45.627684077249199, "type": "restaurant", "layer": "2813 Southeast Colt Drive", "path": "\/Users\/jasonsankovic\/Downloads\/2813 Southeast Colt Drive.geojson" }, "geometry": { "type": "Point", "coordinates": [ -122.671452884737235, 45.627684077249206 ] } },
{ "type": "Feature", "properties": { "_uid_": 2709, "osm_id": 3972697309, "name": "Oriental Fast Bowl", "longitude": -122.67141856909301, "latitude": 45.628302167776098, "type": "restaurant", "layer": "2813 Southeast Colt Drive", "path": "\/Users\/jasonsankovic\/Downloads\/2813 Southeast Colt Drive.geojson" }, "geometry": { "type": "Point", "coordinates": [ -122.671418569093376, 45.628302167776091 ] } },
{ "type": "Feature", "properties": { "_uid_": 2710, "osm_id": 3972697310, "name": "Vinnie's Pizza", "longitude": -122.67184481969601, "latitude": 45.628923392458503, "type": "restaurant", "layer": "2813 Southeast Colt Drive", "path": "\/Users\/jasonsankovic\/Downloads\/2813 Southeast Colt Drive.geojson" }, "geometry": { "type": "Point", "coordinates": [ -122.671844819695693, 45.628923392458461 ] } },
{ "type": "Feature", "properties": { "_uid_": 2711, "osm_id": 4462682490, "name": "Jerusalem Cafe", "longitude": -122.67120737517, "latitude": 45.628936898631999, "type": "restaurant", "layer": "2813 Southeast Colt Drive", "path": "\/Users\/jasonsankovic\/Downloads\/2813 Southeast Colt Drive.geojson" }, "geometry": { "type": "Point", "coordinates": [ -122.671207375170084, 45.628936898632041 ] } },
{ "type": "Feature", "properties": { "_uid_": 2712, "osm_id": 366029248, "name": "Hidden House", "longitude": -122.67192997998499, "latitude": 45.631300805789699, "type": "restaurant", "layer": "2813 Southeast Colt Drive", "path": "\/Users\/jasonsankovic\/Downloads\/2813 Southeast Colt Drive.geojson" }, "geometry": { "type": "Point", "coordinates": [ -122.671929979984611, 45.631300805789664 ] } },
{ "type": "Feature", "properties": { "_uid_": 2713, "osm_id": 4059237677, "name": "Eatery at the Grant House", "longitude": -122.66009907786101, "latitude": 45.6281787889329, "type": "restaurant", "layer": "2813 Southeast Colt Drive", "path": "\/Users\/jasonsankovic\/Downloads\/2813 Southeast Colt Drive.geojson" }, "geometry": { "type": "Point", "coordinates": [ -122.660099077861233, 45.628178788932921 ] } },
{ "type": "Feature", "properties": { "_uid_": 2848, "osm_id": 4814577623, "name": "Mio Sushi", "longitude": -122.69527440944201, "latitude": 45.5628560144037, "type": "restaurant", "layer": "2813 Southeast Colt Drive", "path": "\/Users\/jasonsankovic\/Downloads\/2813 Southeast Colt Drive.geojson" }, "geometry": { "type": "Point", "coordinates": [ -122.695274409441524, 45.5628560144037 ] } },
{ "type": "Feature", "properties": { "_uid_": 2849, "osm_id": 2307235176, "name": "Thai Ginger", "longitude": -122.687927178564, "latitude": 45.569592313653303, "type": "restaurant", "layer": "2813 Southeast Colt Drive", "path": "\/Users\/jasonsankovic\/Downloads\/2813 Southeast Colt Drive.geojson" }, "geometry": { "type": "Point", "coordinates": [ -122.687927178564223, 45.569592313653303 ] } },
{ "type": "Feature", "properties": { "_uid_": 2850, "osm_id": 2307235175, "name": "El Burrito Azteca", "longitude": -122.687175468334, "latitude": 45.569764117616899, "type": "restaurant", "layer": "2813 Southeast Colt Drive", "path": "\/Users\/jasonsankovic\/Downloads\/2813 Southeast Colt Drive.geojson" }, "geometry": { "type": "Point", "coordinates": [ -122.687175468334488, 45.56976411761687 ] } },
{ "type": "Feature", "properties": { "_uid_": 2851, "osm_id": 4326185917, "name": "Eddie's Flat Iron PIzza", "longitude": -122.680048414533, "latitude": 45.562816706001001, "type": "restaurant", "layer": "2813 Southeast Colt Drive", "path": "\/Users\/jasonsankovic\/Downloads\/2813 Southeast Colt Drive.geojson" }, "geometry": { "type": "Point", "coordinates": [ -122.680048414533331, 45.562816706000973 ] } },
{ "type": "Feature", "properties": { "_uid_": 2852, "osm_id": 1711111918, "name": "Nite Hawk", "longitude": -122.682387627533, "latitude": 45.5695220071946, "type": "restaurant", "layer": "2813 Southeast Colt Drive", "path": "\/Users\/jasonsankovic\/Downloads\/2813 Southeast Colt Drive.geojson" }, "geometry": { "type": "Point", "coordinates": [ -122.682387627533188, 45.569522007194578 ] } },
{ "type": "Feature", "properties": { "_uid_": 2853, "osm_id": 5080320067, "name": "Po'Shines Café de la Soul", "longitude": -122.687134684821, "latitude": 45.582266790303599, "type": "restaurant", "layer": "2813 Southeast Colt Drive", "path": "\/Users\/jasonsankovic\/Downloads\/2813 Southeast Colt Drive.geojson" }, "geometry": { "type": "Point", "coordinates": [ -122.687134684820563, 45.582266790303564 ] } },
{ "type": "Feature", "properties": { "_uid_": 3046, "osm_id": 3983330600, "name": "Sizzle Pie", "longitude": -122.664222524678, "latitude": 45.5359082136899, "type": "restaurant", "layer": "2813 Southeast Colt Drive", "path": "\/Users\/jasonsankovic\/Downloads\/2813 Southeast Colt Drive.geojson" }, "geometry": { "type": "Point", "coordinates": [ -122.664222524678408, 45.535908213689915 ] } },
{ "type": "Feature", "properties": { "_uid_": 3047, "osm_id": 3983330601, "name": "Pine State Biscuits", "longitude": -122.664198180334, "latitude": 45.535945779056398, "type": "restaurant", "layer": "2813 Southeast Colt Drive", "path": "\/Users\/jasonsankovic\/Downloads\/2813 Southeast Colt Drive.geojson" }, "geometry": { "type": "Point", "coordinates": [ -122.664198180334211, 45.53594577905637 ] } },
{ "type": "Feature", "properties": { "_uid_": 3048, "osm_id": 4478203548, "name": "Stanford's Restaurant & Bar", "longitude": -122.65585139404, "latitude": 45.531763473320801, "type": "restaurant", "layer": "2813 Southeast Colt Drive", "path": "\/Users\/jasonsankovic\/Downloads\/2813 Southeast Colt Drive.geojson" }, "geometry": { "type": "Point", "coordinates": [ -122.655851394040283, 45.531763473320773 ] } },
{ "type": "Feature", "properties": { "_uid_": 3049, "osm_id": 4277454128, "name": "Taste of Bangkok", "longitude": -122.659225915405, "latitude": 45.534674709165898, "type": "restaurant", "layer": "2813 Southeast Colt Drive", "path": "\/Users\/jasonsankovic\/Downloads\/2813 Southeast Colt Drive.geojson" }, "geometry": { "type": "Point", "coordinates": [ -122.659225915405074, 45.534674709165863 ] } },
{ "type": "Feature", "properties": { "_uid_": 3050, "osm_id": 2285929032, "name": "Schmizza Pub & Grub", "longitude": -122.658760588088, "latitude": 45.534940000184697, "type": "restaurant", "layer": "2813 Southeast Colt Drive", "path": "\/Users\/jasonsankovic\/Downloads\/2813 Southeast Colt Drive.geojson" }, "geometry": { "type": "Point", "coordinates": [ -122.658760588087901, 45.534940000184697 ] } },
{ "type": "Feature", "properties": { "_uid_": 3051, "osm_id": 472581313, "name": "Village Inn Pancake House", "longitude": -122.65584744145301, "latitude": 45.534683770359798, "type": "restaurant", "layer": "2813 Southeast Colt Drive", "path": "\/Users\/jasonsankovic\/Downloads\/2813 Southeast Colt Drive.geojson" }, "geometry": { "type": "Point", "coordinates": [ -122.655847441453048, 45.53468377035982 ] } },
{ "type": "Feature", "properties": { "_uid_": 3052, "osm_id": 664314337, "name": "Prime Rib & Chocolate Cake", "longitude": -122.653108208657, "latitude": 45.534590893052503, "type": "restaurant", "layer": "2813 Southeast Colt Drive", "path": "\/Users\/jasonsankovic\/Downloads\/2813 Southeast Colt Drive.geojson" }, "geometry": { "type": "Point", "coordinates": [ -122.653108208657187, 45.534590893052496 ] } },
{ "type": "Feature", "properties": { "_uid_": 3053, "osm_id": 4563881377, "name": "Namaste", "longitude": -122.651343737776, "latitude": 45.534477313210097, "type": "restaurant", "layer": "2813 Southeast Colt Drive", "path": "\/Users\/jasonsankovic\/Downloads\/2813 Southeast Colt Drive.geojson" }, "geometry": { "type": "Point", "coordinates": [ -122.651343737776116, 45.534477313210061 ] } },
{ "type": "Feature", "properties": { "_uid_": 3054, "osm_id": 1235424316, "name": "Chai Yo", "longitude": -122.651149791506, "latitude": 45.535205289952003, "type": "restaurant", "layer": "2813 Southeast Colt Drive", "path": "\/Users\/jasonsankovic\/Downloads\/2813 Southeast Colt Drive.geojson" }, "geometry": { "type": "Point", "coordinates": [ -122.651149791506271, 45.535205289952046 ] } },
{ "type": "Feature", "properties": { "_uid_": 3055, "osm_id": 928634914, "name": "Petisco", "longitude": -122.65106328374399, "latitude": 45.535205478725103, "type": "restaurant", "layer": "2813 Southeast Colt Drive", "path": "\/Users\/jasonsankovic\/Downloads\/2813 Southeast Colt Drive.geojson" }, "geometry": { "type": "Point", "coordinates": [ -122.651063283744421, 45.535205478725146 ] } },
{ "type": "Feature", "properties": { "_uid_": 3056, "osm_id": 4840867459, "name": "Aztec Willie & Joey Rose Taqueria", "longitude": -122.65028498338199, "latitude": 45.535221209815298, "type": "restaurant", "layer": "2813 Southeast Colt Drive", "path": "\/Users\/jasonsankovic\/Downloads\/2813 Southeast Colt Drive.geojson" }, "geometry": { "type": "Point", "coordinates": [ -122.650284983382249, 45.535221209815255 ] } },
{ "type": "Feature", "properties": { "_uid_": 3057, "osm_id": 3387869693, "name": "Cadillac Cafe", "longitude": -122.64745430209, "latitude": 45.535178861710698, "type": "restaurant", "layer": "2813 Southeast Colt Drive", "path": "\/Users\/jasonsankovic\/Downloads\/2813 Southeast Colt Drive.geojson" }, "geometry": { "type": "Point", "coordinates": [ -122.647454302090452, 45.535178861710662 ] } },
{ "type": "Feature", "properties": { "_uid_": 3058, "osm_id": 4591918160, "name": "Thai Pod", "longitude": -122.64551591737001, "latitude": 45.535151174968298, "type": "restaurant", "layer": "2813 Southeast Colt Drive", "path": "\/Users\/jasonsankovic\/Downloads\/2813 Southeast Colt Drive.geojson" }, "geometry": { "type": "Point", "coordinates": [ -122.645515917370389, 45.535151174968284 ] } },
{ "type": "Feature", "properties": { "_uid_": 3272, "osm_id": 4177437848, "name": "Sushi Land Marinepolis", "longitude": -122.57633719633, "latitude": 45.432525866816498, "type": "restaurant", "layer": "2813 Southeast Colt Drive", "path": "\/Users\/jasonsankovic\/Downloads\/2813 Southeast Colt Drive.geojson" }, "geometry": { "type": "Point", "coordinates": [ -122.576337196329504, 45.43252586681654 ] } },
{ "type": "Feature", "properties": { "_uid_": 3273, "osm_id": 4177437847, "name": "Stanford's", "longitude": -122.576355971119, "latitude": 45.432879767558902, "type": "restaurant", "layer": "2813 Southeast Colt Drive", "path": "\/Users\/jasonsankovic\/Downloads\/2813 Southeast Colt Drive.geojson" }, "geometry": { "type": "Point", "coordinates": [ -122.576355971118943, 45.432879767558916 ] } },
{ "type": "Feature", "properties": { "_uid_": 3274, "osm_id": 4173741218, "name": "Dave & Buster's", "longitude": -122.575131926713, "latitude": 45.434799391415503, "type": "restaurant", "layer": "2813 Southeast Colt Drive", "path": "\/Users\/jasonsankovic\/Downloads\/2813 Southeast Colt Drive.geojson" }, "geometry": { "type": "Point", "coordinates": [ -122.575131926712785, 45.43479939141546 ] } },
{ "type": "Feature", "properties": { "_uid_": 3275, "osm_id": 3157297361, "name": "Ram Restaurant and Brewhouse", "longitude": -122.571570376106, "latitude": 45.433633075785899, "type": "restaurant", "layer": "2813 Southeast Colt Drive", "path": "\/Users\/jasonsankovic\/Downloads\/2813 Southeast Colt Drive.geojson" }, "geometry": { "type": "Point", "coordinates": [ -122.571570376105868, 45.433633075785927 ] } },
{ "type": "Feature", "properties": { "_uid_": 3276, "osm_id": 1391691099, "name": "Claim Jumper", "longitude": -122.57061690426301, "latitude": 45.433783988375701, "type": "restaurant", "layer": "2813 Southeast Colt Drive", "path": "\/Users\/jasonsankovic\/Downloads\/2813 Southeast Colt Drive.geojson" }, "geometry": { "type": "Point", "coordinates": [ -122.570616904263304, 45.43378398837573 ] } },
{ "type": "Feature", "properties": { "_uid_": 3277, "osm_id": 323588282, "name": "Gustav's", "longitude": -122.564074833375, "latitude": 45.431158467802298, "type": "restaurant", "layer": "2813 Southeast Colt Drive", "path": "\/Users\/jasonsankovic\/Downloads\/2813 Southeast Colt Drive.geojson" }, "geometry": { "type": "Point", "coordinates": [ -122.564074833375159, 45.431158467802348 ] } },
{ "type": "Feature", "properties": { "_uid_": 3278, "osm_id": 4188234491, "name": "Pieology", "longitude": -122.572439945301, "latitude": 45.4343517035513, "type": "restaurant", "layer": "2813 Southeast Colt Drive", "path": "\/Users\/jasonsankovic\/Downloads\/2813 Southeast Colt Drive.geojson" }, "geometry": { "type": "Point", "coordinates": [ -122.572439945300886, 45.434351703551322 ] } },
{ "type": "Feature", "properties": { "_uid_": 3279, "osm_id": 4894074408, "name": "Old Chicago Pizza & Brewery", "longitude": -122.579899645252, "latitude": 45.441532561635697, "type": "restaurant", "layer": "2813 Southeast Colt Drive", "path": "\/Users\/jasonsankovic\/Downloads\/2813 Southeast Colt Drive.geojson" }, "geometry": { "type": "Point", "coordinates": [ -122.579899645251743, 45.441532561635725 ] } },
{ "type": "Feature", "properties": { "_uid_": 3280, "osm_id": 5134743998, "name": "Best Buffet", "longitude": -122.579938182977, "latitude": 45.443243460621702, "type": "restaurant", "layer": "2813 Southeast Colt Drive", "path": "\/Users\/jasonsankovic\/Downloads\/2813 Southeast Colt Drive.geojson" }, "geometry": { "type": "Point", "coordinates": [ -122.579938182977429, 45.443243460621666 ] } },
{ "type": "Feature", "properties": { "_uid_": 3281, "osm_id": 5134744000, "name": "Pizza Hut", "longitude": -122.579484533759, "latitude": 45.444688277399699, "type": "restaurant", "layer": "2813 Southeast Colt Drive", "path": "\/Users\/jasonsankovic\/Downloads\/2813 Southeast Colt Drive.geojson" }, "geometry": { "type": "Point", "coordinates": [ -122.579484533758958, 45.444688277399734 ] } },
{ "type": "Feature", "properties": { "_uid_": 3282, "osm_id": 4999084840, "name": "Sushi & Moki", "longitude": -122.57723236751001, "latitude": 45.444542499056901, "type": "restaurant", "layer": "2813 Southeast Colt Drive", "path": "\/Users\/jasonsankovic\/Downloads\/2813 Southeast Colt Drive.geojson" }, "geometry": { "type": "Point", "coordinates": [ -122.577232367510121, 45.444542499056865 ] } },
{ "type": "Feature", "properties": { "_uid_": 3283, "osm_id": 5134680711, "name": "Sunny's Diner", "longitude": -122.57936883075, "latitude": 45.450934270255402, "type": "restaurant", "layer": "2813 Southeast Colt Drive", "path": "\/Users\/jasonsankovic\/Downloads\/2813 Southeast Colt Drive.geojson" }, "geometry": { "type": "Point", "coordinates": [ -122.579368830750354, 45.450934270255409 ] } },
{ "type": "Feature", "properties": { "_uid_": 3526, "osm_id": 3720649511, "name": "Daruma sushi + saké", "longitude": -122.620021639776, "latitude": 45.548589912466397, "type": "restaurant", "layer": "2813 Southeast Colt Drive", "path": "\/Users\/jasonsankovic\/Downloads\/2813 Southeast Colt Drive.geojson" }, "geometry": { "type": "Point", "coordinates": [ -122.62002163977553, 45.548589912466419 ] } },
{ "type": "Feature", "properties": { "_uid_": 3527, "osm_id": 3994290775, "name": "McPeet's", "longitude": -122.616973206859, "latitude": 45.5483950817448, "type": "restaurant", "layer": "2813 Southeast Colt Drive", "path": "\/Users\/jasonsankovic\/Downloads\/2813 Southeast Colt Drive.geojson" }, "geometry": { "type": "Point", "coordinates": [ -122.616973206858873, 45.548395081744765 ] } },
{ "type": "Feature", "properties": { "_uid_": 3528, "osm_id": 3233723861, "name": "The Spare Room", "longitude": -122.620204896093, "latitude": 45.558074967483698, "type": "restaurant", "layer": "2813 Southeast Colt Drive", "path": "\/Users\/jasonsankovic\/Downloads\/2813 Southeast Colt Drive.geojson" }, "geometry": { "type": "Point", "coordinates": [ -122.620204896093497, 45.558074967483726 ] } },
{ "type": "Feature", "properties": { "_uid_": 3529, "osm_id": 2694266978, "name": "Fire On the Mountain", "longitude": -122.604940093965, "latitude": 45.54804316429, "type": "restaurant", "layer": "2813 Southeast Colt Drive", "path": "\/Users\/jasonsankovic\/Downloads\/2813 Southeast Colt Drive.geojson" }, "geometry": { "type": "Point", "coordinates": [ -122.604940093965041, 45.54804316428995 ] } },
{ "type": "Feature", "properties": { "_uid_": 3665, "osm_id": 3980934171, "name": "The Bulgogi", "longitude": -122.619237680027, "latitude": 45.536258508184901, "type": "restaurant", "layer": "2813 Southeast Colt Drive", "path": "\/Users\/jasonsankovic\/Downloads\/2813 Southeast Colt Drive.geojson" }, "geometry": { "type": "Point", "coordinates": [ -122.619237680027084, 45.536258508184922 ] } },
{ "type": "Feature", "properties": { "_uid_": 3666, "osm_id": 3980755245, "name": "Sushi Chiyo", "longitude": -122.621760508671, "latitude": 45.535563013854599, "type": "restaurant", "layer": "2813 Southeast Colt Drive", "path": "\/Users\/jasonsankovic\/Downloads\/2813 Southeast Colt Drive.geojson" }, "geometry": { "type": "Point", "coordinates": [ -122.621760508671017, 45.535563013854578 ] } },
{ "type": "Feature", "properties": { "_uid_": 3667, "osm_id": 1168495009, "name": "Mio Sushi", "longitude": -122.620121712098, "latitude": 45.533637004024797, "type": "restaurant", "layer": "2813 Southeast Colt Drive", "path": "\/Users\/jasonsankovic\/Downloads\/2813 Southeast Colt Drive.geojson" }, "geometry": { "type": "Point", "coordinates": [ -122.620121712098182, 45.533637004024754 ] } },
{ "type": "Feature", "properties": { "_uid_": 3668, "osm_id": 4328331602, "name": "Chin's Kitchen", "longitude": -122.62049559091901, "latitude": 45.534973413172601, "type": "restaurant", "layer": "2813 Southeast Colt Drive", "path": "\/Users\/jasonsankovic\/Downloads\/2813 Southeast Colt Drive.geojson" }, "geometry": { "type": "Point", "coordinates": [ -122.620495590919461, 45.53497341317258 ] } },
{ "type": "Feature", "properties": { "_uid_": 3669, "osm_id": 3994427564, "name": "Bluefin Sushi Bar", "longitude": -122.62050071131701, "latitude": 45.535015258035202, "type": "restaurant", "layer": "2813 Southeast Colt Drive", "path": "\/Users\/jasonsankovic\/Downloads\/2813 Southeast Colt Drive.geojson" }, "geometry": { "type": "Point", "coordinates": [ -122.620500711316552, 45.53501525803523 ] } },
{ "type": "Feature", "properties": { "_uid_": 3670, "osm_id": 3994427568, "name": "Soul Kitchen", "longitude": -122.62114920512001, "latitude": 45.535416904208297, "type": "restaurant", "layer": "2813 Southeast Colt Drive", "path": "\/Users\/jasonsankovic\/Downloads\/2813 Southeast Colt Drive.geojson" }, "geometry": { "type": "Point", "coordinates": [ -122.621149205120176, 45.53541690420834 ] } },
{ "type": "Feature", "properties": { "_uid_": 3671, "osm_id": 2611884030, "name": "My Canh", "longitude": -122.623372086291, "latitude": 45.535815715947003, "type": "restaurant", "layer": "2813 Southeast Colt Drive", "path": "\/Users\/jasonsankovic\/Downloads\/2813 Southeast Colt Drive.geojson" }, "geometry": { "type": "Point", "coordinates": [ -122.623372086290715, 45.535815715946967 ] } },
{ "type": "Feature", "properties": { "_uid_": 3672, "osm_id": 4289258258, "name": "Vivienne", "longitude": -122.620600424313, "latitude": 45.535661112236902, "type": "restaurant", "layer": "2813 Southeast Colt Drive", "path": "\/Users\/jasonsankovic\/Downloads\/2813 Southeast Colt Drive.geojson" }, "geometry": { "type": "Point", "coordinates": [ -122.62060042431311, 45.535661112236944 ] } },
{ "type": "Feature", "properties": { "_uid_": 3673, "osm_id": 2611882219, "name": "Blackwell's Grub Steak Grill", "longitude": -122.621126208249, "latitude": 45.535940808096399, "type": "restaurant", "layer": "2813 Southeast Colt Drive", "path": "\/Users\/jasonsankovic\/Downloads\/2813 Southeast Colt Drive.geojson" }, "geometry": { "type": "Point", "coordinates": [ -122.621126208248882, 45.53594080809642 ] } },
{ "type": "Feature", "properties": { "_uid_": 3674, "osm_id": 3980934177, "name": "Atomic Pizza", "longitude": -122.620463071906, "latitude": 45.535721078643, "type": "restaurant", "layer": "2813 Southeast Colt Drive", "path": "\/Users\/jasonsankovic\/Downloads\/2813 Southeast Colt Drive.geojson" }, "geometry": { "type": "Point", "coordinates": [ -122.620463071906158, 45.535721078642979 ] } },
{ "type": "Feature", "properties": { "_uid_": 3675, "osm_id": 1966230984, "name": "Killer Burger", "longitude": -122.61519912400399, "latitude": 45.538047197285202, "type": "restaurant", "layer": "2813 Southeast Colt Drive", "path": "\/Users\/jasonsankovic\/Downloads\/2813 Southeast Colt Drive.geojson" }, "geometry": { "type": "Point", "coordinates": [ -122.615199124004263, 45.538047197285181 ] } },
{ "type": "Feature", "properties": { "_uid_": 3676, "osm_id": 4921224886, "name": "Ambassador", "longitude": -122.61426254048899, "latitude": 45.538490286555302, "type": "restaurant", "layer": "2813 Southeast Colt Drive", "path": "\/Users\/jasonsankovic\/Downloads\/2813 Southeast Colt Drive.geojson" }, "geometry": { "type": "Point", "coordinates": [ -122.614262540489051, 45.538490286555309 ] } },
{ "type": "Feature", "properties": { "_uid_": 3677, "osm_id": 1364850536, "name": "Der Rheinlander", "longitude": -122.611521511063, "latitude": 45.539800783489703, "type": "restaurant", "layer": "2813 Southeast Colt Drive", "path": "\/Users\/jasonsankovic\/Downloads\/2813 Southeast Colt Drive.geojson" }, "geometry": { "type": "Point", "coordinates": [ -122.611521511062605, 45.539800783489717 ] } },
{ "type": "Feature", "properties": { "_uid_": 3678, "osm_id": 4048612625, "name": "Gustav's", "longitude": -122.61133448181999, "latitude": 45.539853509777302, "type": "restaurant", "layer": "2813 Southeast Colt Drive", "path": "\/Users\/jasonsankovic\/Downloads\/2813 Southeast Colt Drive.geojson" }, "geometry": { "type": "Point", "coordinates": [ -122.611334481820464, 45.539853509777323 ] } },
{ "type": "Feature", "properties": { "_uid_": 3679, "osm_id": 4048612608, "name": "Ziên Hông", "longitude": -122.608665317617, "latitude": 45.5404243724917, "type": "restaurant", "layer": "2813 Southeast Colt Drive", "path": "\/Users\/jasonsankovic\/Downloads\/2813 Southeast Colt Drive.geojson" }, "geometry": { "type": "Point", "coordinates": [ -122.608665317616754, 45.540424372491671 ] } },
{ "type": "Feature", "properties": { "_uid_": 3907, "osm_id": 4770407049, "name": "Danwei Canting", "longitude": -122.657386704692, "latitude": 45.519456513569203, "type": "restaurant", "layer": "2813 Southeast Colt Drive", "path": "\/Users\/jasonsankovic\/Downloads\/2813 Southeast Colt Drive.geojson" }, "geometry": { "type": "Point", "coordinates": [ -122.657386704692371, 45.519456513569189 ] } },
{ "type": "Feature", "properties": { "_uid_": 3908, "osm_id": 3664761404, "name": "Biwa", "longitude": -122.656844391755, "latitude": 45.521367085210997, "type": "restaurant", "layer": "2813 Southeast Colt Drive", "path": "\/Users\/jasonsankovic\/Downloads\/2813 Southeast Colt Drive.geojson" }, "geometry": { "type": "Point", "coordinates": [ -122.656844391755371, 45.521367085211033 ] } },
{ "type": "Feature", "properties": { "_uid_": 3909, "osm_id": 3721585434, "name": "Sunee Thai & Lao", "longitude": -122.651433389641, "latitude": 45.5192172705598, "type": "restaurant", "layer": "2813 Southeast Colt Drive", "path": "\/Users\/jasonsankovic\/Downloads\/2813 Southeast Colt Drive.geojson" }, "geometry": { "type": "Point", "coordinates": [ -122.651433389641454, 45.5192172705598 ] } },
{ "type": "Feature", "properties": { "_uid_": 3910, "osm_id": 3703627827, "name": "Mirakutei", "longitude": -122.660012120942, "latitude": 45.522802661976698, "type": "restaurant", "layer": "2813 Southeast Colt Drive", "path": "\/Users\/jasonsankovic\/Downloads\/2813 Southeast Colt Drive.geojson" }, "geometry": { "type": "Point", "coordinates": [ -122.660012120941744, 45.522802661976691 ] } },
{ "type": "Feature", "properties": { "_uid_": 3911, "osm_id": 891315843, "name": "Doug Fir Lounge", "longitude": -122.65687780908399, "latitude": 45.522792969485998, "type": "restaurant", "layer": "2813 Southeast Colt Drive", "path": "\/Users\/jasonsankovic\/Downloads\/2813 Southeast Colt Drive.geojson" }, "geometry": { "type": "Point", "coordinates": [ -122.656877809083923, 45.522792969485998 ] } },
{ "type": "Feature", "properties": { "_uid_": 3912, "osm_id": 3703591472, "name": "Thai Champa", "longitude": -122.656497821719, "latitude": 45.522731793467202, "type": "restaurant", "layer": "2813 Southeast Colt Drive", "path": "\/Users\/jasonsankovic\/Downloads\/2813 Southeast Colt Drive.geojson" }, "geometry": { "type": "Point", "coordinates": [ -122.656497821718744, 45.522731793467202 ] } },
{ "type": "Feature", "properties": { "_uid_": 3913, "osm_id": 1811986406, "name": "Noble Rot", "longitude": -122.654157171414, "latitude": 45.523041260360898, "type": "restaurant", "layer": "2813 Southeast Colt Drive", "path": "\/Users\/jasonsankovic\/Downloads\/2813 Southeast Colt Drive.geojson" }, "geometry": { "type": "Point", "coordinates": [ -122.65415717141444, 45.523041260360884 ] } },
{ "type": "Feature", "properties": { "_uid_": 3914, "osm_id": 5063331326, "name": "Prasad East", "longitude": -122.65386548844199, "latitude": 45.523488307049199, "type": "restaurant", "layer": "2813 Southeast Colt Drive", "path": "\/Users\/jasonsankovic\/Downloads\/2813 Southeast Colt Drive.geojson" }, "geometry": { "type": "Point", "coordinates": [ -122.653865488441696, 45.523488307049242 ] } },
{ "type": "Feature", "properties": { "_uid_": 3915, "osm_id": 3987213219, "name": "Fire on the Mountain", "longitude": -122.64830779144199, "latitude": 45.522716373575399, "type": "restaurant", "layer": "2813 Southeast Colt Drive", "path": "\/Users\/jasonsankovic\/Downloads\/2813 Southeast Colt Drive.geojson" }, "geometry": { "type": "Point", "coordinates": [ -122.648307791441894, 45.522716373575413 ] } },
{ "type": "Feature", "properties": { "_uid_": 3916, "osm_id": 1213730816, "name": "East Burn", "longitude": -122.647381538552, "latitude": 45.5227626961764, "type": "restaurant", "layer": "2813 Southeast Colt Drive", "path": "\/Users\/jasonsankovic\/Downloads\/2813 Southeast Colt Drive.geojson" }, "geometry": { "type": "Point", "coordinates": [ -122.647381538552438, 45.522762696176365 ] } },
{ "type": "Feature", "properties": { "_uid_": 3917, "osm_id": 495928835, "name": "Green Castle Food Court", "longitude": -122.64596255972999, "latitude": 45.524639988186003, "type": "restaurant", "layer": "2813 Southeast Colt Drive", "path": "\/Users\/jasonsankovic\/Downloads\/2813 Southeast Colt Drive.geojson" }, "geometry": { "type": "Point", "coordinates": [ -122.645962559729654, 45.524639988186038 ] } },
{ "type": "Feature", "properties": { "_uid_": 4007, "osm_id": 4735337941, "name": "Pixie Pearl Raw'r", "longitude": -122.681967036317, "latitude": 45.5263196670955, "type": "restaurant", "layer": "2813 Southeast Colt Drive", "path": "\/Users\/jasonsankovic\/Downloads\/2813 Southeast Colt Drive.geojson" }, "geometry": { "type": "Point", "coordinates": [ -122.681967036317147, 45.526319667095457 ] } },
{ "type": "Feature", "properties": { "_uid_": 4008, "osm_id": 5057264491, "name": "Gallo Nero", "longitude": -122.680380521694, "latitude": 45.525243857691898, "type": "restaurant", "layer": "2813 Southeast Colt Drive", "path": "\/Users\/jasonsankovic\/Downloads\/2813 Southeast Colt Drive.geojson" }, "geometry": { "type": "Point", "coordinates": [ -122.680380521693863, 45.525243857691947 ] } },
{ "type": "Feature", "properties": { "_uid_": 4009, "osm_id": 621110758, "name": "Chakam Thai Kitchen", "longitude": -122.679312065495, "latitude": 45.525582764418402, "type": "restaurant", "layer": "2813 Southeast Colt Drive", "path": "\/Users\/jasonsankovic\/Downloads\/2813 Southeast Colt Drive.geojson" }, "geometry": { "type": "Point", "coordinates": [ -122.679312065494955, 45.525582764418438 ] } },
{ "type": "Feature", "properties": { "_uid_": 4010, "osm_id": 1558920092, "name": "Phó Văn Fresh", "longitude": -122.681403612971, "latitude": 45.526427662269903, "type": "restaurant", "layer": "2813 Southeast Colt Drive", "path": "\/Users\/jasonsankovic\/Downloads\/2813 Southeast Colt Drive.geojson" }, "geometry": { "type": "Point", "coordinates": [ -122.681403612970954, 45.526427662269903 ] } },
{ "type": "Feature", "properties": { "_uid_": 4011, "osm_id": 357000733, "name": "Park Kitchen", "longitude": -122.678506905506, "latitude": 45.526461017380903, "type": "restaurant", "layer": "2813 Southeast Colt Drive", "path": "\/Users\/jasonsankovic\/Downloads\/2813 Southeast Colt Drive.geojson" }, "geometry": { "type": "Point", "coordinates": [ -122.67850690550577, 45.526461017380932 ] } },
{ "type": "Feature", "properties": { "_uid_": 4012, "osm_id": 2545360663, "name": "Burrito Bar", "longitude": -122.680432264654, "latitude": 45.527434159772902, "type": "restaurant", "layer": "2813 Southeast Colt Drive", "path": "\/Users\/jasonsankovic\/Downloads\/2813 Southeast Colt Drive.geojson" }, "geometry": { "type": "Point", "coordinates": [ -122.680432264654243, 45.527434159772852 ] } },
{ "type": "Feature", "properties": { "_uid_": 4013, "osm_id": 1970544873, "name": "Laughing Planet", "longitude": -122.680749729276, "latitude": 45.528416095805497, "type": "restaurant", "layer": "2813 Southeast Colt Drive", "path": "\/Users\/jasonsankovic\/Downloads\/2813 Southeast Colt Drive.geojson" }, "geometry": { "type": "Point", "coordinates": [ -122.680749729275661, 45.528416095805461 ] } },
{ "type": "Feature", "properties": { "_uid_": 4014, "osm_id": 1306161310, "name": "Wilf's Restaurant", "longitude": -122.67626650718699, "latitude": 45.528628679584102, "type": "restaurant", "layer": "2813 Southeast Colt Drive", "path": "\/Users\/jasonsankovic\/Downloads\/2813 Southeast Colt Drive.geojson" }, "geometry": { "type": "Point", "coordinates": [ -122.676266507187179, 45.528628679584109 ] } },
{ "type": "Feature", "properties": { "_uid_": 4156, "osm_id": 5077454672, "name": "Handsome Pizza", "longitude": -122.64889097772399, "latitude": 45.5628579012063, "type": "restaurant", "layer": "2813 Southeast Colt Drive", "path": "\/Users\/jasonsankovic\/Downloads\/2813 Southeast Colt Drive.geojson" }, "geometry": { "type": "Point", "coordinates": [ -122.648890977724363, 45.562857901206343 ] } },
{ "type": "Feature", "properties": { "_uid_": 4157, "osm_id": 4972507724, "name": "Hat Yai", "longitude": -122.648745360817, "latitude": 45.562840794193399, "type": "restaurant", "layer": "2813 Southeast Colt Drive", "path": "\/Users\/jasonsankovic\/Downloads\/2813 Southeast Colt Drive.geojson" }, "geometry": { "type": "Point", "coordinates": [ -122.648745360816804, 45.56284079419342 ] } },
{ "type": "Feature", "properties": { "_uid_": 4158, "osm_id": 2292041426, "name": "Yakuza", "longitude": -122.635020899906, "latitude": 45.562243995177099, "type": "restaurant", "layer": "2813 Southeast Colt Drive", "path": "\/Users\/jasonsankovic\/Downloads\/2813 Southeast Colt Drive.geojson" }, "geometry": { "type": "Point", "coordinates": [ -122.635020899906024, 45.562243995177056 ] } },
{ "type": "Feature", "properties": { "_uid_": 4159, "osm_id": 2292047085, "name": "Beast", "longitude": -122.635024942325, "latitude": 45.562405003861599, "type": "restaurant", "layer": "2813 Southeast Colt Drive", "path": "\/Users\/jasonsankovic\/Downloads\/2813 Southeast Colt Drive.geojson" }, "geometry": { "type": "Point", "coordinates": [ -122.63502494232479, 45.562405003861571 ] } },
{ "type": "Feature", "properties": { "_uid_": 4160, "osm_id": 2297617020, "name": "Cocotte", "longitude": -122.63501452186701, "latitude": 45.562600792315997, "type": "restaurant", "layer": "2813 Southeast Colt Drive", "path": "\/Users\/jasonsankovic\/Downloads\/2813 Southeast Colt Drive.geojson" }, "geometry": { "type": "Point", "coordinates": [ -122.63501452186749, 45.562600792315997 ] } },
{ "type": "Feature", "properties": { "_uid_": 4161, "osm_id": 3712279352, "name": "Autentica", "longitude": -122.635112078907, "latitude": 45.5628712975032, "type": "restaurant", "layer": "2813 Southeast Colt Drive", "path": "\/Users\/jasonsankovic\/Downloads\/2813 Southeast Colt Drive.geojson" }, "geometry": { "type": "Point", "coordinates": [ -122.635112078907369, 45.56287129750325 ] } },
{ "type": "Feature", "properties": { "_uid_": 4162, "osm_id": 2447471759, "name": "Expat", "longitude": -122.634753830772, "latitude": 45.562388588544202, "type": "restaurant", "layer": "2813 Southeast Colt Drive", "path": "\/Users\/jasonsankovic\/Downloads\/2813 Southeast Colt Drive.geojson" }, "geometry": { "type": "Point", "coordinates": [ -122.634753830772041, 45.56238858854416 ] } },
{ "type": "Feature", "properties": { "_uid_": 4163, "osm_id": 4214263337, "name": "Courtyard Restaurant", "longitude": -122.629998329321, "latitude": 45.564573607512301, "type": "restaurant", "layer": "2813 Southeast Colt Drive", "path": "\/Users\/jasonsankovic\/Downloads\/2813 Southeast Colt Drive.geojson" }, "geometry": { "type": "Point", "coordinates": [ -122.629998329320983, 45.564573607512315 ] } },
{ "type": "Feature", "properties": { "_uid_": 4164, "osm_id": 4949949954, "name": "King's Deli", "longitude": -122.64300800076001, "latitude": 45.5772072775476, "type": "restaurant", "layer": "2813 Southeast Colt Drive", "path": "\/Users\/jasonsankovic\/Downloads\/2813 Southeast Colt Drive.geojson" }, "geometry": { "type": "Point", "coordinates": [ -122.643008000760162, 45.577207277547593 ] } },
{ "type": "Feature", "properties": { "_uid_": 4284, "osm_id": 4972417632, "name": "Ate-Oh-Ate Grill", "longitude": -122.608525539759, "latitude": 45.4790178143435, "type": "restaurant", "layer": "2813 Southeast Colt Drive", "path": "\/Users\/jasonsankovic\/Downloads\/2813 Southeast Colt Drive.geojson" }, "geometry": { "type": "Point", "coordinates": [ -122.608525539758546, 45.47901781434345 ] } },
{ "type": "Feature", "properties": { "_uid_": 4285, "osm_id": 1809348188, "name": "Mezza Middle Eastern Cuisine", "longitude": -122.606301670441, "latitude": 45.47898310838, "type": "restaurant", "layer": "2813 Southeast Colt Drive", "path": "\/Users\/jasonsankovic\/Downloads\/2813 Southeast Colt Drive.geojson" }, "geometry": { "type": "Point", "coordinates": [ -122.606301670441198, 45.47898310838 ] } },
{ "type": "Feature", "properties": { "_uid_": 4286, "osm_id": 1809349228, "name": "Super Torta", "longitude": -122.60500351502399, "latitude": 45.478969881056202, "type": "restaurant", "layer": "2813 Southeast Colt Drive", "path": "\/Users\/jasonsankovic\/Downloads\/2813 Southeast Colt Drive.geojson" }, "geometry": { "type": "Point", "coordinates": [ -122.605003515024109, 45.478969881056173 ] } },
{ "type": "Feature", "properties": { "_uid_": 4467, "osm_id": 324207502, "name": "Be Won", "longitude": -122.698886265704, "latitude": 45.531402390032198, "type": "restaurant", "layer": "2813 Southeast Colt Drive", "path": "\/Users\/jasonsankovic\/Downloads\/2813 Southeast Colt Drive.geojson" }, "geometry": { "type": "Point", "coordinates": [ -122.698886265704374, 45.531402390032156 ] } },
{ "type": "Feature", "properties": { "_uid_": 4468, "osm_id": 663556146, "name": "Vista Spring Gourmet Pizza", "longitude": -122.69881314284, "latitude": 45.509359901609599, "type": "restaurant", "layer": "2813 Southeast Colt Drive", "path": "\/Users\/jasonsankovic\/Downloads\/2813 Southeast Colt Drive.geojson" }, "geometry": { "type": "Point", "coordinates": [ -122.698813142840251, 45.509359901609578 ] } },
{ "type": "Feature", "properties": { "_uid_": 4469, "osm_id": 324207469, "name": "Uptown Billiards", "longitude": -122.6982394787, "latitude": 45.524147258593501, "type": "restaurant", "layer": "2813 Southeast Colt Drive", "path": "\/Users\/jasonsankovic\/Downloads\/2813 Southeast Colt Drive.geojson" }, "geometry": { "type": "Point", "coordinates": [ -122.698239478699804, 45.524147258593487 ] } },
{ "type": "Feature", "properties": { "_uid_": 4470, "osm_id": 324207465, "name": "Pizza Oasis", "longitude": -122.697231209625, "latitude": 45.523462817364504, "type": "restaurant", "layer": "2813 Southeast Colt Drive", "path": "\/Users\/jasonsankovic\/Downloads\/2813 Southeast Colt Drive.geojson" }, "geometry": { "type": "Point", "coordinates": [ -122.697231209624931, 45.523462817364539 ] } },
{ "type": "Feature", "properties": { "_uid_": 4471, "osm_id": 324207464, "name": "Thai Orchid", "longitude": -122.697036724366, "latitude": 45.5234538173003, "type": "restaurant", "layer": "2813 Southeast Colt Drive", "path": "\/Users\/jasonsankovic\/Downloads\/2813 Southeast Colt Drive.geojson" }, "geometry": { "type": "Point", "coordinates": [ -122.697036724365901, 45.523453817300265 ] } },
{ "type": "Feature", "properties": { "_uid_": 4472, "osm_id": 973259034, "name": "Limo", "longitude": -122.69925394614999, "latitude": 45.524604995653299, "type": "restaurant", "layer": "2813 Southeast Colt Drive", "path": "\/Users\/jasonsankovic\/Downloads\/2813 Southeast Colt Drive.geojson" }, "geometry": { "type": "Point", "coordinates": [ -122.699253946150179, 45.524604995653284 ] } },
{ "type": "Feature", "properties": { "_uid_": 4473, "osm_id": 3782678467, "name": "August Moon", "longitude": -122.69864740366999, "latitude": 45.5256606151274, "type": "restaurant", "layer": "2813 Southeast Colt Drive", "path": "\/Users\/jasonsankovic\/Downloads\/2813 Southeast Colt Drive.geojson" }, "geometry": { "type": "Point", "coordinates": [ -122.698647403670321, 45.525660615127393 ] } },
{ "type": "Feature", "properties": { "_uid_": 4474, "osm_id": 3782788968, "name": "Pizzicato", "longitude": -122.698673544645, "latitude": 45.526358497552103, "type": "restaurant", "layer": "2813 Southeast Colt Drive", "path": "\/Users\/jasonsankovic\/Downloads\/2813 Southeast Colt Drive.geojson" }, "geometry": { "type": "Point", "coordinates": [ -122.698673544645104, 45.526358497552103 ] } },
{ "type": "Feature", "properties": { "_uid_": 4475, "osm_id": 2146082156, "name": "Escape From New York Pizza", "longitude": -122.69836802761699, "latitude": 45.527347375010201, "type": "restaurant", "layer": "2813 Southeast Colt Drive", "path": "\/Users\/jasonsankovic\/Downloads\/2813 Southeast Colt Drive.geojson" }, "geometry": { "type": "Point", "coordinates": [ -122.698368027616965, 45.527347375010152 ] } },
{ "type": "Feature", "properties": { "_uid_": 4476, "osm_id": 324207512, "name": "Papa Haydn", "longitude": -122.69871280102301, "latitude": 45.527777206860698, "type": "restaurant", "layer": "2813 Southeast Colt Drive", "path": "\/Users\/jasonsankovic\/Downloads\/2813 Southeast Colt Drive.geojson" }, "geometry": { "type": "Point", "coordinates": [ -122.698712801023021, 45.527777206860677 ] } },
{ "type": "Feature", "properties": { "_uid_": 4477, "osm_id": 324207483, "name": "Pepinos Mexican food", "longitude": -122.698432526654, "latitude": 45.529348865667899, "type": "restaurant", "layer": "2813 Southeast Colt Drive", "path": "\/Users\/jasonsankovic\/Downloads\/2813 Southeast Colt Drive.geojson" }, "geometry": { "type": "Point", "coordinates": [ -122.698432526654372, 45.529348865667885 ] } },
{ "type": "Feature", "properties": { "_uid_": 4478, "osm_id": 324207484, "name": "Little Big Burger", "longitude": -122.69841321287601, "latitude": 45.529457610196303, "type": "restaurant", "layer": "2813 Southeast Colt Drive", "path": "\/Users\/jasonsankovic\/Downloads\/2813 Southeast Colt Drive.geojson" }, "geometry": { "type": "Point", "coordinates": [ -122.698413212875764, 45.529457610196253 ] } },
{ "type": "Feature", "properties": { "_uid_": 4479, "osm_id": 1615448277, "name": "Dorio Greek Taverna", "longitude": -122.69872142485001, "latitude": 45.530361666810499, "type": "restaurant", "layer": "2813 Southeast Colt Drive", "path": "\/Users\/jasonsankovic\/Downloads\/2813 Southeast Colt Drive.geojson" }, "geometry": { "type": "Point", "coordinates": [ -122.698721424849722, 45.530361666810506 ] } },
{ "type": "Feature", "properties": { "_uid_": 4480, "osm_id": 324207489, "name": "Tara Thai & Lao", "longitude": -122.698540593983, "latitude": 45.5321392793984, "type": "restaurant", "layer": "2813 Southeast Colt Drive", "path": "\/Users\/jasonsankovic\/Downloads\/2813 Southeast Colt Drive.geojson" }, "geometry": { "type": "Point", "coordinates": [ -122.69854059398304, 45.532139279398351 ] } },
{ "type": "Feature", "properties": { "_uid_": 4481, "osm_id": 1188669625, "name": "Acapulco's Gold", "longitude": -122.705242115834, "latitude": 45.536674491861604, "type": "restaurant", "layer": "2813 Southeast Colt Drive", "path": "\/Users\/jasonsankovic\/Downloads\/2813 Southeast Colt Drive.geojson" }, "geometry": { "type": "Point", "coordinates": [ -122.70524211583411, 45.536674491861604 ] } },
{ "type": "Feature", "properties": { "_uid_": 4482, "osm_id": 1188669623, "name": "Meriwether's Restaurant", "longitude": -122.705134767158, "latitude": 45.536960097387201, "type": "restaurant", "layer": "2813 Southeast Colt Drive", "path": "\/Users\/jasonsankovic\/Downloads\/2813 Southeast Colt Drive.geojson" }, "geometry": { "type": "Point", "coordinates": [ -122.705134767157645, 45.536960097387187 ] } },
{ "type": "Feature", "properties": { "_uid_": 4483, "osm_id": 324207491, "name": "Matador", "longitude": -122.698600870939, "latitude": 45.533249818249402, "type": "restaurant", "layer": "2813 Southeast Colt Drive", "path": "\/Users\/jasonsankovic\/Downloads\/2813 Southeast Colt Drive.geojson" }, "geometry": { "type": "Point", "coordinates": [ -122.698600870938606, 45.533249818249381 ] } },
{ "type": "Feature", "properties": { "_uid_": 4484, "osm_id": 324207492, "name": "Pastini Pastaria", "longitude": -122.698604913357, "latitude": 45.533467795422098, "type": "restaurant", "layer": "2813 Southeast Colt Drive", "path": "\/Users\/jasonsankovic\/Downloads\/2813 Southeast Colt Drive.geojson" }, "geometry": { "type": "Point", "coordinates": [ -122.6986049133574, 45.533467795422069 ] } },
{ "type": "Feature", "properties": { "_uid_": 4485, "osm_id": 324207493, "name": "Sushi ville", "longitude": -122.698612908363, "latitude": 45.533629767519997, "type": "restaurant", "layer": "2813 Southeast Colt Drive", "path": "\/Users\/jasonsankovic\/Downloads\/2813 Southeast Colt Drive.geojson" }, "geometry": { "type": "Point", "coordinates": [ -122.69861290836343, 45.53362976751999 ] } },
{ "type": "Feature", "properties": { "_uid_": 4486, "osm_id": 3945241891, "name": "St. Jack", "longitude": -122.698631323827, "latitude": 45.5341732578989, "type": "restaurant", "layer": "2813 Southeast Colt Drive", "path": "\/Users\/jasonsankovic\/Downloads\/2813 Southeast Colt Drive.geojson" }, "geometry": { "type": "Point", "coordinates": [ -122.698631323826731, 45.534173257898942 ] } },
{ "type": "Feature", "properties": { "_uid_": 4487, "osm_id": 3291831549, "name": "Pacific Pie", "longitude": -122.698675700602, "latitude": 45.534697991397401, "type": "restaurant", "layer": "2813 Southeast Colt Drive", "path": "\/Users\/jasonsankovic\/Downloads\/2813 Southeast Colt Drive.geojson" }, "geometry": { "type": "Point", "coordinates": [ -122.698675700601768, 45.534697991397401 ] } },
{ "type": "Feature", "properties": { "_uid_": 4488, "osm_id": 1214380414, "name": "Ataula", "longitude": -122.69966887798, "latitude": 45.535852966756998, "type": "restaurant", "layer": "2813 Southeast Colt Drive", "path": "\/Users\/jasonsankovic\/Downloads\/2813 Southeast Colt Drive.geojson" }, "geometry": { "type": "Point", "coordinates": [ -122.699668877979889, 45.535852966756991 ] } },
{ "type": "Feature", "properties": { "_uid_": 4489, "osm_id": 1560144137, "name": null, "longitude": -122.70006027394901, "latitude": 45.536744713579402, "type": "restaurant", "layer": "2813 Southeast Colt Drive", "path": "\/Users\/jasonsankovic\/Downloads\/2813 Southeast Colt Drive.geojson" }, "geometry": { "type": "Point", "coordinates": [ -122.700060273949205, 45.536744713579381 ] } },
{ "type": "Feature", "properties": { "_uid_": 4705, "osm_id": 1360640604, "name": "Hayden's Grill", "longitude": -122.761375592151, "latitude": 45.3819487795936, "type": "restaurant", "layer": "2813 Southeast Colt Drive", "path": "\/Users\/jasonsankovic\/Downloads\/2813 Southeast Colt Drive.geojson" }, "geometry": { "type": "Point", "coordinates": [ -122.761375592150515, 45.381948779593614 ] } },
{ "type": "Feature", "properties": { "_uid_": 4732, "osm_id": 2807686796, "name": "Nayar Taqueria", "longitude": -122.602168162493, "latitude": 45.492481988984103, "type": "restaurant", "layer": "2813 Southeast Colt Drive", "path": "\/Users\/jasonsankovic\/Downloads\/2813 Southeast Colt Drive.geojson" }, "geometry": { "type": "Point", "coordinates": [ -122.602168162492845, 45.492481988984061 ] } },
{ "type": "Feature", "properties": { "_uid_": 4733, "osm_id": 2001947934, "name": "Tambayan", "longitude": -122.601509427895, "latitude": 45.491727262623797, "type": "restaurant", "layer": "2813 Southeast Colt Drive", "path": "\/Users\/jasonsankovic\/Downloads\/2813 Southeast Colt Drive.geojson" }, "geometry": { "type": "Point", "coordinates": [ -122.601509427894982, 45.491727262623762 ] } },
{ "type": "Feature", "properties": { "_uid_": 4734, "osm_id": 1963206625, "name": "Tortalandia", "longitude": -122.601695558822, "latitude": 45.492601572983503, "type": "restaurant", "layer": "2813 Southeast Colt Drive", "path": "\/Users\/jasonsankovic\/Downloads\/2813 Southeast Colt Drive.geojson" }, "geometry": { "type": "Point", "coordinates": [ -122.601695558821874, 45.492601572983524 ] } },
{ "type": "Feature", "properties": { "_uid_": 4735, "osm_id": 5061133399, "name": "Off the Griddle", "longitude": -122.59533979852399, "latitude": 45.488867019265399, "type": "restaurant", "layer": "2813 Southeast Colt Drive", "path": "\/Users\/jasonsankovic\/Downloads\/2813 Southeast Colt Drive.geojson" }, "geometry": { "type": "Point", "coordinates": [ -122.595339798523668, 45.488867019265378 ] } },
{ "type": "Feature", "properties": { "_uid_": 4736, "osm_id": 1996185950, "name": "Bar Carlo", "longitude": -122.59615771459001, "latitude": 45.489580661031802, "type": "restaurant", "layer": "2813 Southeast Colt Drive", "path": "\/Users\/jasonsankovic\/Downloads\/2813 Southeast Colt Drive.geojson" }, "geometry": { "type": "Point", "coordinates": [ -122.59615771458985, 45.489580661031816 ] } },
{ "type": "Feature", "properties": { "_uid_": 4737, "osm_id": 2807708352, "name": "Steakadelphia", "longitude": -122.602054166283, "latitude": 45.497607689305397, "type": "restaurant", "layer": "2813 Southeast Colt Drive", "path": "\/Users\/jasonsankovic\/Downloads\/2813 Southeast Colt Drive.geojson" }, "geometry": { "type": "Point", "coordinates": [ -122.602054166283281, 45.497607689305447 ] } },
{ "type": "Feature", "properties": { "_uid_": 4738, "osm_id": 2285943997, "name": "Emily's Teriyaki and Pho", "longitude": -122.600903334573, "latitude": 45.505220885866301, "type": "restaurant", "layer": "2813 Southeast Colt Drive", "path": "\/Users\/jasonsankovic\/Downloads\/2813 Southeast Colt Drive.geojson" }, "geometry": { "type": "Point", "coordinates": [ -122.600903334572791, 45.505220885866336 ] } },
{ "type": "Feature", "properties": { "_uid_": 4739, "osm_id": 1023495695, "name": "Pizzicato", "longitude": -122.600773528014, "latitude": 45.505221767277099, "type": "restaurant", "layer": "2813 Southeast Colt Drive", "path": "\/Users\/jasonsankovic\/Downloads\/2813 Southeast Colt Drive.geojson" }, "geometry": { "type": "Point", "coordinates": [ -122.600773528014244, 45.505221767277099 ] } },
{ "type": "Feature", "properties": { "_uid_": 4740, "osm_id": 2534116554, "name": "Powell Seafood Restaurant", "longitude": -122.59489216801801, "latitude": 45.497612789585702, "type": "restaurant", "layer": "2813 Southeast Colt Drive", "path": "\/Users\/jasonsankovic\/Downloads\/2813 Southeast Colt Drive.geojson" }, "geometry": { "type": "Point", "coordinates": [ -122.594892168017594, 45.497612789585695 ] } },
{ "type": "Feature", "properties": { "_uid_": 4850, "osm_id": 3151569161, "name": "Shut Up and Eat", "longitude": -122.62290586065799, "latitude": 45.4931989854012, "type": "restaurant", "layer": "2813 Southeast Colt Drive", "path": "\/Users\/jasonsankovic\/Downloads\/2813 Southeast Colt Drive.geojson" }, "geometry": { "type": "Point", "coordinates": [ -122.622905860658264, 45.493198985401229 ] } },
{ "type": "Feature", "properties": { "_uid_": 4851, "osm_id": 5060965197, "name": "Tecos", "longitude": -122.619193303252, "latitude": 45.497327110213497, "type": "restaurant", "layer": "2813 Southeast Colt Drive", "path": "\/Users\/jasonsankovic\/Downloads\/2813 Southeast Colt Drive.geojson" }, "geometry": { "type": "Point", "coordinates": [ -122.619193303252047, 45.497327110213526 ] } },
{ "type": "Feature", "properties": { "_uid_": 4852, "osm_id": 2616541820, "name": "Yataimura Maru", "longitude": -122.62410547088901, "latitude": 45.504663013045203, "type": "restaurant", "layer": "2813 Southeast Colt Drive", "path": "\/Users\/jasonsankovic\/Downloads\/2813 Southeast Colt Drive.geojson" }, "geometry": { "type": "Point", "coordinates": [ -122.624105470888679, 45.504663013045224 ] } },
{ "type": "Feature", "properties": { "_uid_": 4853, "osm_id": 2616530853, "name": "Little Big Burger", "longitude": -122.62381109297, "latitude": 45.504666979432798, "type": "restaurant", "layer": "2813 Southeast Colt Drive", "path": "\/Users\/jasonsankovic\/Downloads\/2813 Southeast Colt Drive.geojson" }, "geometry": { "type": "Point", "coordinates": [ -122.623811092970072, 45.504666979432848 ] } },
{ "type": "Feature", "properties": { "_uid_": 4854, "osm_id": 2613641071, "name": "Tom's Restaurant", "longitude": -122.622907477626, "latitude": 45.504936693134901, "type": "restaurant", "layer": "2813 Southeast Colt Drive", "path": "\/Users\/jasonsankovic\/Downloads\/2813 Southeast Colt Drive.geojson" }, "geometry": { "type": "Point", "coordinates": [ -122.622907477625773, 45.504936693134908 ] } },
{ "type": "Feature", "properties": { "_uid_": 4855, "osm_id": 1394259707, "name": "Sckavone's", "longitude": -122.620102308488, "latitude": 45.504600872936102, "type": "restaurant", "layer": "2813 Southeast Colt Drive", "path": "\/Users\/jasonsankovic\/Downloads\/2813 Southeast Colt Drive.geojson" }, "geometry": { "type": "Point", "coordinates": [ -122.620102308488057, 45.504600872936145 ] } },
{ "type": "Feature", "properties": { "_uid_": 4856, "osm_id": 324193662, "name": "New Thai Blues", "longitude": -122.61928457208499, "latitude": 45.504988192943202, "type": "restaurant", "layer": "2813 Southeast Colt Drive", "path": "\/Users\/jasonsankovic\/Downloads\/2813 Southeast Colt Drive.geojson" }, "geometry": { "type": "Point", "coordinates": [ -122.619284572084922, 45.504988192943223 ] } },
{ "type": "Feature", "properties": { "_uid_": 4857, "osm_id": 324193669, "name": "Pho Hung", "longitude": -122.614057634773, "latitude": 45.497759312254402, "type": "restaurant", "layer": "2813 Southeast Colt Drive", "path": "\/Users\/jasonsankovic\/Downloads\/2813 Southeast Colt Drive.geojson" }, "geometry": { "type": "Point", "coordinates": [ -122.614057634772749, 45.497759312254388 ] } },
{ "type": "Feature", "properties": { "_uid_": 4858, "osm_id": 3342729709, "name": "Thai BBQ", "longitude": -122.613312572076, "latitude": 45.497721091723903, "type": "restaurant", "layer": "2813 Southeast Colt Drive", "path": "\/Users\/jasonsankovic\/Downloads\/2813 Southeast Colt Drive.geojson" }, "geometry": { "type": "Point", "coordinates": [ -122.613312572076083, 45.497721091723932 ] } },
{ "type": "Feature", "properties": { "_uid_": 4859, "osm_id": 5061090332, "name": "Ishtar Gate", "longitude": -122.608454572851, "latitude": 45.495182863010697, "type": "restaurant", "layer": "2813 Southeast Colt Drive", "path": "\/Users\/jasonsankovic\/Downloads\/2813 Southeast Colt Drive.geojson" }, "geometry": { "type": "Point", "coordinates": [ -122.608454572851102, 45.495182863010747 ] } },
{ "type": "Feature", "properties": { "_uid_": 4860, "osm_id": 1946793369, "name": "Foster Burger", "longitude": -122.607563174595, "latitude": 45.4951197679, "type": "restaurant", "layer": "2813 Southeast Colt Drive", "path": "\/Users\/jasonsankovic\/Downloads\/2813 Southeast Colt Drive.geojson" }, "geometry": { "type": "Point", "coordinates": [ -122.607563174594674, 45.495119767899979 ] } },
{ "type": "Feature", "properties": { "_uid_": 4861, "osm_id": 523462912, "name": "Midpoint", "longitude": -122.608785063044, "latitude": 45.497133172322101, "type": "restaurant", "layer": "2813 Southeast Colt Drive", "path": "\/Users\/jasonsankovic\/Downloads\/2813 Southeast Colt Drive.geojson" }, "geometry": { "type": "Point", "coordinates": [ -122.608785063044124, 45.497133172322059 ] } },
{ "type": "Feature", "properties": { "_uid_": 4862, "osm_id": 2285926158, "name": "The Woodsman Tavern", "longitude": -122.615358485136, "latitude": 45.505424806173501, "type": "restaurant", "layer": "2813 Southeast Colt Drive", "path": "\/Users\/jasonsankovic\/Downloads\/2813 Southeast Colt Drive.geojson" }, "geometry": { "type": "Point", "coordinates": [ -122.615358485135673, 45.505424806173465 ] } },
{ "type": "Feature", "properties": { "_uid_": 4863, "osm_id": 4795840172, "name": "Fern Kitchen", "longitude": -122.611389009558, "latitude": 45.506382762138998, "type": "restaurant", "layer": "2813 Southeast Colt Drive", "path": "\/Users\/jasonsankovic\/Downloads\/2813 Southeast Colt Drive.geojson" }, "geometry": { "type": "Point", "coordinates": [ -122.611389009558209, 45.506382762139047 ] } },
{ "type": "Feature", "properties": { "_uid_": 5112, "osm_id": 664314287, "name": "Gotham Tavern", "longitude": -122.67444993402, "latitude": 45.539197196104197, "type": "restaurant", "layer": "2813 Southeast Colt Drive", "path": "\/Users\/jasonsankovic\/Downloads\/2813 Southeast Colt Drive.geojson" }, "geometry": { "type": "Point", "coordinates": [ -122.674449934019634, 45.539197196104212 ] } },
{ "type": "Feature", "properties": { "_uid_": 5113, "osm_id": 498664038, "name": "The People's Pig", "longitude": -122.666866536054, "latitude": 45.546380113761103, "type": "restaurant", "layer": "2813 Southeast Colt Drive", "path": "\/Users\/jasonsankovic\/Downloads\/2813 Southeast Colt Drive.geojson" }, "geometry": { "type": "Point", "coordinates": [ -122.666866536054144, 45.546380113761082 ] } },
{ "type": "Feature", "properties": { "_uid_": 5114, "osm_id": 2924967045, "name": "Sweedeedee", "longitude": -122.674864776018, "latitude": 45.5605408598257, "type": "restaurant", "layer": "2813 Southeast Colt Drive", "path": "\/Users\/jasonsankovic\/Downloads\/2813 Southeast Colt Drive.geojson" }, "geometry": { "type": "Point", "coordinates": [ -122.674864776017856, 45.560540859825686 ] } },
{ "type": "Feature", "properties": { "_uid_": 5115, "osm_id": 4487901391, "name": "British Overseas Restaurant Corporation", "longitude": -122.666570181842, "latitude": 45.553534058591097, "type": "restaurant", "layer": "2813 Southeast Colt Drive", "path": "\/Users\/jasonsankovic\/Downloads\/2813 Southeast Colt Drive.geojson" }, "geometry": { "type": "Point", "coordinates": [ -122.666570181841934, 45.55353405859109 ] } },
{ "type": "Feature", "properties": { "_uid_": 5116, "osm_id": 4173461974, "name": "Open Tandoor", "longitude": -122.66692286042201, "latitude": 45.554683866435703, "type": "restaurant", "layer": "2813 Southeast Colt Drive", "path": "\/Users\/jasonsankovic\/Downloads\/2813 Southeast Colt Drive.geojson" }, "geometry": { "type": "Point", "coordinates": [ -122.666922860422474, 45.554683866435688 ] } },
{ "type": "Feature", "properties": { "_uid_": 5235, "osm_id": 4035505064, "name": "Farm House Cafe", "longitude": -122.67526632294999, "latitude": 45.515382571729603, "type": "restaurant", "layer": "2813 Southeast Colt Drive", "path": "\/Users\/jasonsankovic\/Downloads\/2813 Southeast Colt Drive.geojson" }, "geometry": { "type": "Point", "coordinates": [ -122.675266322949838, 45.515382571729617 ] } },
{ "type": "Feature", "properties": { "_uid_": 5236, "osm_id": 4025169060, "name": "ArtBar & Bistro", "longitude": -122.68169340948199, "latitude": 45.516592894905898, "type": "restaurant", "layer": "2813 Southeast Colt Drive", "path": "\/Users\/jasonsankovic\/Downloads\/2813 Southeast Colt Drive.geojson" }, "geometry": { "type": "Point", "coordinates": [ -122.681693409481611, 45.516592894905855 ] } },
{ "type": "Feature", "properties": { "_uid_": 5237, "osm_id": 3282318440, "name": "Heathman Restaurant", "longitude": -122.681036741009, "latitude": 45.517112819793503, "type": "restaurant", "layer": "2813 Southeast Colt Drive", "path": "\/Users\/jasonsankovic\/Downloads\/2813 Southeast Colt Drive.geojson" }, "geometry": { "type": "Point", "coordinates": [ -122.68103674100891, 45.517112819793525 ] } },
{ "type": "Feature", "properties": { "_uid_": 5238, "osm_id": 355041761, "name": "Hop City Tavern", "longitude": -122.679611743474, "latitude": 45.517628082018902, "type": "restaurant", "layer": "2813 Southeast Colt Drive", "path": "\/Users\/jasonsankovic\/Downloads\/2813 Southeast Colt Drive.geojson" }, "geometry": { "type": "Point", "coordinates": [ -122.679611743473728, 45.517628082018923 ] } },
{ "type": "Feature", "properties": { "_uid_": 5239, "osm_id": 3959036465, "name": "Ringside Fish House", "longitude": -122.680999101599, "latitude": 45.5186027619513, "type": "restaurant", "layer": "2813 Southeast Colt Drive", "path": "\/Users\/jasonsankovic\/Downloads\/2813 Southeast Colt Drive.geojson" }, "geometry": { "type": "Point", "coordinates": [ -122.680999101598502, 45.518602761951307 ] } },
{ "type": "Feature", "properties": { "_uid_": 5240, "osm_id": 3959036461, "name": "Flying Elephants Delicatessen", "longitude": -122.680920768506, "latitude": 45.518708317169697, "type": "restaurant", "layer": "2813 Southeast Colt Drive", "path": "\/Users\/jasonsankovic\/Downloads\/2813 Southeast Colt Drive.geojson" }, "geometry": { "type": "Point", "coordinates": [ -122.680920768505757, 45.518708317169697 ] } },
{ "type": "Feature", "properties": { "_uid_": 5241, "osm_id": 3959036464, "name": "Pieology", "longitude": -122.680623785473, "latitude": 45.518737082033901, "type": "restaurant", "layer": "2813 Southeast Colt Drive", "path": "\/Users\/jasonsankovic\/Downloads\/2813 Southeast Colt Drive.geojson" }, "geometry": { "type": "Point", "coordinates": [ -122.680623785472804, 45.51873708203388 ] } },
{ "type": "Feature", "properties": { "_uid_": 5242, "osm_id": 4686884997, "name": "Cafe Pacifica", "longitude": -122.679745861946, "latitude": 45.518152277496498, "type": "restaurant", "layer": "2813 Southeast Colt Drive", "path": "\/Users\/jasonsankovic\/Downloads\/2813 Southeast Colt Drive.geojson" }, "geometry": { "type": "Point", "coordinates": [ -122.679745861945648, 45.518152277496455 ] } },
{ "type": "Feature", "properties": { "_uid_": 5243, "osm_id": 661311313, "name": "Porto Terra", "longitude": -122.678985078732, "latitude": 45.518016382427902, "type": "restaurant", "layer": "2813 Southeast Colt Drive", "path": "\/Users\/jasonsankovic\/Downloads\/2813 Southeast Colt Drive.geojson" }, "geometry": { "type": "Point", "coordinates": [ -122.678985078731543, 45.518016382427888 ] } },
{ "type": "Feature", "properties": { "_uid_": 5244, "osm_id": 4927278221, "name": "Thai restaurant", "longitude": -122.679634291187, "latitude": 45.519804015218199, "type": "restaurant", "layer": "2813 Southeast Colt Drive", "path": "\/Users\/jasonsankovic\/Downloads\/2813 Southeast Colt Drive.geojson" }, "geometry": { "type": "Point", "coordinates": [ -122.679634291187341, 45.51980401521817 ] } },
{ "type": "Feature", "properties": { "_uid_": 5245, "osm_id": 3698130398, "name": "Departure", "longitude": -122.678099519524, "latitude": 45.519067719558997, "type": "restaurant", "layer": "2813 Southeast Colt Drive", "path": "\/Users\/jasonsankovic\/Downloads\/2813 Southeast Colt Drive.geojson" }, "geometry": { "type": "Point", "coordinates": [ -122.678099519524437, 45.519067719558961 ] } },
{ "type": "Feature", "properties": { "_uid_": 5246, "osm_id": 3698130400, "name": "Urban Farmer", "longitude": -122.677914466576, "latitude": 45.519019757411399, "type": "restaurant", "layer": "2813 Southeast Colt Drive", "path": "\/Users\/jasonsankovic\/Downloads\/2813 Southeast Colt Drive.geojson" }, "geometry": { "type": "Point", "coordinates": [ -122.677914466575913, 45.519019757411378 ] } },
{ "type": "Feature", "properties": { "_uid_": 5247, "osm_id": 4563881379, "name": "High Noon", "longitude": -122.674894600085, "latitude": 45.517030802905801, "type": "restaurant", "layer": "2813 Southeast Colt Drive", "path": "\/Users\/jasonsankovic\/Downloads\/2813 Southeast Colt Drive.geojson" }, "geometry": { "type": "Point", "coordinates": [ -122.674894600085295, 45.517030802905801 ] } },
{ "type": "Feature", "properties": { "_uid_": 5248, "osm_id": 5059524281, "name": "Alto Bajo", "longitude": -122.674721135404, "latitude": 45.520209483547099, "type": "restaurant", "layer": "2813 Southeast Colt Drive", "path": "\/Users\/jasonsankovic\/Downloads\/2813 Southeast Colt Drive.geojson" }, "geometry": { "type": "Point", "coordinates": [ -122.674721135403914, 45.520209483547063 ] } },
{ "type": "Feature", "properties": { "_uid_": 5249, "osm_id": 3498112765, "name": "Armory Cafe", "longitude": -122.681810819289, "latitude": 45.524234614723099, "type": "restaurant", "layer": "2813 Southeast Colt Drive", "path": "\/Users\/jasonsankovic\/Downloads\/2813 Southeast Colt Drive.geojson" }, "geometry": { "type": "Point", "coordinates": [ -122.681810819289268, 45.524234614723071 ] } },
{ "type": "Feature", "properties": { "_uid_": 5250, "osm_id": 2174824087, "name": "Prasad", "longitude": -122.68068648788, "latitude": 45.524525884757097, "type": "restaurant", "layer": "2813 Southeast Colt Drive", "path": "\/Users\/jasonsankovic\/Downloads\/2813 Southeast Colt Drive.geojson" }, "geometry": { "type": "Point", "coordinates": [ -122.680686487879655, 45.524525884757111 ] } },
{ "type": "Feature", "properties": { "_uid_": 5251, "osm_id": 4106707895, "name": "Portland City Grill", "longitude": -122.67599270068899, "latitude": 45.522610699999298, "type": "restaurant", "layer": "2813 Southeast Colt Drive", "path": "\/Users\/jasonsankovic\/Downloads\/2813 Southeast Colt Drive.geojson" }, "geometry": { "type": "Point", "coordinates": [ -122.675992700688596, 45.522610699999262 ] } },
{ "type": "Feature", "properties": { "_uid_": 5476, "osm_id": 4002991911, "name": "Zeus Café", "longitude": -122.683285313997, "latitude": 45.522728268920901, "type": "restaurant", "layer": "2813 Southeast Colt Drive", "path": "\/Users\/jasonsankovic\/Downloads\/2813 Southeast Colt Drive.geojson" }, "geometry": { "type": "Point", "coordinates": [ -122.683285313996592, 45.522728268920879 ] } },
{ "type": "Feature", "properties": { "_uid_": 5580, "osm_id": 4868773487, "name": "Chinese Garden Restaurant & Lounge", "longitude": -122.49607092906299, "latitude": 45.520051689870698, "type": "restaurant", "layer": "2813 Southeast Colt Drive", "path": "\/Users\/jasonsankovic\/Downloads\/2813 Southeast Colt Drive.geojson" }, "geometry": { "type": "Point", "coordinates": [ -122.496070929062867, 45.520051689870684 ] } },
{ "type": "Feature", "properties": { "_uid_": 5581, "osm_id": 4868636038, "name": "Annie's Restaurant", "longitude": -122.483341621824, "latitude": 45.518809403257599, "type": "restaurant", "layer": "2813 Southeast Colt Drive", "path": "\/Users\/jasonsankovic\/Downloads\/2813 Southeast Colt Drive.geojson" }, "geometry": { "type": "Point", "coordinates": [ -122.483341621823826, 45.518809403257634 ] } },
{ "type": "Feature", "properties": { "_uid_": 5582, "osm_id": 4868634819, "name": "Papa Murphy's Take 'N' Bake Pizza", "longitude": -122.477717359661, "latitude": 45.518821362371803, "type": "restaurant", "layer": "2813 Southeast Colt Drive", "path": "\/Users\/jasonsankovic\/Downloads\/2813 Southeast Colt Drive.geojson" }, "geometry": { "type": "Point", "coordinates": [ -122.477717359661497, 45.518821362371838 ] } },
{ "type": "Feature", "properties": { "_uid_": 5583, "osm_id": 4868636027, "name": "Giuseppe's", "longitude": -122.478202360083, "latitude": 45.519425797870099, "type": "restaurant", "layer": "2813 Southeast Colt Drive", "path": "\/Users\/jasonsankovic\/Downloads\/2813 Southeast Colt Drive.geojson" }, "geometry": { "type": "Point", "coordinates": [ -122.478202360083372, 45.519425797870099 ] } },
{ "type": "Feature", "properties": { "_uid_": 5584, "osm_id": 4867357477, "name": "Taqueria Rico Taco", "longitude": -122.47745666856601, "latitude": 45.521310313435997, "type": "restaurant", "layer": "2813 Southeast Colt Drive", "path": "\/Users\/jasonsankovic\/Downloads\/2813 Southeast Colt Drive.geojson" }, "geometry": { "type": "Point", "coordinates": [ -122.477456668566035, 45.521310313436018 ] } },
{ "type": "Feature", "properties": { "_uid_": 5585, "osm_id": 4867357472, "name": "Don Pedro Mayor #1", "longitude": -122.476690585292, "latitude": 45.521713379210198, "type": "restaurant", "layer": "2813 Southeast Colt Drive", "path": "\/Users\/jasonsankovic\/Downloads\/2813 Southeast Colt Drive.geojson" }, "geometry": { "type": "Point", "coordinates": [ -122.476690585291735, 45.521713379210233 ] } },
{ "type": "Feature", "properties": { "_uid_": 5783, "osm_id": 962355297, "name": "Sandoval's", "longitude": -122.753578395147, "latitude": 45.516353891502597, "type": "restaurant", "layer": "2813 Southeast Colt Drive", "path": "\/Users\/jasonsankovic\/Downloads\/2813 Southeast Colt Drive.geojson" }, "geometry": { "type": "Point", "coordinates": [ -122.753578395147429, 45.516353891502568 ] } },
{ "type": "Feature", "properties": { "_uid_": 5784, "osm_id": 962355295, "name": "Biscuits Cafe", "longitude": -122.75329407836, "latitude": 45.5161848197436, "type": "restaurant", "layer": "2813 Southeast Colt Drive", "path": "\/Users\/jasonsankovic\/Downloads\/2813 Southeast Colt Drive.geojson" }, "geometry": { "type": "Point", "coordinates": [ -122.753294078360014, 45.516184819743572 ] } },
{ "type": "Feature", "properties": { "_uid_": 5785, "osm_id": 962355300, "name": "Joy Wok", "longitude": -122.752725534617, "latitude": 45.516068307226803, "type": "restaurant", "layer": "2813 Southeast Colt Drive", "path": "\/Users\/jasonsankovic\/Downloads\/2813 Southeast Colt Drive.geojson" }, "geometry": { "type": "Point", "coordinates": [ -122.752725534616673, 45.51606830722681 ] } },
{ "type": "Feature", "properties": { "_uid_": 5786, "osm_id": 603462221, "name": "Skyline Restaurant", "longitude": -122.754949134439, "latitude": 45.531728988645298, "type": "restaurant", "layer": "2813 Southeast Colt Drive", "path": "\/Users\/jasonsankovic\/Downloads\/2813 Southeast Colt Drive.geojson" }, "geometry": { "type": "Point", "coordinates": [ -122.754949134439457, 45.531728988645348 ] } },
{ "type": "Feature", "properties": { "_uid_": 6072, "osm_id": 3757485723, "name": "Rice and Spice Teriyaki", "longitude": -122.616541027376, "latitude": 45.526246096837497, "type": "restaurant", "layer": "2813 Southeast Colt Drive", "path": "\/Users\/jasonsankovic\/Downloads\/2813 Southeast Colt Drive.geojson" }, "geometry": { "type": "Point", "coordinates": [ -122.616541027375689, 45.526246096837497 ] } },
{ "type": "Feature", "properties": { "_uid_": 6073, "osm_id": 3757491325, "name": "The Hutch", "longitude": -122.61539432791599, "latitude": 45.526278004566002, "type": "restaurant", "layer": "2813 Southeast Colt Drive", "path": "\/Users\/jasonsankovic\/Downloads\/2813 Southeast Colt Drive.geojson" }, "geometry": { "type": "Point", "coordinates": [ -122.61539432791551, 45.526278004565981 ] } },
{ "type": "Feature", "properties": { "_uid_": 6074, "osm_id": 3757491328, "name": null, "longitude": -122.615279074065, "latitude": 45.526285493754102, "type": "restaurant", "layer": "2813 Southeast Colt Drive", "path": "\/Users\/jasonsankovic\/Downloads\/2813 Southeast Colt Drive.geojson" }, "geometry": { "type": "Point", "coordinates": [ -122.615279074064546, 45.526285493754074 ] } },
{ "type": "Feature", "properties": { "_uid_": 6075, "osm_id": 4035811400, "name": "Los Taquitos Taqueria", "longitude": -122.60350117254301, "latitude": 45.526337918042799, "type": "restaurant", "layer": "2813 Southeast Colt Drive", "path": "\/Users\/jasonsankovic\/Downloads\/2813 Southeast Colt Drive.geojson" }, "geometry": { "type": "Point", "coordinates": [ -122.603501172542934, 45.526337918042763 ] } },
{ "type": "Feature", "properties": { "_uid_": 6208, "osm_id": 5059524275, "name": "Chili Pit", "longitude": -122.673029877218, "latitude": 45.520455708774698, "type": "restaurant", "layer": "2813 Southeast Colt Drive", "path": "\/Users\/jasonsankovic\/Downloads\/2813 Southeast Colt Drive.geojson" }, "geometry": { "type": "Point", "coordinates": [ -122.673029877218497, 45.520455708774712 ] } },
{ "type": "Feature", "properties": { "_uid_": 6209, "osm_id": 5130542306, "name": "Kells Irish Restaurant & Pub", "longitude": -122.67224403100801, "latitude": 45.521623690401903, "type": "restaurant", "layer": "2813 Southeast Colt Drive", "path": "\/Users\/jasonsankovic\/Downloads\/2813 Southeast Colt Drive.geojson" }, "geometry": { "type": "Point", "coordinates": [ -122.672244031007963, 45.521623690401881 ] } },